Time,Longitude,Latitude,Altitude,Roll (deg),Pitch (deg),Yaw (deg)
0.0,128.181995,37.923556,7000.114219200001,0.0,-0.003,90.0
0.0167,128.182052,37.923556,7000.1117808,0.0,-0.012,90.0
0.0334,128.182109,37.923556,7000.108123200001,0.047,-0.013,90.007
0.0501,128.182166,37.923556,7000.103246400001,0.141,0.007,90.02
0.0668,128.182223,37.923556,7000.0965408,0.279,0.062,90.039
0.0834,128.18228,37.923556,7000.088616,0.459,0.164,90.059
0.1002,128.182337,37.923556,7000.0803864,0.677,0.324,90.08
0.1169,128.182394,37.923556,7000.0724616,0.929,0.55,90.103
0.1336,128.182451,37.923556,7000.065756000001,1.212,0.85,90.126
0.1503,128.182508,37.923556,7000.0602696000005,1.523,1.224,90.151
0.1669,128.182565,37.923556,7000.0563071999995,1.857,1.66,90.178
0.1837,128.182622,37.923556,7000.055088000001,2.213,2.146,90.208
0.2004,128.182679,37.923556,7000.056612,2.589,2.668,90.242
0.2171,128.182736,37.923556,7000.0614888,2.985,3.209,90.279
0.2338,128.182793,37.923556,7000.070328000001,3.398,3.751,90.319
0.2505,128.18285,37.923556,7000.0831296,3.83,4.279,90.362
0.2672,128.182907,37.923556,7000.100808,4.279,4.775,90.407
0.2839,128.182964,37.923556,7000.1233632,4.746,5.237,90.454
0.3006,128.183021,37.923556,7000.151404800001,5.232,5.667,90.502
0.3172,128.183079,37.923556,7000.185237600001,5.738,6.067,90.552
0.3339,128.183136,37.923556,7000.2248616,6.263,6.44,90.604
0.3507,128.183193,37.923556,7000.271496,6.809,6.788,90.658
0.3674,128.18325,37.923556,7000.3242264,7.378,7.113,90.715
0.3841,128.183307,37.923556,7000.3839672,7.968,7.417,90.772
0.4008,128.183364,37.923555,7000.4507184,8.582,7.702,90.832
0.4175,128.183421,37.923555,7000.52448,9.221,7.969,90.894
0.4342,128.183479,37.923555,7000.605556800001,9.885,8.22,90.958
0.4509,128.183536,37.923555,7000.6942536,10.575,8.456,91.025
0.4676,128.183593,37.923555,7000.789960800001,11.293,8.678,91.093
0.4843,128.18365,37.923555,7000.893288000001,12.039,8.889,91.164
0.501,128.183707,37.923555,7001.0042352,12.815,9.088,91.237
0.5176,128.183764,37.923555,7001.1228024,13.621,9.276,91.313
0.5344,128.183822,37.923554,7001.2486848,14.46,9.455,91.391
0.5511,128.183879,37.923554,7001.382187200001,15.332,9.624,91.472
0.5678,128.183936,37.923554,7001.5233096,16.238,9.786,91.555
0.5845,128.183993,37.923554,7001.671747200001,17.181,9.94,91.642
0.6012,128.18405,37.923553,7001.8278048,18.16,10.086,91.731
0.6179,128.184107,37.923553,7001.991177600001,19.178,10.226,91.823
0.6345,128.184164,37.923553,7002.161560800001,20.236,10.359,91.919
0.6513,128.184222,37.923552,7002.339564000001,21.335,10.487,92.018
0.6679,128.184279,37.923552,7002.5245776,22.476,10.608,92.12
0.6847,128.184336,37.923551,7002.716601600001,23.661,10.724,92.225
0.7014,128.184393,37.923551,7002.9153312,24.892,10.835,92.335
0.7181,128.18445,37.92355,7003.1210712,26.17,10.941,92.448
0.7348,128.184507,37.92355,7003.333212,27.495,11.041,92.566
0.7514,128.184564,37.923549,7003.5520584000005,28.871,11.136,92.688
0.7682,128.184621,37.923549,7003.777000800001,30.297,11.226,92.814
0.7848,128.184679,37.923548,7004.0080392,31.777,11.311,92.944
0.8016,128.184736,37.923547,7004.245478400001,33.309,11.392,93.079
0.8183,128.184793,37.923547,7004.488404000001,34.893,11.466,93.219
0.835,128.18485,37.923546,7004.7374256,36.529,11.536,93.363
0.8517,128.184907,37.923545,7004.991933600001,38.215,11.601,93.512
0.8684,128.184964,37.923544,7005.2522328000005,39.952,11.661,93.666
0.8851,128.185021,37.923543,7005.5177136,41.738,11.716,93.825
0.9018,128.185078,37.923542,7005.7880712,43.573,11.765,93.989
0.9185,128.185135,37.923541,7006.0636104000005,45.458,11.809,94.159
0.9352,128.185192,37.92354,7006.3440264,47.39,11.848,94.334
0.9519,128.18525,37.923539,7006.628709600001,49.371,11.881,94.514
0.9686,128.185307,37.923538,7006.917660000001,51.401,11.907,94.701
0.9853,128.185364,37.923536,7007.210572800001,53.478,11.928,94.893
1.002,128.185421,37.923535,7007.507448,55.602,11.942,95.092
1.0187,128.185478,37.923534,7007.807676,57.775,11.949,95.297
1.0353,128.185535,37.923532,7008.111256800001,59.995,11.948,95.508
1.0521,128.185592,37.923531,7008.4178856,62.262,11.938,95.726
1.0688,128.185649,37.923529,7008.7269528,64.576,11.918,95.952
1.0855,128.185706,37.923528,7009.0387632,66.935,11.887,96.184
1.1022,128.185763,37.923526,7009.3527072,69.34,11.843,96.425
1.1189,128.18582,37.923524,7009.66848,71.789,11.785,96.672
1.1356,128.185878,37.923522,7009.9860816,74.283,11.711,96.926
1.1522,128.185935,37.92352,7010.3049024,76.82,11.621,97.187
1.169,128.185992,37.923519,7010.624637600001,79.401,11.513,97.453
1.1857,128.186049,37.923516,7010.9452872,82.025,11.385,97.725
1.2024,128.186106,37.923514,7011.2662416,84.691,11.237,98.0
1.2191,128.186163,37.923512,7011.587196,87.399,11.068,98.278
1.2358,128.18622,37.92351,7011.9081504000005,90.148,10.877,98.558
1.2525,128.186277,37.923508,7012.2284952,92.939,10.662,98.838
1.2691,128.186334,37.923505,7012.5482304,95.769,10.424,99.115
1.2859,128.186391,37.923503,7012.866746400001,98.64,10.162,99.39
1.3026,128.186449,37.923501,7013.183738400001,101.549,9.876,99.659
1.3193,128.186506,37.923498,7013.499206400001,104.491,9.566,99.92
1.3359,128.186563,37.923496,7013.8119312,107.453,9.233,100.174
1.3527,128.18662,37.923493,7014.1222176,110.42,8.878,100.417
1.3694,128.186677,37.92349,7014.428846400001,113.379,8.504,100.648
1.386,128.186734,37.923487,7014.7318176,116.315,8.113,100.868
1.4028,128.186791,37.923484,7015.0305216,119.216,7.706,101.075
1.4195,128.186849,37.923482,7015.3243488,122.069,7.285,101.267
1.4362,128.186906,37.923478,7015.6123848,124.862,6.853,101.447
1.4528,128.186963,37.923475,7015.8946295999995,127.583,6.411,101.612
1.4696,128.18702,37.923472,7016.169864,130.224,5.962,101.763
1.4863,128.187077,37.923469,7016.437783200001,132.776,5.508,101.902
1.5029,128.187134,37.923466,7016.6980824,135.233,5.05,102.027
1.5197,128.187192,37.923462,7016.949237600001,137.588,4.59,102.14
1.5364,128.187249,37.923459,7017.1915536,139.838,4.129,102.241
1.5531,128.187306,37.923455,7017.423811200001,141.98,3.67,102.331
1.5697,128.187363,37.923451,7017.645705600001,144.015,3.212,102.412
1.5865,128.18742,37.923448,7017.8563224,145.945,2.756,102.482
1.6032,128.187477,37.923444,7018.0553568000005,147.774,2.304,102.543
1.6198,128.187534,37.92344,7018.242504,149.505,1.856,102.596
1.6366,128.187592,37.923436,7018.4174592,151.142,1.412,102.64
1.6533,128.187649,37.923432,7018.5802224,152.686,0.974,102.677
1.67,128.187706,37.923428,7018.730184000001,154.141,0.54,102.708
1.6867,128.187763,37.923424,7018.8670392,155.51,0.113,102.732
1.7034,128.18782,37.92342,7018.990788000001,156.794,-0.307,102.75
1.7201,128.187877,37.923416,7019.10204,158.056,-0.723,102.759
1.7368,128.187934,37.923411,7019.2007952,159.29,-1.134,102.759
1.7535,128.187991,37.923407,7019.2867488,160.488,-1.539,102.751
1.7702,128.188048,37.923403,7019.3599008,161.641,-1.937,102.737
1.7869,128.188105,37.923398,7019.419336800001,162.744,-2.329,102.717
1.8036,128.188163,37.923394,7019.465056800001,163.793,-2.714,102.693
1.8203,128.18822,37.923389,7019.496451200001,164.787,-3.092,102.665
1.837,128.188277,37.923385,7019.513824800001,165.725,-3.463,102.633
1.8537,128.188334,37.92338,7019.516568,166.609,-3.827,102.599
1.8704,128.188391,37.923375,7019.5046808,167.441,-4.184,102.563
1.8871,128.188448,37.923371,7019.478468,168.223,-4.534,102.524
1.9038,128.188505,37.923366,7019.437320000001,168.958,-4.878,102.484
1.9205,128.188562,37.923361,7019.3818464000005,169.649,-5.215,102.442
1.9372,128.188619,37.923357,7019.3111328,170.301,-5.546,102.4
1.9539,128.188676,37.923352,7019.2257887999995,170.917,-5.87,102.356
1.9706,128.188733,37.923347,7019.1258144,171.5,-6.188,102.311
1.9873,128.18879,37.923342,7019.0109048,172.055,-6.5,102.267
2.004,128.188847,37.923337,7018.881060000001,172.586,-6.806,102.223
2.0207,128.188904,37.923332,7018.73628,173.095,-7.106,102.181
2.0374,128.188961,37.923328,7018.576564800001,173.585,-7.401,102.139
2.0541,128.189018,37.923323,7018.4019144,174.056,-7.69,102.097
2.0707,128.189075,37.923318,7018.212328800001,174.509,-7.974,102.055
2.0875,128.189132,37.923313,7018.007808,174.945,-8.253,102.012
2.1042,128.189189,37.923308,7017.788047200001,175.364,-8.528,101.969
2.1208,128.189246,37.923303,7017.5530464,175.765,-8.798,101.924
2.1376,128.189303,37.923298,7017.3028056,176.15,-9.064,101.877
2.1543,128.189359,37.923293,7017.037020000001,176.519,-9.326,101.829
2.171,128.189416,37.923288,7016.7562992,176.872,-9.584,101.78
2.1877,128.189473,37.923282,7016.460033600001,177.21,-9.839,101.729
2.2044,128.18953,37.923277,7016.148223200001,177.534,-10.09,101.677
2.2211,128.189587,37.923272,7015.821172800001,177.843,-10.337,101.624
2.2378,128.189644,37.923267,7015.4782728,178.138,-10.582,101.571
2.2544,128.189701,37.923262,7015.120132800001,178.419,-10.824,101.516
2.2712,128.189757,37.923257,7014.7461432,178.685,-11.063,101.461
2.2879,128.189814,37.923252,7014.356304,178.938,-11.299,101.405
2.3045,128.189871,37.923247,7013.951224800001,179.178,-11.532,101.349
2.3213,128.189928,37.923241,7013.5299912,179.403,-11.763,101.292
2.338,128.189984,37.923236,7013.0932128,179.616,-11.992,101.236
2.3546,128.190041,37.923231,7012.64028,179.814,-12.218,101.179
2.3714,128.190098,37.923226,7012.1718024,-179.999,-12.442,101.121
2.3881,128.190155,37.923221,7011.687475199999,-179.827,-12.664,101.064
2.4048,128.190211,37.923215,7011.1872984,-179.667,-12.884,101.007
2.4215,128.190268,37.92321,7010.6709672,-179.52,-13.102,100.95
2.4382,128.190324,37.923205,7010.139091200001,-179.386,-13.319,100.893
2.4549,128.190381,37.9232,7009.5910608,-179.264,-13.533,100.836
2.4716,128.190438,37.923194,7009.026876,-179.154,-13.746,100.78
2.4882,128.190494,37.923189,7008.447146400001,-179.056,-13.958,100.724
2.505,128.190551,37.923184,7007.8512624,-178.969,-14.168,100.668
2.5217,128.190607,37.923179,7007.239224000001,-178.894,-14.376,100.613
2.5383,128.190664,37.923173,7006.611640800001,-178.829,-14.583,100.558
2.5551,128.19072,37.923168,7005.9679032,-178.774,-14.788,100.504
2.5718,128.190777,37.923163,7005.308011200001,-178.73,-14.993,100.45
2.5884,128.190833,37.923158,7004.632269600001,-178.694,-15.196,100.397
2.6052,128.190889,37.923152,7003.9406784,-178.668,-15.397,100.344
2.6219,128.190946,37.923147,7003.2332376,-178.651,-15.598,100.293
2.6386,128.191002,37.923142,7002.5096424,-178.641,-15.797,100.241
2.6553,128.191058,37.923137,7001.770197600001,-178.64,-15.996,100.191
2.6719,128.191115,37.923131,7001.0149032,-178.645,-16.193,100.142
2.6887,128.191171,37.923126,7000.243759200001,-178.658,-16.389,100.093
2.7054,128.191227,37.923121,6999.456765600001,-178.677,-16.584,100.045
2.722,128.191283,37.923116,6998.6536176,-178.702,-16.778,99.998
2.7388,128.19134,37.92311,6997.8349248,-178.732,-16.972,99.951
2.7555,128.191396,37.923105,6997.0003824000005,-178.768,-17.164,99.906
2.7721,128.191452,37.9231,6996.1496856,-178.808,-17.356,99.861
2.7889,128.191508,37.923095,6995.283444,-178.853,-17.546,99.818
2.8056,128.191564,37.923089,6994.4013528,-178.902,-17.736,99.775
2.8222,128.19162,37.923084,6993.5037168,-178.955,-17.926,99.733
2.839,128.191676,37.923079,6992.5899264,-179.009,-18.114,99.694
2.8557,128.191732,37.923073,6991.6605912,-179.065,-18.302,99.656
2.8724,128.191788,37.923068,6990.7157112,-179.123,-18.489,99.621
2.8891,128.191844,37.923063,6989.7546768,-179.183,-18.676,99.587
2.9057,128.1919,37.923058,6988.7784024,-179.245,-18.862,99.554
2.9225,128.191955,37.923052,6987.785973600001,-179.31,-19.047,99.522
2.9392,128.192011,37.923047,6986.7783048,-179.377,-19.232,99.492
2.9558,128.192067,37.923042,6985.754786400001,-179.446,-19.416,99.462
2.9726,128.192123,37.923037,6984.7154184,-179.516,-19.6,99.434
2.9893,128.192178,37.923031,6983.660810400001,-179.589,-19.784,99.404
3.0059,128.192234,37.923026,6982.5903528,-179.665,-19.966,99.375
3.0227,128.19229,37.923021,6981.5046552,-179.743,-20.149,99.345
3.0394,128.192345,37.923015,6980.403108,-179.821,-20.331,99.316
3.056,128.192401,37.92301,6979.286016,-179.9,-20.512,99.287
3.0728,128.192456,37.923005,6978.153684000001,-179.979,-20.693,99.259
3.0895,128.192512,37.923,6977.0058072,179.942,-20.874,99.232
3.1062,128.192567,37.922994,6975.8423856,179.864,-21.055,99.205
3.1229,128.192623,37.922989,6974.663419200001,179.786,-21.235,99.18
3.1395,128.192678,37.922984,6973.4692128,179.709,-21.414,99.155
3.1563,128.192733,37.922979,6972.2594616,179.633,-21.594,99.131
3.173,128.192789,37.922973,6971.034165600001,179.557,-21.773,99.108
3.1896,128.192844,37.922968,6969.7936296,179.482,-21.952,99.086
3.2064,128.192899,37.922963,6968.5378536,179.407,-22.13,99.065
3.2231,128.192954,37.922957,6967.2665328,179.334,-22.308,99.044
3.2397,128.193009,37.922952,6965.979972,179.261,-22.486,99.025
3.2565,128.193064,37.922947,6964.6778664,179.188,-22.664,99.006
3.2732,128.19312,37.922942,6963.3608256,179.116,-22.842,98.988
3.2899,128.193175,37.922936,6962.028240000001,179.045,-23.019,98.971
3.3066,128.193229,37.922931,6960.680414400001,178.975,-23.196,98.954
3.3233,128.193284,37.922926,6959.3173488,178.905,-23.373,98.939
3.34,128.193339,37.92292,6957.9390432,178.835,-23.55,98.924
3.3567,128.193394,37.922915,6956.545497600001,178.767,-23.726,98.91
3.3734,128.193449,37.92291,6955.1367119999995,178.699,-23.902,98.897
3.3901,128.193504,37.922905,6953.7126864,178.631,-24.078,98.884
3.4068,128.193558,37.922899,6952.2734208,178.564,-24.254,98.872
3.4235,128.193613,37.922894,6950.819220000001,178.498,-24.43,98.861
3.4402,128.193668,37.922889,6949.349779200001,178.432,-24.606,98.85
3.4569,128.193722,37.922883,6947.8650984,178.366,-24.781,98.84
3.4736,128.193777,37.922878,6946.365177600001,178.302,-24.957,98.831
3.4903,128.193831,37.922873,6944.8503216,178.237,-25.132,98.822
3.507,128.193886,37.922868,6943.3205304,178.174,-25.307,98.814
3.5237,128.19394,37.922862,6941.7754992,178.111,-25.481,98.807
3.5404,128.193994,37.922857,6940.215532800001,178.048,-25.656,98.8
3.5571,128.194049,37.922852,6938.6403264,177.986,-25.831,98.794
3.5738,128.194103,37.922846,6937.0501848,177.924,-26.005,98.789
3.5905,128.194157,37.922841,6935.445108,177.863,-26.179,98.784
3.6072,128.194211,37.922836,6933.824791200001,177.803,-26.354,98.779
3.6239,128.194265,37.92283,6932.189844,177.742,-26.528,98.775
3.6406,128.194319,37.922825,6930.539656800001,177.683,-26.701,98.772
3.6573,128.194373,37.92282,6928.8745344,177.624,-26.875,98.769
3.674,128.194427,37.922815,6927.1947816,177.565,-27.049,98.767
3.6907,128.194481,37.922809,6925.4997888,177.507,-27.222,98.765
3.7074,128.194535,37.922804,6923.790165600001,177.449,-27.395,98.764
3.7241,128.194589,37.922799,6922.065302399999,177.392,-27.569,98.764
3.7408,128.194642,37.922793,6920.3258088,177.335,-27.742,98.764
3.7575,128.194696,37.922788,6918.57138,177.279,-27.915,98.764
3.7742,128.19475,37.922783,6916.802016,177.223,-28.087,98.765
3.7909,128.194803,37.922777,6915.0180216,177.167,-28.26,98.766
3.8076,128.194857,37.922772,6913.219092,177.112,-28.433,98.768
3.8243,128.19491,37.922767,6911.405532000001,177.057,-28.605,98.77
3.841,128.194963,37.922761,6909.5770368,177.003,-28.777,98.773
3.8577,128.195017,37.922756,6907.733911200001,176.949,-28.95,98.776
3.8744,128.19507,37.922751,6905.875850400001,176.895,-29.122,98.78
3.8911,128.195123,37.922745,6904.0031592000005,176.842,-29.294,98.784
3.9078,128.195176,37.92274,6902.1155328,176.79,-29.465,98.788
3.9245,128.19523,37.922735,6900.2135808,176.737,-29.637,98.793
3.9412,128.195283,37.922729,6898.2966936,176.685,-29.809,98.798
3.9579,128.195336,37.922724,6896.365176,176.634,-29.98,98.804
3.9746,128.195389,37.922719,6894.419028,176.582,-30.151,98.81
3.9913,128.195441,37.922713,6892.4582496,176.531,-30.323,98.817
4.008,128.195494,37.922708,6890.4828408,176.481,-30.494,98.823
4.0247,128.195547,37.922703,6888.4928016,176.431,-30.665,98.831
4.0414,128.1956,37.922697,6886.488132,176.381,-30.836,98.838
4.058,128.195652,37.922692,6884.4688320000005,176.331,-31.006,98.846
4.0748,128.195705,37.922687,6882.4352064,176.282,-31.177,98.855
4.0915,128.195757,37.922681,6880.3866456000005,176.234,-31.347,98.864
4.1082,128.19581,37.922676,6878.3237592000005,176.185,-31.518,98.873
4.1249,128.195862,37.92267,6876.2465472,176.137,-31.688,98.882
4.1415,128.195915,37.922665,6874.1547048,176.089,-31.858,98.892
4.1583,128.195967,37.92266,6872.048232,176.041,-32.028,98.902
4.175,128.196019,37.922654,6869.927433600001,175.994,-32.198,98.913
4.1917,128.196071,37.922649,6867.7920048000005,175.947,-32.368,98.924
4.2084,128.196123,37.922644,6865.6422504,175.901,-32.537,98.935
4.2251,128.196175,37.922638,6863.478170400001,175.854,-32.706,98.946
4.2417,128.196227,37.922633,6861.29946,175.808,-32.876,98.958
4.2585,128.196279,37.922628,6859.1064240000005,175.763,-33.045,98.97
4.2752,128.196331,37.922622,6856.8990624,175.717,-33.214,98.983
4.2919,128.196383,37.922617,6854.6773752,175.672,-33.383,98.996
4.3086,128.196434,37.922611,6852.4413624,175.627,-33.551,99.009
4.3252,128.196486,37.922606,6850.191024000001,175.582,-33.72,99.022
4.342,128.196538,37.922601,6847.92636,175.538,-33.888,99.036
4.3587,128.196589,37.922595,6845.647370400001,175.494,-34.056,99.05
4.3754,128.196641,37.92259,6843.3540552,175.45,-34.225,99.064
4.3921,128.196692,37.922584,6841.046414400001,175.406,-34.393,99.079
4.4088,128.196743,37.922579,6838.7247528,175.363,-34.56,99.093
4.4254,128.196794,37.922574,6836.388765600001,175.319,-34.728,99.109
4.4422,128.196846,37.922568,6834.0384527999995,175.277,-34.896,99.124
4.4589,128.196897,37.922563,6831.674119200001,175.234,-35.063,99.14
4.4756,128.196948,37.922557,6829.29546,175.191,-35.231,99.156
4.4923,128.196999,37.922552,6826.90278,175.149,-35.398,99.172
4.5089,128.197049,37.922547,6824.4957744,175.107,-35.565,99.188
4.5256,128.1971,37.922541,6822.074748,175.065,-35.732,99.205
4.5424,128.197151,37.922536,6819.6397008,175.024,-35.899,99.222
4.5591,128.197202,37.92253,6817.1906328000005,174.982,-36.066,99.239
4.5758,128.197252,37.922525,6814.7272391999995,174.941,-36.232,99.257
4.5925,128.197303,37.922519,6812.249824800001,174.9,-36.399,99.275
4.6091,128.197353,37.922514,6809.7583896,174.859,-36.565,99.293
4.6259,128.197403,37.922509,6807.252933600001,174.818,-36.731,99.311
4.6426,128.197454,37.922503,6804.7337615999995,174.778,-36.897,99.33
4.6593,128.197504,37.922498,6802.200264,174.738,-37.064,99.348
4.676,128.197554,37.922492,6799.6527456,174.698,-37.229,99.368
4.6927,128.197604,37.922487,6797.091511200001,174.658,-37.395,99.387
4.7093,128.197654,37.922481,6794.516256000001,174.618,-37.561,99.406
4.7261,128.197704,37.922476,6791.9272848,174.579,-37.727,99.426
4.7428,128.197754,37.92247,6789.323988000001,174.539,-37.892,99.446
4.7595,128.197803,37.922465,6786.7069752,174.5,-38.057,99.466
4.7762,128.197853,37.922459,6784.076246400001,174.461,-38.223,99.487
4.7928,128.197903,37.922454,6781.431801600001,174.422,-38.388,99.508
4.8096,128.197952,37.922449,6778.7730312,174.383,-38.553,99.528
4.8263,128.198002,37.922443,6776.1008496,174.344,-38.718,99.55
4.843,128.198051,37.922438,6773.414647200001,174.306,-38.883,99.571
4.8597,128.1981,37.922432,6770.7150336,174.267,-39.047,99.593
4.8764,128.198149,37.922427,6768.0013992,174.229,-39.212,99.615
4.893,128.198199,37.922421,6765.2740488,174.191,-39.376,99.637
4.9098,128.198248,37.922416,6762.5329824,174.153,-39.541,99.659
4.9265,128.198297,37.92241,6759.778200000001,174.115,-39.705,99.681
4.9432,128.198345,37.922405,6757.009701600001,174.077,-39.869,99.704
4.9599,128.198394,37.922399,6754.227487200001,174.04,-40.033,99.727
4.9765,128.198443,37.922394,6751.4318616,174.002,-40.197,99.75
4.9932,128.198492,37.922388,6748.622520000001,173.965,-40.361,99.774
5.01,128.19854,37.922383,6745.7994624,173.927,-40.525,99.797
5.0267,128.198589,37.922377,6742.9629936,173.89,-40.688,99.821
5.0434,128.198637,37.922372,6740.1128088000005,173.853,-40.852,99.845
5.0601,128.198685,37.922366,6737.2492128,173.816,-41.015,99.87
5.0767,128.198733,37.922361,6734.372205600001,173.779,-41.179,99.894
5.0935,128.198782,37.922355,6731.4814824000005,173.742,-41.342,99.919
5.1102,128.19883,37.92235,6728.577348,173.705,-41.505,99.944
5.1269,128.198878,37.922344,6725.659497600001,173.668,-41.668,99.969
5.1436,128.198925,37.922339,6722.728540800001,173.632,-41.831,99.994
5.1602,128.198973,37.922333,6719.7841728,173.595,-41.994,100.02
5.1769,128.199021,37.922328,6716.8260887999995,173.558,-42.157,100.046
5.1937,128.199068,37.922322,6713.8548984,173.522,-42.32,100.072
5.2104,128.199116,37.922317,6710.870296800001,173.485,-42.482,100.098
5.2271,128.199163,37.922311,6707.872284000001,173.449,-42.645,100.124
5.2438,128.199211,37.922305,6704.861164800001,173.413,-42.807,100.151
5.2604,128.199258,37.9223,6701.8363296,173.376,-42.97,100.178
5.2772,128.199305,37.922294,6698.798692800001,173.34,-43.132,100.205
5.2939,128.199352,37.922289,6695.7476448,173.303,-43.294,100.232
5.3106,128.199399,37.922283,6692.6831856,173.267,-43.456,100.26
5.3273,128.199446,37.922278,6689.605620000001,173.231,-43.618,100.287
5.3439,128.199493,37.922272,6686.514948,173.195,-43.78,100.315
5.3606,128.19954,37.922267,6683.410864800001,173.158,-43.942,100.343
5.3774,128.199586,37.922261,6680.2939799999995,173.122,-44.104,100.372
5.3941,128.199633,37.922256,6677.163684000001,173.086,-44.265,100.4
5.4108,128.199679,37.92225,6674.0205864,173.05,-44.427,100.429
5.4275,128.199726,37.922244,6670.8640776,173.014,-44.588,100.458
5.4441,128.199772,37.922239,6667.6947672,172.977,-44.75,100.488
5.4609,128.199818,37.922233,6664.5120456,172.941,-44.911,100.517
5.4776,128.199864,37.922228,6661.3165224,172.905,-45.072,100.547
5.4943,128.19991,37.922222,6658.1081976000005,172.868,-45.233,100.577
5.511,128.199956,37.922217,6654.8867664,172.832,-45.394,100.607
5.5277,128.200002,37.922211,6651.652228800001,172.796,-45.555,100.637
5.5443,128.200047,37.922205,6648.4048896,172.759,-45.716,100.668
5.5611,128.200093,37.9222,6645.1447488,172.723,-45.877,100.698
5.5778,128.200138,37.922194,6641.871501600001,172.686,-46.037,100.729
5.5945,128.200184,37.922189,6638.5854528,172.65,-46.198,100.761
5.6112,128.200229,37.922183,6635.2866023999995,172.613,-46.359,100.792
5.6278,128.200274,37.922177,6631.9749504,172.577,-46.519,100.824
5.6445,128.200319,37.922172,6628.650496800001,172.54,-46.679,100.856
5.6613,128.200364,37.922166,6625.313241600001,172.503,-46.84,100.888
5.678,128.200409,37.922161,6621.9634896,172.467,-47.0,100.92
5.6947,128.200454,37.922155,6618.6006312,172.43,-47.16,100.953
5.7114,128.200499,37.922149,6615.225276,172.393,-47.32,100.986
5.728,128.200543,37.922144,6611.8371192,172.356,-47.48,101.019
5.7448,128.200588,37.922138,6608.436465600001,172.319,-47.64,101.052
5.7615,128.200632,37.922133,6605.0230104,172.281,-47.799,101.086
5.7782,128.200677,37.922127,6601.597058400001,172.244,-47.959,101.12
5.7949,128.200721,37.922121,6598.1586096,172.207,-48.119,101.154
5.8115,128.200765,37.922116,6594.707359200001,172.169,-48.278,101.188
5.8282,128.200809,37.92211,6591.243612,172.131,-48.437,101.223
5.845,128.200853,37.922105,6587.767672800001,172.094,-48.597,101.258
5.8617,128.200897,37.922099,6584.278932,172.056,-48.756,101.293
5.8784,128.20094,37.922093,6580.7776944,172.018,-48.915,101.328
5.8951,128.200984,37.922088,6577.26396,171.98,-49.074,101.363
5.9117,128.201027,37.922082,6573.738033600001,171.941,-49.233,101.399
5.9285,128.201071,37.922076,6570.199610400001,171.903,-49.392,101.435
5.9452,128.201114,37.922071,6566.6486904,171.864,-49.551,101.472
5.9619,128.201157,37.922065,6563.0855784000005,171.826,-49.71,101.508
5.9786,128.2012,37.922059,6559.5102744000005,171.787,-49.869,101.545
5.9952,128.201243,37.922054,6555.922473600001,171.748,-50.028,101.583
6.0119,128.201286,37.922048,6552.3224808,171.708,-50.188,101.62
6.0287,128.201329,37.922043,6548.7099912,171.668,-50.348,101.658
6.0454,128.201371,37.922037,6545.085614400001,171.629,-50.508,101.697
6.0621,128.201414,37.922031,6541.4487408,171.588,-50.669,101.736
6.0788,128.201456,37.922026,6537.7996752,171.548,-50.83,101.775
6.0954,128.201499,37.92202,6534.1387224,171.507,-50.992,101.815
6.1121,128.201541,37.922014,6530.4652728,171.466,-51.154,101.855
6.1289,128.201583,37.922009,6526.779936,171.424,-51.317,101.895
6.1456,128.201625,37.922003,6523.0824072,171.382,-51.48,101.936
6.1623,128.201667,37.921997,6519.3726864,171.34,-51.643,101.978
6.179,128.201709,37.921992,6515.6510784,171.297,-51.806,102.02
6.1956,128.20175,37.921986,6511.9172784,171.254,-51.97,102.062
6.2124,128.201792,37.92198,6508.1715912,171.211,-52.134,102.105
6.2291,128.201833,37.921975,6504.413712,171.167,-52.299,102.148
6.2458,128.201875,37.921969,6500.643945600001,171.123,-52.463,102.191
6.2625,128.201916,37.921963,6496.862292000001,171.079,-52.628,102.235
6.2791,128.201957,37.921958,6493.0684464000005,171.034,-52.793,102.28
6.2958,128.201998,37.921952,6489.2630184,170.988,-52.958,102.324
6.3126,128.202039,37.921946,6485.4453984,170.943,-53.123,102.37
6.3293,128.202079,37.921941,6481.6158912,170.897,-53.288,102.415
6.346,128.20212,37.921935,6477.774496800001,170.85,-53.453,102.461
6.3627,128.202161,37.921929,6473.921215200001,170.804,-53.619,102.508
6.3793,128.202201,37.921924,6470.056351200001,170.756,-53.784,102.555
6.3961,128.202241,37.921918,6466.1796,170.709,-53.95,102.602
6.4128,128.202282,37.921912,6462.2909616,170.66,-54.116,102.65
6.4295,128.202322,37.921907,6458.390436000001,170.612,-54.281,102.698
6.4462,128.202362,37.921901,6454.478328,170.563,-54.447,102.747
6.4628,128.202401,37.921895,6450.5546376,170.513,-54.613,102.796
6.4795,128.202441,37.92189,6446.619060000001,170.463,-54.779,102.846
6.4963,128.202481,37.921884,6442.6715952,170.413,-54.945,102.896
6.513,128.20252,37.921878,6438.7128528,170.362,-55.111,102.946
6.5297,128.20256,37.921873,6434.742223200001,170.311,-55.277,102.997
6.5464,128.202599,37.921867,6430.760011200001,170.259,-55.443,103.049
6.5631,128.202638,37.921861,6426.7662168,170.207,-55.609,103.101
6.5798,128.202677,37.921855,6422.76084,170.154,-55.775,103.154
6.5965,128.202716,37.92185,6418.7438808,170.1,-55.941,103.207
6.6132,128.202754,37.921844,6414.715644,170.046,-56.107,103.26
6.6299,128.202793,37.921838,6410.675520000001,169.992,-56.273,103.315
6.6466,128.202832,37.921833,6406.6241184,169.937,-56.44,103.369
6.6633,128.20287,37.921827,6402.5614392,169.881,-56.606,103.424
6.68,128.202908,37.921821,6398.4868728,169.825,-56.772,103.48
6.6967,128.202946,37.921816,6394.401333600001,169.769,-56.938,103.537
6.7134,128.202984,37.92181,6390.304212,169.711,-57.105,103.594
6.7301,128.203022,37.921804,6386.195508,169.653,-57.271,103.651
6.7468,128.20306,37.921798,6382.0758312,169.595,-57.437,103.709
6.7635,128.203098,37.921793,6377.944572,169.536,-57.604,103.768
6.7802,128.203135,37.921787,6373.8020352,169.476,-57.77,103.827
6.7969,128.203173,37.921781,6369.6482208,169.416,-57.937,103.887
6.8136,128.20321,37.921776,6365.4831288000005,169.355,-58.103,103.948
6.8303,128.203247,37.92177,6361.3070640000005,169.293,-58.27,104.009
6.847,128.203284,37.921764,6357.1197216,169.231,-58.436,104.071
6.8637,128.203321,37.921759,6352.920796800001,169.167,-58.603,104.133
6.8804,128.203358,37.921753,6348.711204,169.104,-58.769,104.196
6.8971,128.203394,37.921747,6344.490333600001,169.039,-58.936,104.26
6.9138,128.203431,37.921741,6340.2581856,168.974,-59.102,104.325
6.9305,128.203467,37.921736,6336.015064800001,168.908,-59.269,104.39
6.9472,128.203503,37.92173,6331.7609712,168.841,-59.435,104.456
6.9639,128.203539,37.921724,6327.4959048,168.774,-59.602,104.523
6.9806,128.203575,37.921719,6323.219560800001,168.706,-59.768,104.59
6.9973,128.203611,37.921713,6318.9325488,168.637,-59.935,104.658
7.014,128.203647,37.921707,6314.6342592,168.567,-60.102,104.727
7.0307,128.203683,37.921701,6310.325301600001,168.496,-60.268,104.797
7.0474,128.203718,37.921696,6306.0053712,168.425,-60.435,104.868
7.0641,128.203753,37.92169,6301.674468,168.352,-60.601,104.939
7.0808,128.203788,37.921684,6297.3328968000005,168.279,-60.768,105.011
7.0975,128.203823,37.921679,6292.9803528,168.205,-60.935,105.084
7.1142,128.203858,37.921673,6288.6171408,168.13,-61.101,105.158
7.1309,128.203893,37.921667,6284.243260800001,168.054,-61.268,105.233
7.1476,128.203928,37.921661,6279.858408,167.977,-61.435,105.308
7.1643,128.203962,37.921656,6275.4628872,167.9,-61.602,105.385
7.181,128.203997,37.92165,6271.0566984,167.821,-61.768,105.462
7.1977,128.204031,37.921644,6266.6398416,167.741,-61.935,105.541
7.2144,128.204065,37.921639,6262.2123168,167.661,-62.102,105.62
7.2311,128.204099,37.921633,6257.7744288,167.579,-62.268,105.701
7.2478,128.204133,37.921627,6253.3258728,167.496,-62.435,105.782
7.2645,128.204166,37.921622,6248.8666488,167.412,-62.602,105.864
7.2812,128.2042,37.921616,6244.3970616,167.328,-62.768,105.948
7.2979,128.204233,37.92161,6239.9168064000005,167.242,-62.935,106.032
7.3146,128.204266,37.921604,6235.426188,167.155,-63.102,106.118
7.3313,128.204299,37.921599,6230.9249016,167.066,-63.269,106.204
7.348,128.204332,37.921593,6226.413556800001,166.977,-63.435,106.292
7.3647,128.204365,37.921587,6221.8918488,166.886,-63.602,106.381
7.3814,128.204398,37.921582,6217.359472800001,166.795,-63.769,106.471
7.3981,128.20443,37.921576,6212.8170384000005,166.702,-63.935,106.562
7.4148,128.204463,37.92157,6208.2642408,166.607,-64.102,106.654
7.4315,128.204495,37.921564,6203.7013848,166.512,-64.269,106.748
7.4482,128.204527,37.921559,6199.128165600001,166.415,-64.435,106.842
7.4649,128.204559,37.921553,6194.5445832000005,166.317,-64.602,106.939
7.4816,128.204591,37.921547,6189.950942400001,166.218,-64.768,107.036
7.4983,128.204623,37.921542,6185.3472432,166.117,-64.935,107.135
7.515,128.204654,37.921536,6180.7334856,166.014,-65.102,107.235
7.5317,128.204685,37.92153,6176.1096696,165.911,-65.268,107.336
7.5484,128.204717,37.921524,6171.4757952,165.806,-65.435,107.439
7.5651,128.204748,37.921519,6166.8318624,165.699,-65.601,107.543
7.5818,128.204779,37.921513,6162.1778712,165.591,-65.768,107.649
7.5985,128.204809,37.921507,6157.5138216000005,165.481,-65.934,107.757
7.6152,128.20484,37.921502,6152.8400184,165.37,-66.101,107.865
7.6319,128.204871,37.921496,6148.1564616,165.257,-66.267,107.976
7.6486,128.204901,37.92149,6143.4631512000005,165.142,-66.433,108.088
7.6653,128.204931,37.921485,6138.7597824,165.026,-66.6,108.201
7.682,128.204961,37.921479,6134.046660000001,164.908,-66.766,108.317
7.6987,128.204991,37.921473,6129.323784000001,164.788,-66.932,108.434
7.7154,128.205021,37.921467,6124.5911544,164.667,-67.098,108.553
7.7321,128.20505,37.921462,6119.849076,164.543,-67.265,108.673
7.7488,128.20508,37.921456,6115.0969392,164.418,-67.431,108.795
7.7655,128.205109,37.92145,6110.3356584,164.291,-67.597,108.92
7.7822,128.205138,37.921445,6105.564319200001,164.162,-67.763,109.046
7.7989,128.205167,37.921439,6100.7838360000005,164.03,-67.929,109.174
7.8156,128.205196,37.921433,6095.9935992,163.897,-68.095,109.304
7.8323,128.205225,37.921428,6091.1939136,163.762,-68.261,109.436
7.849,128.205253,37.921422,6086.384779200001,163.624,-68.426,109.57
7.8657,128.205281,37.921416,6081.566196000001,163.485,-68.592,109.707
7.8824,128.20531,37.92141,6076.7384688,163.343,-68.758,109.845
7.8991,128.205338,37.921405,6071.901292800001,163.199,-68.923,109.986
7.9158,128.205366,37.921399,6067.054668000001,163.052,-69.089,110.129
7.9325,128.205393,37.921393,6062.1988992,162.903,-69.254,110.275
7.9492,128.205421,37.921388,6057.3336816,162.751,-69.42,110.423
7.9659,128.205448,37.921382,6052.459320000001,162.597,-69.585,110.573
7.9826,128.205475,37.921376,6047.576119200001,162.441,-69.75,110.726
7.9993,128.205503,37.921371,6042.6834696000005,162.282,-69.916,110.881
8.016,128.205529,37.921365,6037.781676,162.12,-70.081,111.039
8.0327,128.205556,37.921359,6032.8710432,161.955,-70.246,111.2
8.0494,128.205583,37.921354,6027.951266399999,161.788,-70.41,111.364
8.0661,128.205609,37.921348,6023.0223456,161.617,-70.575,111.53
8.0828,128.205636,37.921342,6018.0848904,161.444,-70.74,111.699
8.0994,128.205662,37.921337,6013.138291200001,161.267,-70.904,111.872
8.1161,128.205688,37.921331,6008.182548,161.087,-71.069,112.047
8.1329,128.205713,37.921325,6003.218270400001,160.904,-71.233,112.226
8.1496,128.205739,37.92132,5998.2451536,160.718,-71.397,112.408
8.1663,128.205765,37.921314,5993.263197600001,160.529,-71.561,112.593
8.183,128.20579,37.921308,5988.2727072,160.335,-71.725,112.782
8.1997,128.205815,37.921303,5983.2733776000005,160.139,-71.889,112.974
8.2164,128.20584,37.921297,5978.2652088,159.938,-72.052,113.17
8.2331,128.205865,37.921291,5973.2488104,159.734,-72.216,113.369
8.2498,128.205889,37.921286,5968.2235728000005,159.526,-72.379,113.572
8.2665,128.205914,37.92128,5963.189800800001,159.314,-72.542,113.779
8.2831,128.205938,37.921274,5958.1474944,159.098,-72.705,113.991
8.2998,128.205962,37.921269,5953.0969584,158.878,-72.868,114.206
8.3166,128.205986,37.921263,5948.037888000001,158.653,-73.03,114.426
8.3333,128.20601,37.921257,5942.9702832,158.424,-73.193,114.649
8.35,128.206034,37.921252,5937.8947536000005,158.191,-73.355,114.878
8.3667,128.206057,37.921246,5932.8103848,157.953,-73.517,115.111
8.3834,128.206081,37.92124,5927.7180912,157.71,-73.679,115.349
8.4001,128.206104,37.921235,5922.617568000001,157.462,-73.84,115.591
8.4168,128.206127,37.921229,5917.508815200001,157.208,-74.001,115.839
8.4335,128.20615,37.921223,5912.391832800001,156.95,-74.162,116.092
8.4502,128.206172,37.921218,5907.2669256,156.686,-74.323,116.35
8.4668,128.206195,37.921212,5902.1337888,156.417,-74.484,116.614
8.4835,128.206217,37.921207,5896.9927272,156.142,-74.644,116.883
8.5003,128.206239,37.921201,5891.8437408,155.861,-74.804,117.158
8.517,128.206261,37.921195,5886.6865248,155.574,-74.963,117.44
8.5337,128.206283,37.92119,5881.5216887999995,155.281,-75.123,117.727
8.5504,128.206304,37.921184,5876.348928,154.981,-75.282,118.021
8.5671,128.206326,37.921178,5871.168547200001,154.674,-75.44,118.321
8.5838,128.206347,37.921173,5865.9802416,154.361,-75.598,118.628
8.6005,128.206368,37.921167,5860.784011200001,154.041,-75.756,118.942
8.6172,128.206389,37.921162,5855.580465600001,153.713,-75.914,119.264
8.6339,128.20641,37.921156,5850.3689952,153.378,-76.071,119.592
8.6505,128.20643,37.92115,5845.1499048000005,153.035,-76.228,119.929
8.6672,128.206451,37.921145,5839.9234992,152.684,-76.384,120.273
8.684,128.206471,37.921139,5834.6894736,152.325,-76.54,120.626
8.7007,128.206491,37.921133,5829.4481328,151.957,-76.695,120.987
8.7174,128.206511,37.921128,5824.1991720000005,151.581,-76.85,121.357
8.7341,128.20653,37.921122,5818.9428960000005,151.195,-77.004,121.735
8.7508,128.20655,37.921117,5813.6793048,150.8,-77.158,122.123
8.7675,128.206569,37.921111,5808.4083984,150.395,-77.311,122.521
8.7842,128.206588,37.921105,5803.1301768,149.981,-77.464,122.929
8.8009,128.206607,37.9211,5797.84464,149.556,-77.616,123.347
8.8176,128.206626,37.921094,5792.5520928000005,149.12,-77.768,123.775
8.8342,128.206645,37.921089,5787.2525352,148.673,-77.918,124.215
8.8509,128.206663,37.921083,5781.9459672,148.215,-78.069,124.666
8.8676,128.206681,37.921077,5776.632084000001,147.745,-78.218,125.128
8.8844,128.206699,37.921072,5771.3114952000005,147.263,-78.367,125.603
8.9011,128.206717,37.921066,5765.983896000001,146.768,-78.515,126.09
8.9178,128.206735,37.921061,5760.6492864,146.26,-78.662,126.59
8.9345,128.206752,37.921055,5755.3079712,145.738,-78.808,127.104
8.9512,128.20677,37.92105,5749.959950400001,145.203,-78.953,127.631
8.9679,128.206787,37.921044,5744.604919200001,144.653,-79.098,128.173
8.9846,128.206804,37.921038,5739.2434872,144.088,-79.241,128.73
9.0013,128.206821,37.921033,5733.8753496,143.508,-79.384,129.302
9.0179,128.206837,37.921027,5728.500506400001,142.912,-79.525,129.89
9.0346,128.206854,37.921022,5723.1189576,142.3,-79.666,130.494
9.0513,128.20687,37.921016,5717.731008,141.67,-79.805,131.115
9.0681,128.206886,37.921011,5712.3366576,141.023,-79.943,131.754
9.0848,128.206902,37.921005,5706.935906400001,140.358,-80.08,132.41
9.1015,128.206917,37.920999,5701.5287544,139.674,-80.215,133.086
9.1182,128.206933,37.920994,5696.1155064,138.97,-80.349,133.78
9.1349,128.206948,37.920988,5690.6958576,138.247,-80.482,134.495
9.1516,128.206963,37.920983,5685.269808,137.503,-80.613,135.23
9.1683,128.206978,37.920977,5679.8376624,136.738,-80.743,135.986
9.185,128.206993,37.920972,5674.3994207999995,135.95,-80.871,136.764
9.2016,128.207007,37.920966,5668.955388,135.141,-80.997,137.564
9.2183,128.207022,37.920961,5663.5049544,134.308,-81.122,138.388
9.235,128.207036,37.920955,5658.0487296,133.451,-81.245,139.235
9.2518,128.20705,37.92095,5652.5864088,132.57,-81.365,140.106
9.2685,128.207064,37.920944,5647.1182968,131.664,-81.484,141.003
9.2852,128.207077,37.920939,5641.6443936,130.732,-81.601,141.925
9.3019,128.207091,37.920933,5636.165004,129.774,-81.715,142.873
9.3186,128.207104,37.920928,5630.6795184,128.789,-81.827,143.849
9.3353,128.207117,37.920922,5625.188546400001,127.776,-81.937,144.851
9.352,128.20713,37.920916,5619.691783200001,126.735,-82.044,145.882
9.3687,128.207142,37.920911,5614.189533600001,125.666,-82.149,146.941
9.3854,128.207155,37.920905,5608.681797600001,124.568,-82.251,148.028
9.402,128.207167,37.9209,5603.168575199999,123.441,-82.35,149.145
9.4187,128.207179,37.920894,5597.6498664,122.284,-82.446,150.291
9.4355,128.207191,37.920889,5592.125976,121.097,-82.538,151.467
9.4522,128.207202,37.920883,5586.596904,119.881,-82.628,152.673
9.4689,128.207214,37.920878,5581.0623456,118.634,-82.715,153.908
9.4856,128.207225,37.920872,5575.5226056,117.358,-82.797,155.173
9.5023,128.207236,37.920867,5569.977684,116.053,-82.877,156.468
9.519,128.207247,37.920861,5564.4275808,114.718,-82.952,157.791
9.5357,128.207258,37.920856,5558.8726008,113.354,-83.024,159.143
9.5524,128.207268,37.920851,5553.3124392,111.962,-83.092,160.524
9.5691,128.207279,37.920845,5547.747705600001,110.543,-83.155,161.931
9.5857,128.207289,37.92084,5542.1777904,109.097,-83.215,163.365
9.6024,128.207299,37.920834,5536.6029984,107.627,-83.27,164.824
9.6192,128.207308,37.920829,5531.0236343999995,106.132,-83.321,166.306
9.6359,128.207318,37.920823,5525.4393936,104.615,-83.367,167.811
9.6526,128.207327,37.920818,5519.8505808,103.077,-83.408,169.337
9.6693,128.207336,37.920812,5514.2571960000005,101.519,-83.445,170.882
9.686,128.207345,37.920807,5508.6592392,99.945,-83.477,172.443
9.7027,128.207354,37.920801,5503.0567104,98.356,-83.504,174.02
9.7194,128.207362,37.920796,5497.4499144,96.754,-83.526,175.609
9.7361,128.207371,37.92079,5491.8385464,95.142,-83.543,177.208
9.7528,128.207379,37.920785,5486.2229112,93.522,-83.554,178.815
9.7694,128.207387,37.920779,5480.6030088,91.896,-83.561,180.428
9.7861,128.207394,37.920774,5474.9788392,90.267,-83.563,182.043
9.8029,128.207402,37.920769,5469.350402399999,88.639,-83.559,183.658
9.8196,128.207409,37.920763,5463.7180032,87.012,-83.55,185.271
9.8363,128.207416,37.920758,5458.081641600001,85.39,-83.536,186.879
9.853,128.207423,37.920752,5452.4410128,83.776,-83.517,188.479
9.8697,128.20743,37.920747,5446.7967264,82.172,-83.493,190.07
9.8864,128.207436,37.920741,5441.148477600001,80.58,-83.464,191.647
9.9031,128.207443,37.920736,5435.4962663999995,79.002,-83.43,193.211
9.9198,128.207449,37.920731,5429.840397600001,77.441,-83.391,194.757
9.9365,128.207455,37.920725,5424.1808712,75.899,-83.347,196.285
9.9531,128.20746,37.92072,5418.5176872,74.377,-83.298,197.791
9.9698,128.207466,37.920714,5412.8508456,72.877,-83.245,199.276
9.9865,128.207471,37.920709,5407.1803464,71.402,-83.187,200.736
10.0033,128.207476,37.920704,5401.5064944,69.951,-83.125,202.172
10.02,128.207481,37.920698,5395.8292896,68.526,-83.059,203.581
10.0367,128.207486,37.920693,5390.148732000001,67.128,-82.988,204.963
10.0534,128.20749,37.920687,5384.4648216,65.759,-82.913,206.316
10.0701,128.207494,37.920682,5378.7778632,64.418,-82.834,207.641
10.0868,128.207498,37.920677,5373.087552000001,63.107,-82.752,208.936
10.1035,128.207502,37.920671,5367.3941928,61.826,-82.665,210.201
10.1202,128.207506,37.920666,5361.6974808,60.575,-82.575,211.436
10.1368,128.207509,37.92066,5355.9980256,59.354,-82.481,212.64
10.1535,128.207513,37.920655,5350.2958272000005,58.163,-82.384,213.814
10.1702,128.207516,37.92065,5344.5905808,57.003,-82.284,214.958
10.187,128.207518,37.920644,5338.8822864,55.872,-82.18,216.072
10.2037,128.207521,37.920639,5333.1715536,54.771,-82.074,217.157
10.2204,128.207523,37.920634,5327.4580776,53.699,-81.964,218.211
10.2371,128.207526,37.920628,5321.7418584,52.656,-81.852,219.237
10.2538,128.207528,37.920623,5316.0232008,51.641,-81.737,220.234
10.2705,128.207529,37.920617,5310.3021048,50.655,-81.619,221.203
10.2872,128.207531,37.920612,5304.578265600001,49.695,-81.499,222.145
10.3039,128.207532,37.920607,5298.852292800001,48.762,-81.377,223.06
10.3205,128.207533,37.920601,5293.1238816000005,47.856,-81.252,223.949
10.3372,128.207534,37.920596,5287.393336800001,46.974,-81.125,224.812
10.3539,128.207535,37.920591,5281.6606584,46.118,-80.996,225.65
10.3707,128.207535,37.920585,5275.9255416000005,45.285,-80.864,226.464
10.3874,128.207536,37.92058,5270.188596,44.476,-80.731,227.255
10.4041,128.207536,37.920575,5264.4495168,43.689,-80.596,228.023
10.4208,128.207536,37.920569,5258.708608800001,42.925,-80.46,228.769
10.4375,128.207535,37.920564,5252.965872,42.181,-80.321,229.493
10.4542,128.207535,37.920559,5247.221306400001,41.458,-80.181,230.197
10.4709,128.207534,37.920553,5241.474912,40.755,-80.039,230.88
10.4876,128.207533,37.920548,5235.7266887999995,40.07,-79.896,231.545
10.5042,128.207532,37.920543,5229.976941600001,39.404,-79.752,232.191
10.5209,128.20753,37.920537,5224.225670400001,38.756,-79.606,232.819
10.5376,128.207529,37.920532,5218.47318,38.125,-79.459,233.43
10.5544,128.207527,37.920527,5212.718860800001,37.51,-79.311,234.025
10.5711,128.207525,37.920521,5206.9633224,36.911,-79.161,234.603
10.5878,128.207523,37.920516,5201.206564800001,36.327,-79.011,235.166
10.6045,128.20752,37.920511,5195.448588000001,35.758,-78.859,235.714
10.6212,128.207518,37.920505,5189.689392,35.202,-78.707,236.248
10.6379,128.207515,37.9205,5183.9289768,34.661,-78.553,236.768
10.6546,128.207512,37.920495,5178.167647200001,34.132,-78.399,237.275
10.6713,128.207508,37.920489,5172.4054032,33.616,-78.243,237.769
10.6879,128.207505,37.920484,5166.6422448,33.112,-78.087,238.251
10.7046,128.207501,37.920479,5160.878172,32.62,-77.93,238.72
10.7213,128.207497,37.920474,5155.1131847999995,32.139,-77.772,239.178
10.7381,128.207493,37.920468,5149.3475880000005,31.669,-77.613,239.624
10.7548,128.207488,37.920463,5143.5813816,31.21,-77.454,240.06
10.7715,128.207484,37.920458,5137.8148704000005,30.762,-77.294,240.485
10.7882,128.207479,37.920452,5132.0474448,30.323,-77.133,240.9
10.8049,128.207474,37.920447,5126.279714400001,29.894,-76.971,241.304
10.8216,128.207469,37.920442,5120.511679200001,29.474,-76.809,241.699
10.8383,128.207463,37.920436,5114.7433392,29.063,-76.646,242.084
10.855,128.207457,37.920431,5108.9749992,28.661,-76.482,242.46
10.8717,128.207451,37.920426,5103.2060496,28.268,-76.318,242.828
10.8883,128.207445,37.920421,5097.4374048,27.882,-76.153,243.186
10.905,128.207439,37.920415,5091.668455200001,27.505,-75.987,243.536
10.9218,128.207432,37.92041,5085.8998104,27.136,-75.821,243.878
10.9385,128.207426,37.920405,5080.130860800001,26.774,-75.654,244.211
10.9552,128.207419,37.920399,5074.362520799999,26.42,-75.487,244.536
10.9719,128.207411,37.920394,5068.5941808,26.074,-75.319,244.853
10.9886,128.207404,37.920389,5062.8261456,25.734,-75.15,245.163
11.0053,128.207396,37.920384,5057.058720000001,25.4,-74.981,245.465
11.022,128.207388,37.920378,5051.2915992,25.073,-74.811,245.76
11.0387,128.20738,37.920373,5045.525088,24.752,-74.641,246.049
11.0554,128.207372,37.920368,5039.7588816,24.437,-74.47,246.331
11.072,128.207363,37.920363,5033.9935896,24.127,-74.299,246.606
11.0887,128.207355,37.920357,5028.229212,23.823,-74.127,246.875
11.1054,128.207346,37.920352,5022.4654439999995,23.524,-73.955,247.137
11.1222,128.207337,37.920347,5016.7025904,23.23,-73.782,247.394
11.1389,128.207327,37.920341,5010.9406512000005,22.941,-73.609,247.644
11.1556,128.207318,37.920336,5005.1796264,22.656,-73.435,247.889
11.1723,128.207308,37.920331,4999.4198208,22.376,-73.261,248.129
11.189,128.207298,37.920326,4993.6612344000005,22.1,-73.087,248.363
11.2057,128.207287,37.92032,4987.9038672,21.828,-72.912,248.592
11.2224,128.207277,37.920315,4982.1477192,21.561,-72.737,248.815
11.2391,128.207266,37.92031,4976.3930952,21.297,-72.561,249.034
11.2557,128.207255,37.920305,4970.6396904,21.037,-72.385,249.248
11.2724,128.207244,37.920299,4964.887809600001,20.78,-72.208,249.457
11.2891,128.207233,37.920294,4959.1377576,20.526,-72.032,249.661
11.3059,128.207221,37.920289,4953.3892296,20.276,-71.854,249.86
11.3226,128.207209,37.920284,4947.6425304,20.029,-71.677,250.055
11.3393,128.207197,37.920278,4941.8976600000005,19.784,-71.499,250.246
11.356,128.207185,37.920273,4936.1546184,19.542,-71.321,250.432
11.3727,128.207172,37.920268,4930.4137104,19.303,-71.142,250.615
11.3894,128.20716,37.920262,4924.6746312000005,19.066,-70.963,250.793
11.4061,128.207147,37.920257,4918.9376856,18.831,-70.783,250.967
11.4228,128.207134,37.920252,4913.2028736,18.598,-70.604,251.137
11.4394,128.20712,37.920247,4907.4705,18.367,-70.424,251.303
11.4561,128.207107,37.920241,4901.7405648,18.138,-70.243,251.465
11.4728,128.207093,37.920236,4896.0127632,17.91,-70.063,251.624
11.4896,128.207079,37.920231,4890.2877048,17.683,-69.882,251.779
11.5063,128.207065,37.920226,4884.5650848000005,17.457,-69.7,251.93
11.523,128.20705,37.92022,4878.844903200001,17.231,-69.519,252.079
11.5397,128.207035,37.920215,4873.1277696,17.006,-69.337,252.224
11.5564,128.207021,37.92021,4867.4133792,16.781,-69.155,252.365
11.5731,128.207005,37.920204,4861.701732,16.559,-68.977,252.5
11.5898,128.20699,37.920199,4855.992828,16.345,-68.809,252.623
11.6065,128.206974,37.920194,4850.2866672,16.141,-68.656,252.731
11.6231,128.206959,37.920189,4844.5835544,15.945,-68.517,252.825
11.6398,128.206943,37.920183,4838.8831848,15.756,-68.391,252.907
11.6565,128.206926,37.920178,4833.1858632,15.573,-68.276,252.979
11.6733,128.20691,37.920173,4827.4915896,15.392,-68.169,253.044
11.69,128.206893,37.920167,4821.8000592,15.214,-68.067,253.103
11.7067,128.206876,37.920162,4816.111272,15.036,-67.97,253.158
11.7234,128.206859,37.920157,4810.4258376,14.858,-67.875,253.209
11.7401,128.206842,37.920151,4804.7428416,14.681,-67.784,253.258
11.7568,128.206825,37.920146,4799.0628936,14.506,-67.694,253.305
11.7735,128.206807,37.920141,4793.3856888,14.331,-67.605,253.35
11.7902,128.206789,37.920135,4787.711532,14.158,-67.519,253.393
11.8068,128.206771,37.92013,4782.0398136,13.986,-67.434,253.433
11.8235,128.206753,37.920125,4776.3708384,13.817,-67.351,253.472
11.8402,128.206734,37.920119,4770.704606400001,13.651,-67.269,253.509
11.857,128.206716,37.920114,4765.0411176,13.486,-67.188,253.544
11.8737,128.206697,37.920109,4759.3800672,13.324,-67.109,253.578
11.8904,128.206678,37.920103,4753.72176,13.164,-67.03,253.61
11.9071,128.206659,37.920098,4748.066196000001,13.007,-66.953,253.641
11.9238,128.206639,37.920092,4742.4127656,12.853,-66.877,253.671
11.9405,128.20662,37.920087,4736.7620784,12.702,-66.802,253.699
11.9572,128.2066,37.920082,4731.1135248,12.554,-66.727,253.727
11.9739,128.20658,37.920076,4725.467714400001,12.409,-66.654,253.753
11.9905,128.20656,37.920071,4719.8240376,12.267,-66.583,253.777
12.0072,128.20654,37.920065,4714.1827992,12.127,-66.512,253.801
12.0239,128.206519,37.92006,4708.5439992,11.991,-66.442,253.823
12.0407,128.206499,37.920054,4702.9073328,11.857,-66.374,253.845
12.0574,128.206478,37.920049,4697.272800000001,11.726,-66.306,253.865
12.0741,128.206457,37.920043,4691.640096,11.597,-66.24,253.884
12.0908,128.206436,37.920038,4686.0098304,11.472,-66.174,253.903
12.1075,128.206415,37.920032,4680.3816984000005,11.349,-66.11,253.921
12.1242,128.206393,37.920027,4674.755700000001,11.23,-66.046,253.938
12.1409,128.206372,37.920021,4669.131530400001,11.114,-65.983,253.954
12.1576,128.20635,37.920016,4663.5094944,11.001,-65.921,253.97
12.1743,128.206328,37.92001,4657.889592,10.891,-65.86,253.985
12.1909,128.206306,37.920005,4652.2712136,10.785,-65.8,253.999
12.2076,128.206284,37.919999,4646.6549688000005,10.68,-65.742,254.013
12.2243,128.206262,37.919994,4641.0408576,10.577,-65.684,254.027
12.2411,128.206239,37.919988,4635.428270400001,10.476,-65.628,254.042
12.2578,128.206216,37.919982,4629.8175120000005,10.377,-65.573,254.057
12.2745,128.206194,37.919977,4624.2085824000005,10.279,-65.518,254.072
12.2912,128.206171,37.919971,4618.601481600001,10.185,-65.464,254.088
12.3079,128.206148,37.919965,4612.9959048,10.093,-65.41,254.104
12.3246,128.206125,37.91996,4607.3921568000005,10.004,-65.358,254.119
12.3413,128.206101,37.919954,4601.7902376,9.916,-65.307,254.134
12.358,128.206078,37.919948,4596.1898424,9.831,-65.257,254.148
12.3746,128.206054,37.919943,4590.5909712,9.745,-65.208,254.162
12.3913,128.20603,37.919937,4584.993624,9.661,-65.16,254.176
12.408,128.206006,37.919931,4579.3978008,9.577,-65.113,254.189
12.4248,128.205982,37.919926,4573.8038064,9.493,-65.067,254.202
12.4415,128.205958,37.91992,4568.2107264,9.41,-65.023,254.214
12.4582,128.205934,37.919914,4562.6194752,9.329,-64.98,254.226
12.4749,128.20591,37.919908,4557.0294432,9.249,-64.937,254.239
12.4916,128.205885,37.919903,4551.4406304,9.17,-64.896,254.251
12.5083,128.20586,37.919897,4545.8524272,9.101,-64.879,254.254
12.525,128.205836,37.919891,4540.2651384,9.045,-64.891,254.246
12.5417,128.205811,37.919885,4534.6790688,8.994,-64.92,254.233
12.5583,128.205786,37.91988,4529.093913600001,8.945,-64.95,254.219
12.575,128.205761,37.919874,4523.5096728,8.895,-64.97,254.208
12.5917,128.205736,37.919868,4517.926041600001,8.844,-64.978,254.203
12.6085,128.20571,37.919862,4512.34302,8.791,-64.973,254.203
12.6252,128.205685,37.919856,4506.7609128,8.739,-64.959,254.207
12.6419,128.205659,37.91985,4501.1791104,8.689,-64.939,254.213
12.6586,128.205634,37.919845,4495.5979176,8.642,-64.915,254.22
12.6753,128.205608,37.919839,4490.017029600001,8.597,-64.89,254.227
12.692,128.205582,37.919833,4484.4367512,8.554,-64.865,254.235
12.7087,128.205556,37.919827,4478.8567776,8.513,-64.839,254.241
12.7254,128.20553,37.919821,4473.2771088,8.472,-64.814,254.248
12.742,128.205504,37.919815,4467.6977448,8.431,-64.788,254.255
12.7587,128.205478,37.919809,4462.117771200001,8.397,-64.787,254.253
12.7754,128.205452,37.919803,4456.5377976,8.374,-64.822,254.239
12.7922,128.205425,37.919797,4450.957824,8.358,-64.877,254.217
12.8089,128.205399,37.919791,4445.3775456,8.343,-64.936,254.196
12.8256,128.205372,37.919785,4439.7972672,8.326,-64.982,254.179
12.8423,128.205345,37.919779,4434.216684,8.306,-65.012,254.168
12.859,128.205319,37.919773,4428.6357960000005,8.284,-65.026,254.163
12.8757,128.205292,37.919767,4423.0542984,8.262,-65.028,254.162
12.8924,128.205265,37.919761,4417.4721912,8.24,-65.024,254.163
12.9091,128.205238,37.919755,4411.8894744,8.22,-65.015,254.165
12.9257,128.205211,37.919749,4406.306148000001,8.201,-65.004,254.168
12.9424,128.205184,37.919743,4400.722212000001,8.182,-64.992,254.171
12.9591,128.205157,37.919737,4395.1373616,8.164,-64.98,254.175
12.9759,128.20513,37.919731,4389.5522064,8.147,-64.966,254.178
12.9926,128.205102,37.919725,4383.965832,8.129,-64.952,254.182
13.0093,128.205075,37.919719,4378.378848,8.111,-64.937,254.185
13.026,128.205048,37.919713,4372.7909496,8.093,-64.921,254.189
13.0427,128.20502,37.919707,4367.2024416,8.075,-64.906,254.194
13.0594,128.204992,37.919701,4361.6127144,8.057,-64.889,254.198
13.0761,128.204965,37.919695,4356.0223776,8.038,-64.873,254.203
13.0928,128.204937,37.919689,4350.4308216,8.02,-64.857,254.208
13.1095,128.204909,37.919683,4344.8383512,8.003,-64.842,254.212
13.1262,128.204882,37.919677,4339.2449664000005,7.984,-64.826,254.215
13.1429,128.204854,37.91967,4333.650362400001,7.966,-64.811,254.219
13.1596,128.204826,37.919664,4328.054844,7.946,-64.795,254.223
13.1763,128.204798,37.919658,4322.4581064,7.927,-64.78,254.228
13.193,128.204769,37.919652,4316.8604544,7.907,-64.766,254.232
13.2097,128.204741,37.919646,4311.2612784,7.888,-64.752,254.236
13.2264,128.204713,37.91964,4305.661188,7.868,-64.738,254.24
13.2431,128.204685,37.919634,4300.0598784,7.849,-64.723,254.244
13.2598,128.204656,37.919627,4294.4576544,7.829,-64.709,254.248
13.2765,128.204628,37.919621,4288.8539064,7.809,-64.695,254.251
13.2932,128.2046,37.919615,4283.248939200001,7.789,-64.682,254.253
13.3099,128.204571,37.919609,4277.6424480000005,7.766,-64.669,254.256
13.3266,128.204543,37.919603,4272.0350424,7.744,-64.656,254.259
13.3433,128.204514,37.919596,4266.4261128,7.72,-64.643,254.263
13.36,128.204485,37.91959,4260.8156592000005,7.696,-64.63,254.267
13.3767,128.204456,37.919584,4255.2039864,7.673,-64.617,254.271
13.3934,128.204428,37.919578,4249.590789600001,7.65,-64.605,254.274
13.4101,128.204399,37.919572,4243.9763736,7.628,-64.593,254.277
13.4268,128.20437,37.919565,4238.3604336,7.605,-64.582,254.279
13.4435,128.204341,37.919559,4232.7429696,7.581,-64.571,254.281
13.4602,128.204312,37.919553,4227.1239816,7.556,-64.561,254.283
13.4769,128.204283,37.919546,4221.5034696,7.53,-64.55,254.286
13.4936,128.204254,37.91954,4215.8814336000005,7.504,-64.539,254.29
13.5103,128.204225,37.919534,4210.2578736000005,7.478,-64.527,254.294
13.527,128.204195,37.919528,4204.6324848,7.453,-64.516,254.297
13.5437,128.204166,37.919521,4199.0058768,7.428,-64.505,254.3
13.5604,128.204137,37.919515,4193.37744,7.403,-64.495,254.302
13.5771,128.204107,37.919509,4187.7474792,7.375,-64.486,254.302
13.5938,128.204078,37.919502,4182.1156896,7.346,-64.477,254.303
13.6105,128.204048,37.919496,4176.482376000001,7.313,-64.468,254.304
13.6272,128.204019,37.91949,4170.8472336,7.278,-64.459,254.306
13.6439,128.203989,37.919483,4165.2105672,7.242,-64.451,254.307
13.6606,128.20396,37.919477,4159.572072,7.205,-64.442,254.31
13.6773,128.20393,37.919471,4153.931748,7.169,-64.433,254.312
13.694,128.2039,37.919464,4148.2895952,7.133,-64.423,254.316
13.7107,128.203871,37.919458,4142.645613600001,7.099,-64.414,254.319
13.7274,128.203841,37.919452,4137.000108,7.066,-64.404,254.321
13.7441,128.203811,37.919445,4131.352468800001,7.032,-64.396,254.322
13.7608,128.203781,37.919439,4125.7030008,6.997,-64.388,254.323
13.7775,128.203751,37.919432,4120.0520088,6.959,-64.38,254.323
13.7942,128.203721,37.919426,4114.399188,6.919,-64.373,254.324
13.8109,128.203691,37.91942,4108.7442336,6.876,-64.366,254.325
13.8276,128.203661,37.919413,4103.0874504,6.831,-64.359,254.326
13.8443,128.203631,37.919407,4097.4288384,6.784,-64.353,254.327
13.861,128.203601,37.9194,4091.7683976000003,6.737,-64.346,254.328
13.8777,128.203571,37.919394,4086.1061280000004,6.689,-64.34,254.329
13.8944,128.20354,37.919388,4080.4417248,6.639,-64.334,254.329
13.9111,128.20351,37.919381,4074.7754928,6.588,-64.328,254.33
13.9278,128.20348,37.919375,4069.1074320000002,6.534,-64.322,254.33
13.9445,128.203449,37.919368,4063.4372376,6.478,-64.316,254.33
13.9612,128.203419,37.919362,4057.7649096000005,6.421,-64.31,254.331
13.9779,128.203389,37.919355,4052.0910576000006,6.361,-64.304,254.331
13.9946,128.203358,37.919349,4046.4147672,6.298,-64.298,254.332
14.0113,128.203328,37.919342,4040.736648,6.236,-64.293,254.332
14.028,128.203297,37.919336,4035.0563952,6.173,-64.287,254.334
14.0447,128.203266,37.919329,4029.3743136000003,6.108,-64.282,254.335
14.0614,128.203236,37.919323,4023.6900984000004,6.043,-64.277,254.335
14.0781,128.203205,37.919316,4018.0037496,5.978,-64.271,254.336
14.0948,128.203174,37.91931,4012.3158768000003,5.907,-64.266,254.335
14.1115,128.203144,37.919303,4006.6255656000003,5.833,-64.261,254.333
14.1282,128.203113,37.919297,4000.9331208000003,5.755,-64.256,254.333
14.1449,128.203082,37.91929,3995.2388472000002,5.671,-64.251,254.332
14.1616,128.203051,37.919284,3989.54244,5.585,-64.246,254.332
14.1783,128.20302,37.919277,3983.8438992,5.497,-64.242,254.333
14.195,128.202989,37.919271,3978.1429200000002,5.411,-64.237,254.335
14.2117,128.202959,37.919264,3972.440112,5.324,-64.232,254.337
14.2284,128.202928,37.919258,3966.7351704000002,5.236,-64.228,254.337
14.2451,128.202897,37.919251,3961.0280952000003,5.148,-64.223,254.336
14.2618,128.202865,37.919244,3955.3194960000005,5.05,-64.218,254.332
14.2785,128.202834,37.919238,3949.6084584,4.944,-64.213,254.328
14.2952,128.202803,37.919231,3943.8952872000004,4.831,-64.209,254.326
14.3119,128.202772,37.919225,3938.1796776,4.716,-64.205,254.328
14.3286,128.202741,37.919218,3932.4622392,4.597,-64.201,254.332
14.3453,128.20271,37.919211,3926.7420576000004,4.482,-64.196,254.335
14.362,128.202678,37.919205,3921.0200472,4.372,-64.192,254.337
14.3787,128.202647,37.919198,3915.2959032000003,4.263,-64.188,254.337
14.3954,128.202616,37.919192,3909.5702352000003,4.143,-64.183,254.332
14.4121,128.202585,37.919185,3903.8421288,4.009,-64.179,254.324
14.4288,128.202553,37.919178,3898.1121936000004,3.86,-64.174,254.317
14.4455,128.202522,37.919172,3892.3807344,3.69,-64.17,254.313
14.4622,128.20249,37.919165,3886.6462272000003,3.511,-64.166,254.313
14.4789,128.202459,37.919158,3880.9092816,3.335,-64.162,254.32
14.4956,128.202427,37.919152,3875.1711168000006,3.154,-64.159,254.326
14.5123,128.202396,37.919145,3869.4311232000005,2.963,-64.155,254.321
14.529,128.202364,37.919138,3863.6896056000005,2.757,-64.151,254.306
14.5457,128.202333,37.919132,3857.9447352000007,2.592,-64.148,254.309
14.5624,128.202301,37.919125,3852.1968168000003,2.461,-64.145,254.337
14.5791,128.202269,37.919118,3846.4455456,2.373,-64.143,254.373
14.5958,128.202238,37.919111,3840.691836,2.342,-64.14,254.395
14.6125,128.202206,37.919105,3834.935688,2.366,-64.136,254.397
14.6292,128.202174,37.919098,3829.1771016000002,2.419,-64.13,254.383
14.6459,128.202143,37.919091,3823.4160768,2.473,-64.124,254.368
14.6626,128.202111,37.919085,3817.6529184,2.509,-64.119,254.358
14.6793,128.202079,37.919078,3811.8873215999997,2.524,-64.115,254.358
14.696,128.202047,37.919071,3806.1192864000004,2.528,-64.11,254.362
14.7127,128.202015,37.919064,3800.348508,2.532,-64.106,254.367
14.7294,128.201984,37.919058,3794.575596,2.545,-64.101,254.368
14.7461,128.201952,37.919051,3788.7999408,2.565,-64.095,254.367
14.7628,128.20192,37.919044,3783.0218472,2.589,-64.09,254.363
14.7795,128.201888,37.919037,3777.2413152,2.612,-64.084,254.36
14.7962,128.201856,37.919031,3771.4586496,2.632,-64.078,254.358
14.8129,128.201824,37.919024,3765.6732408000003,2.649,-64.073,254.358
14.8296,128.201792,37.919017,3759.8853936000005,2.664,-64.067,254.358
14.8463,128.20176,37.91901,3754.095108,2.68,-64.061,254.359
14.863,128.201728,37.919003,3748.302384,2.698,-64.055,254.358
14.8797,128.201696,37.918997,3742.5072216,2.717,-64.049,254.357
14.8964,128.201664,37.91899,3736.7096208000003,2.737,-64.043,254.356
14.9131,128.201631,37.918983,3730.9095816,2.757,-64.037,254.355
14.9298,128.201599,37.918976,3725.107104,2.777,-64.03,254.354
14.9465,128.201567,37.918969,3719.302188,2.798,-64.024,254.354
14.9632,128.201535,37.918962,3713.4948336,2.818,-64.018,254.353
14.9799,128.201503,37.918956,3707.684736,2.839,-64.011,254.352
14.9966,128.20147,37.918949,3701.8725048,2.858,-64.005,254.352
15.0133,128.201438,37.918942,3696.0578352000007,2.878,-63.998,254.352
15.03,128.201406,37.918935,3690.2404224,2.898,-63.992,254.352
15.0467,128.201373,37.918928,3684.4208760000006,2.919,-63.985,254.351
15.0634,128.201341,37.918921,3678.5985864000004,2.941,-63.978,254.35
15.0801,128.201309,37.918914,3672.7741632,2.963,-63.972,254.35
15.0968,128.201276,37.918908,3666.9469968,2.985,-63.965,254.349
15.1135,128.201244,37.918901,3661.1176968,3.008,-63.958,254.349
15.1302,128.201211,37.918894,3655.2856536,3.03,-63.951,254.348
15.1469,128.201179,37.918887,3649.4514768,3.053,-63.944,254.348
15.1636,128.201146,37.91888,3643.6145568,3.076,-63.938,254.348
15.1803,128.201114,37.918873,3637.7751984,3.099,-63.931,254.348
15.197,128.201081,37.918866,3631.9337064,3.123,-63.924,254.347
15.2137,128.201049,37.918859,3626.0894712000004,3.149,-63.917,254.346
15.2304,128.201016,37.918852,3620.2431024,3.174,-63.91,254.346
15.2471,128.200984,37.918845,3614.3939904,3.199,-63.903,254.346
15.2638,128.200951,37.918838,3608.5427448,3.223,-63.896,254.346
15.2805,128.200918,37.918831,3602.688756,3.248,-63.889,254.346
