Time,Longitude,Latitude,Altitude,Roll (deg),Pitch (deg),Yaw (deg)
0.0,128.181313,37.914631,4000.0467624000003,0.0,-0.003,0.0
0.0167,128.181313,37.914669,4000.05804,0.0,-0.013,0.0
0.0334,128.181313,37.914706,4000.0680984000005,0.0,-0.026,0.0
0.0501,128.181313,37.914744,4000.0775472,0.0,-0.043,0.0
0.0668,128.181313,37.914781,4000.0857768,0.0,-0.062,0.0
0.0834,128.181313,37.914819,4000.0933968,0.0,-0.082,0.0
0.1002,128.181313,37.914856,4000.0997976000003,0.0,-0.103,0.0
0.1169,128.181313,37.914894,4000.105284,0.0,-0.125,0.0
0.1336,128.181313,37.914932,4000.109856,0.0,-0.147,0.0
0.1503,128.181313,37.914969,4000.1135136000003,0.0,-0.169,0.0
0.1669,128.181313,37.915007,4000.115952,0.0,-0.192,0.0
0.1837,128.181313,37.915044,4000.1174760000004,0.0,-0.214,0.0
0.2004,128.181313,37.915082,4000.1180856,0.0,-0.236,0.0
0.2171,128.181313,37.91512,4000.1177807999998,0.0,-0.259,0.0
0.2338,128.181313,37.915157,4000.1162568,0.0,-0.281,0.0
0.2505,128.181313,37.915195,4000.1138184,0.0,-0.304,0.0
0.2672,128.181313,37.915233,4000.1101608,0.0,-0.326,0.0
0.2839,128.181313,37.91527,4000.1055888,0.0,-0.349,0.0
0.3006,128.181313,37.915308,4000.0997976000003,0.0,-0.371,0.0
0.3172,128.181313,37.915346,4000.0930920000005,0.0,-0.394,0.0
0.3339,128.181313,37.915384,4000.0851672,0.0,-0.416,0.0
0.3507,128.181313,37.915421,4000.0763280000006,0.0,-0.439,0.0
0.3674,128.181313,37.915459,4000.0662696,0.0,-0.461,0.0
0.3841,128.181313,37.915497,4000.0549920000003,0.0,-0.484,0.0
0.4008,128.181313,37.915535,4000.0428,0.0,-0.506,0.0
0.4175,128.181313,37.915573,4000.0293888,0.001,-0.529,0.0
0.4342,128.181313,37.91561,4000.0150632,0.001,-0.551,0.0
0.4509,128.181313,37.915648,3999.9992136,0.001,-0.574,0.0
0.4676,128.181313,37.915686,3999.9824496,0.001,-0.596,0.0
0.4843,128.181313,37.915724,3999.9644664,0.001,-0.618,0.0
0.501,128.181313,37.915762,3999.9455688000003,0.001,-0.641,0.0
0.5176,128.181313,37.9158,3999.9251472,0.001,-0.663,0.0
0.5344,128.181313,37.915838,3999.9038112000003,0.001,-0.686,0.0
0.5511,128.181313,37.915876,3999.8809512,0.001,-0.708,0.0
0.5678,128.181313,37.915914,3999.8571768,0.002,-0.73,0.0
0.5845,128.181313,37.915952,3999.8321832,0.002,-0.753,0.0
0.6012,128.181313,37.91599,3999.8059704,0.002,-0.775,0.0
0.6179,128.181313,37.916028,3999.7785384000003,0.002,-0.797,0.0
0.6345,128.181313,37.916066,3999.7498872000006,0.002,-0.82,0.0
0.6513,128.181313,37.916104,3999.7200168000004,0.002,-0.842,0.0
0.6679,128.181313,37.916142,3999.6889272000003,0.003,-0.865,0.0
0.6847,128.181313,37.91618,3999.6563136,0.003,-0.887,0.0
0.7014,128.181313,37.916218,3999.6227856,0.003,-0.909,0.0
0.7181,128.181313,37.916256,3999.5880384,0.003,-0.932,0.0
0.7348,128.181313,37.916294,3999.5517672,0.003,-0.954,0.0
0.7514,128.181313,37.916332,3999.5142768,0.003,-0.976,0.0
0.7682,128.181313,37.91637,3999.475872,0.004,-0.999,0.0
0.7848,128.181313,37.916408,3999.4359432,0.004,-1.021,0.0
0.8016,128.181313,37.916446,3999.3944904,0.004,-1.043,0.0
0.8183,128.181313,37.916485,3999.3521232000003,0.004,-1.066,0.0
0.835,128.181313,37.916523,3999.3082320000003,0.004,-1.088,0.0
0.8517,128.181313,37.916561,3999.2631216,0.005,-1.11,0.0
0.8684,128.181313,37.916599,3999.2167920000006,0.005,-1.133,0.0
0.8851,128.181313,37.916637,3999.1689384,0.005,-1.155,0.0
0.9018,128.181313,37.916676,3999.1201704,0.005,-1.177,0.0
0.9185,128.181313,37.916714,3999.0695736000002,0.006,-1.2,0.0
0.9352,128.181313,37.916752,3999.0180624000004,0.006,-1.222,0.001
0.9519,128.181313,37.916791,3998.9650272000003,0.006,-1.244,0.001
0.9686,128.181313,37.916829,3998.910468,0.006,-1.267,0.001
0.9853,128.181313,37.916867,3998.8549944,0.007,-1.289,0.001
1.002,128.181313,37.916905,3998.7979968,0.007,-1.311,0.001
1.0187,128.181313,37.916944,3998.7394752000005,0.007,-1.334,0.001
1.0353,128.181313,37.916982,3998.6797344,0.007,-1.356,0.001
1.0521,128.181313,37.917021,3998.6184696,0.008,-1.378,0.001
1.0688,128.181313,37.917059,3998.5559856,0.008,-1.401,0.001
1.0855,128.181313,37.917097,3998.4922824000005,0.008,-1.423,0.001
1.1022,128.181313,37.917136,3998.4270552000003,0.008,-1.445,0.001
1.1189,128.181313,37.917174,3998.3603040000003,0.009,-1.468,0.001
1.1356,128.181313,37.917213,3998.2923336,0.009,-1.49,0.001
1.1522,128.181313,37.917251,3998.2231440000005,0.009,-1.512,0.001
1.169,128.181313,37.91729,3998.1521256000005,0.01,-1.535,0.001
1.1857,128.181313,37.917328,3998.079888,0.01,-1.557,0.001
1.2024,128.181313,37.917367,3998.0064312,0.01,-1.579,0.001
1.2191,128.181313,37.917405,3997.9314504000004,0.01,-1.602,0.001
1.2358,128.181313,37.917444,3997.8549456,0.011,-1.624,0.001
1.2525,128.181313,37.917482,3997.7772216,0.011,-1.646,0.001
1.2691,128.181313,37.917521,3997.6979736000003,0.011,-1.669,0.001
1.2859,128.181313,37.917559,3997.6172016,0.012,-1.691,0.001
1.3026,128.181313,37.917598,3997.5352104,0.012,-1.714,0.001
1.3193,128.181313,37.917637,3997.4513904,0.012,-1.736,0.001
1.3359,128.181313,37.917675,3997.366656,0.013,-1.758,0.001
1.3527,128.181313,37.917714,3997.2800928,0.013,-1.781,0.001
1.3694,128.181313,37.917753,3997.1923103999998,0.013,-1.803,0.001
1.386,128.181313,37.917791,3997.1026992,0.014,-1.825,0.001
1.4028,128.181313,37.91783,3997.0121736000006,0.014,-1.848,0.001
1.4195,128.181313,37.917869,3996.9198192000003,0.014,-1.87,0.002
1.4362,128.181313,37.917907,3996.8259408000004,0.015,-1.893,0.002
1.4528,128.181313,37.917946,3996.7308432,0.015,-1.915,0.002
1.4696,128.181313,37.917985,3996.6342216,0.015,-1.937,0.002
1.4863,128.181313,37.918024,3996.5360760000003,0.016,-1.96,0.002
1.5029,128.181313,37.918062,3996.4364064,0.016,-1.982,0.002
1.5197,128.181313,37.918101,3996.3355176,0.017,-2.005,0.002
1.5364,128.181313,37.91814,3996.2328,0.017,-2.027,0.002
1.5531,128.181313,37.918179,3996.1288632,0.017,-2.05,0.002
1.5697,128.181313,37.918218,3996.0230976000003,0.018,-2.072,0.002
1.5865,128.181313,37.918256,3995.9161128,0.018,-2.094,0.002
1.6032,128.181313,37.918295,3995.807604,0.019,-2.117,0.002
1.6198,128.181313,37.918334,3995.6975712000003,0.019,-2.139,0.002
1.6366,128.181313,37.918373,3995.5860144000003,0.019,-2.162,0.002
1.6533,128.181313,37.918412,3995.4729336,0.02,-2.184,0.002
1.67,128.181313,37.918451,3995.3583288,0.02,-2.207,0.002
1.6867,128.181313,37.91849,3995.2422,0.021,-2.229,0.002
1.7034,128.181313,37.918529,3995.1245472,0.021,-2.252,0.002
1.7201,128.181313,37.918568,3995.0053704,0.021,-2.274,0.002
1.7368,128.181313,37.918607,3994.8846696,0.022,-2.296,0.002
1.7535,128.181313,37.918646,3994.7624448,0.022,-2.319,0.002
1.7702,128.181313,37.918685,3994.6386960000004,0.023,-2.341,0.002
1.7869,128.181313,37.918724,3994.5134232000005,0.023,-2.363,0.002
1.8036,128.181313,37.918763,3994.3866264,0.023,-2.386,0.002
1.8203,128.181313,37.918802,3994.2580008000004,0.024,-2.408,0.002
1.837,128.181313,37.918841,3994.128156,0.024,-2.43,0.002
1.8537,128.181313,37.91888,3993.9967872,0.025,-2.453,0.003
1.8704,128.181313,37.918919,3993.8635896000005,0.025,-2.475,0.003
1.8871,128.181313,37.918958,3993.7291728,0.026,-2.497,0.003
1.9038,128.181313,37.918998,3993.5929272000003,0.026,-2.519,0.003
1.9205,128.181313,37.919037,3993.4551576000003,0.027,-2.541,0.003
1.9372,128.181313,37.919076,3993.315864,0.027,-2.563,0.003
1.9539,128.181313,37.919115,3993.1750464000006,0.027,-2.585,0.003
1.9706,128.181313,37.919154,3993.0327048000004,0.028,-2.608,0.003
1.9873,128.181313,37.919193,3992.8888392000003,0.028,-2.63,0.003
2.004,128.181313,37.919233,3992.7431448,0.029,-2.652,0.003
2.0207,128.181313,37.919272,3992.5959264,0.029,-2.674,0.003
2.0374,128.181313,37.919311,3992.447184,0.03,-2.696,0.003
2.0541,128.181313,37.919351,3992.2969176,0.03,-2.718,0.003
2.0707,128.181313,37.91939,3992.1451272000004,0.031,-2.739,0.003
2.0875,128.181313,37.919429,3991.9918128,0.031,-2.761,0.003
2.1042,128.181313,37.919468,3991.8366696,0.032,-2.783,0.003
2.1208,128.181313,37.919508,3991.6800024000004,0.032,-2.805,0.003
2.1376,128.181313,37.919547,3991.5218112000002,0.033,-2.827,0.003
2.1543,128.181313,37.919587,3991.3620960000003,0.033,-2.849,0.003
2.171,128.181313,37.919626,3991.2005520000002,0.034,-2.87,0.003
2.1877,128.181313,37.919665,3991.0374840000004,0.034,-2.892,0.003
2.2044,128.181313,37.919705,3990.8728920000003,0.035,-2.914,0.003
2.2211,128.181313,37.919744,3990.7067760000004,0.035,-2.935,0.003
2.2378,128.181313,37.919784,3990.5388312,0.036,-2.957,0.004
2.2544,128.181313,37.919823,3990.3696672,0.036,-2.979,0.004
2.2712,128.181313,37.919863,3990.1983696,0.037,-3.0,0.004
2.2879,128.181313,37.919902,3990.0258528000004,0.037,-3.022,0.004
2.3045,128.181313,37.919942,3989.8515072000005,0.038,-3.043,0.004
2.3213,128.181313,37.919981,3989.6756376,0.038,-3.065,0.004
2.338,128.181313,37.920021,3989.4982440000003,0.039,-3.086,0.004
2.3546,128.181313,37.92006,3989.3193264,0.039,-3.108,0.004
2.3714,128.181313,37.9201,3989.1385800000003,0.04,-3.129,0.004
2.3881,128.181313,37.920139,3988.9563096,0.04,-3.15,0.004
2.4048,128.181313,37.920179,3988.7722104,0.041,-3.172,0.004
2.4215,128.181313,37.920219,3988.5868920000003,0.041,-3.193,0.004
2.4382,128.181313,37.920258,3988.3997448,0.042,-3.214,0.004
2.4549,128.181313,37.920298,3988.2107688000006,0.042,-3.236,0.004
2.4716,128.181313,37.920338,3988.0202688000004,0.043,-3.257,0.004
2.4882,128.181313,37.920377,3987.8282448,0.043,-3.278,0.004
2.505,128.181313,37.920417,3987.6346968,0.044,-3.299,0.004
2.5217,128.181313,37.920457,3987.43932,0.044,-3.32,0.004
2.5383,128.181313,37.920496,3987.2424192000003,0.045,-3.341,0.004
2.5551,128.181313,37.920536,3987.0439944,0.045,-3.362,0.004
2.5718,128.181313,37.920576,3986.8437408,0.046,-3.383,0.004
2.5884,128.181313,37.920616,3986.6419632,0.047,-3.404,0.004
2.6052,128.181313,37.920656,3986.4386616,0.047,-3.425,0.005
2.6219,128.181313,37.920695,3986.2335312,0.048,-3.446,0.005
2.6386,128.181313,37.920735,3986.0268768,0.048,-3.467,0.005
2.6553,128.181313,37.920775,3985.8183936000005,0.049,-3.488,0.005
2.6719,128.181313,37.920815,3985.6083864,0.049,-3.509,0.005
2.6887,128.181313,37.920855,3985.3968552000006,0.05,-3.53,0.005
2.7054,128.181313,37.920895,3985.1838000000002,0.05,-3.551,0.005
2.722,128.181313,37.920935,3984.9689160000003,0.051,-3.571,0.005
2.7388,128.181313,37.920975,3984.7522032000006,0.052,-3.592,0.005
2.7555,128.181313,37.921014,3984.5339664000003,0.052,-3.613,0.005
2.7721,128.181313,37.921054,3984.3142056000006,0.053,-3.633,0.005
2.7889,128.181313,37.921094,3984.0929208000002,0.053,-3.654,0.005
2.8056,128.181313,37.921134,3983.8698072,0.054,-3.675,0.005
2.8222,128.181313,37.921174,3983.6451696,0.054,-3.695,0.005
2.839,128.181314,37.921214,3983.4187032000004,0.055,-3.716,0.005
2.8557,128.181314,37.921254,3983.1907128,0.056,-3.736,0.005
2.8724,128.181314,37.921294,3982.9611984000003,0.056,-3.757,0.005
2.8891,128.181314,37.921335,3982.7298552,0.057,-3.777,0.005
2.9057,128.181314,37.921375,3982.496988,0.057,-3.797,0.005
2.9225,128.181314,37.921415,3982.2622920000003,0.058,-3.818,0.005
2.9392,128.181314,37.921455,3982.0263768,0.059,-3.838,0.005
2.9558,128.181314,37.921495,3981.7883280000005,0.059,-3.858,0.006
2.9726,128.181314,37.921535,3981.5490600000003,0.06,-3.879,0.006
2.9893,128.181314,37.921575,3981.3076584,0.06,-3.899,0.006
3.0059,128.181314,37.921615,3981.0650376,0.061,-3.919,0.006
3.0227,128.181314,37.921656,3980.820588,0.062,-3.939,0.006
3.0394,128.181314,37.921696,3980.5746144000004,0.062,-3.959,0.006
3.056,128.181314,37.921736,3980.3268120000002,0.063,-3.98,0.006
3.0728,128.181314,37.921776,3980.0774856,0.063,-4.0,0.006
3.0895,128.181314,37.921817,3979.8266352000005,0.064,-4.02,0.006
3.1062,128.181314,37.921857,3979.573956,0.065,-4.04,0.006
3.1229,128.181314,37.921897,3979.319448,0.065,-4.06,0.006
3.1395,128.181314,37.921938,3979.0637208000003,0.066,-4.08,0.006
3.1563,128.181314,37.921978,3978.8061648,0.066,-4.1,0.006
3.173,128.181314,37.922018,3978.54678,0.067,-4.12,0.006
3.1896,128.181314,37.922059,3978.2858712,0.068,-4.139,0.006
3.2064,128.181314,37.922099,3978.0234384,0.068,-4.159,0.006
3.2231,128.181314,37.922139,3977.7591768,0.069,-4.179,0.006
3.2397,128.181314,37.92218,3977.4933912,0.07,-4.199,0.006
3.2565,128.181314,37.92222,3977.2260816000003,0.07,-4.219,0.006
3.2732,128.181314,37.922261,3976.9569432000003,0.071,-4.238,0.007
3.2899,128.181314,37.922301,3976.6862808,0.072,-4.258,0.007
3.3066,128.181314,37.922342,3976.4137896000007,0.072,-4.278,0.007
3.3233,128.181314,37.922382,3976.1397744,0.073,-4.297,0.007
3.34,128.181314,37.922423,3975.8642352000006,0.073,-4.317,0.007
3.3567,128.181314,37.922463,3975.5868672,0.074,-4.336,0.007
3.3734,128.181314,37.922504,3975.3079752000003,0.075,-4.356,0.007
3.3901,128.181314,37.922544,3975.0272544,0.075,-4.375,0.007
3.4068,128.181314,37.922585,3974.7450096000002,0.076,-4.395,0.007
3.4235,128.181314,37.922625,3974.4612408000003,0.077,-4.414,0.007
3.4402,128.181314,37.922666,3974.1756432,0.077,-4.434,0.007
3.4569,128.181314,37.922707,3973.8885216,0.078,-4.453,0.007
3.4736,128.181314,37.922747,3973.599876,0.079,-4.472,0.007
3.4903,128.181314,37.922788,3973.3094016,0.079,-4.492,0.007
3.507,128.181314,37.922828,3973.0170984000006,0.08,-4.511,0.007
3.5237,128.181314,37.922869,3972.7235760000003,0.081,-4.53,0.007
3.5404,128.181314,37.92291,3972.4282248,0.081,-4.549,0.007
3.5571,128.181314,37.922951,3972.1310448,0.082,-4.569,0.007
3.5738,128.181314,37.922991,3971.8323408,0.083,-4.588,0.007
3.5905,128.181314,37.923032,3971.5321128,0.083,-4.607,0.008
3.6072,128.181314,37.923073,3971.2303608,0.084,-4.626,0.008
3.6239,128.181314,37.923114,3970.9267800000002,0.085,-4.645,0.008
3.6406,128.181314,37.923154,3970.6213704,0.085,-4.664,0.008
3.6573,128.181314,37.923195,3970.3147416,0.086,-4.683,0.008
3.674,128.181314,37.923236,3970.0059792,0.087,-4.702,0.008
3.6907,128.181314,37.923277,3969.6959976000003,0.088,-4.721,0.008
3.7074,128.181314,37.923318,3969.3841872000003,0.088,-4.74,0.008
3.7241,128.181314,37.923359,3969.0708528000005,0.089,-4.759,0.008
3.7408,128.181314,37.9234,3968.7556896000006,0.09,-4.778,0.008
3.7575,128.181314,37.92344,3968.4393072000003,0.09,-4.796,0.008
3.7742,128.181314,37.923481,3968.1207912000004,0.091,-4.815,0.008
3.7909,128.181314,37.923522,3967.801056,0.092,-4.834,0.008
3.8076,128.181314,37.923563,3967.4794920000004,0.092,-4.853,0.008
3.8243,128.181314,37.923604,3967.1560992,0.093,-4.871,0.008
3.841,128.181314,37.923645,3966.8314872000005,0.094,-4.89,0.008
3.8577,128.181314,37.923686,3966.5050464000005,0.095,-4.909,0.008
3.8744,128.181314,37.923727,3966.1767768,0.095,-4.927,0.008
3.8911,128.181314,37.923768,3965.8469832,0.096,-4.946,0.009
3.9078,128.181314,37.92381,3965.5156656,0.097,-4.964,0.009
3.9245,128.181314,37.923851,3965.182824,0.097,-4.983,0.009
3.9412,128.181314,37.923892,3964.8481536,0.098,-5.001,0.009
3.9579,128.181314,37.923933,3964.5119592,0.099,-5.02,0.009
3.9746,128.181314,37.923974,3964.1742408,0.1,-5.038,0.009
3.9913,128.181314,37.924015,3963.8346936000003,0.1,-5.057,0.009
4.008,128.181315,37.924056,3963.4936224000003,0.101,-5.075,0.009
4.0247,128.181315,37.924097,3963.1507224,0.102,-5.093,0.009
4.0414,128.181315,37.924139,3962.8062984000003,0.103,-5.112,0.009
4.058,128.181315,37.92418,3962.4603504,0.103,-5.13,0.009
4.0748,128.181315,37.924221,3962.1128784000007,0.104,-5.148,0.009
4.0915,128.181315,37.924262,3961.7635776,0.105,-5.166,0.009
4.1082,128.181315,37.924304,3961.4127528000004,0.106,-5.185,0.009
4.1249,128.181315,37.924345,3961.0600992,0.106,-5.203,0.009
4.1415,128.181315,37.924386,3960.7062264,0.107,-5.221,0.009
4.1583,128.181315,37.924428,3960.3505248,0.108,-5.239,0.009
4.175,128.181315,37.924469,3959.9929944,0.109,-5.257,0.009
4.1917,128.181315,37.92451,3959.6342448,0.109,-5.275,0.01
4.2084,128.181315,37.924552,3959.2736664000004,0.11,-5.293,0.01
4.2251,128.181315,37.924593,3958.9112592,0.111,-5.311,0.01
4.2417,128.181315,37.924634,3958.5476328000004,0.112,-5.329,0.01
4.2585,128.181315,37.924676,3958.1821776,0.112,-5.347,0.01
4.2752,128.181315,37.924717,3957.8151984000006,0.113,-5.365,0.01
4.2919,128.181315,37.924759,3957.4463904,0.114,-5.383,0.01
4.3086,128.181315,37.9248,3957.0763632000003,0.115,-5.4,0.01
4.3252,128.181315,37.924842,3956.7045072,0.115,-5.418,0.01
4.342,128.181315,37.924883,3956.3308224,0.116,-5.436,0.01
4.3587,128.181315,37.924925,3955.9559184000004,0.117,-5.454,0.01
4.3754,128.181315,37.924966,3955.5791856,0.118,-5.471,0.01
4.3921,128.181315,37.925008,3955.2009288,0.119,-5.489,0.01
4.4088,128.181315,37.925049,3954.8208432,0.119,-5.507,0.01
4.4254,128.181315,37.925091,3954.4395384,0.12,-5.524,0.01
4.4422,128.181315,37.925133,3954.0564048,0.121,-5.542,0.01
4.4589,128.181315,37.925174,3953.6714424,0.122,-5.559,0.011
4.4756,128.181315,37.925216,3953.2852608000003,0.122,-5.577,0.011
4.4923,128.181315,37.925258,3952.8972504000003,0.123,-5.594,0.011
4.5089,128.181315,37.925299,3952.507716,0.124,-5.612,0.011
4.5256,128.181315,37.925341,3952.1166576000005,0.125,-5.629,0.011
4.5424,128.181315,37.925383,3951.7237704000004,0.126,-5.647,0.011
4.5591,128.181315,37.925424,3951.3296640000003,0.126,-5.664,0.011
4.5758,128.181315,37.925466,3950.9337288,0.127,-5.681,0.011
4.5925,128.181315,37.925508,3950.5359648,0.128,-5.699,0.011
4.6091,128.181315,37.92555,3950.1369816,0.129,-5.716,0.011
4.6259,128.181315,37.925592,3949.7361696,0.13,-5.733,0.011
4.6426,128.181315,37.925633,3949.3338336,0.131,-5.751,0.011
4.6593,128.181315,37.925675,3948.9299736000003,0.131,-5.768,0.011
4.676,128.181315,37.925717,3948.5242848000003,0.132,-5.785,0.011
4.6927,128.181315,37.925759,3948.1173768,0.133,-5.802,0.011
4.7093,128.181315,37.925801,3947.70864,0.134,-5.819,0.011
4.7261,128.181315,37.925843,3947.2983792,0.135,-5.836,0.012
4.7428,128.181315,37.925885,3946.8862896000005,0.136,-5.853,0.012
4.7595,128.181315,37.925927,3946.4729807999997,0.136,-5.87,0.012
4.7762,128.181315,37.925969,3946.0578432,0.137,-5.887,0.012
4.7928,128.181315,37.92601,3945.6411816,0.138,-5.904,0.012
4.8096,128.181315,37.926052,3945.2229960000004,0.139,-5.921,0.012
4.8263,128.181315,37.926094,3944.8032864,0.14,-5.938,0.012
4.843,128.181315,37.926137,3944.3817480000002,0.141,-5.955,0.012
4.8597,128.181315,37.926179,3943.9586856,0.141,-5.972,0.012
4.8764,128.181316,37.926221,3943.534404,0.142,-5.989,0.012
4.893,128.181316,37.926263,3943.1079888000004,0.143,-6.005,0.012
4.9098,128.181316,37.926305,3942.6803544,0.144,-6.022,0.012
4.9265,128.181316,37.926347,3942.251196,0.145,-6.039,0.012
4.9432,128.181316,37.926389,3941.8202088000003,0.146,-6.056,0.012
4.9599,128.181316,37.926431,3941.3876976,0.147,-6.072,0.012
4.9765,128.181316,37.926473,3940.9536624000007,0.147,-6.089,0.013
4.9932,128.181316,37.926516,3940.5181032000005,0.148,-6.106,0.013
5.01,128.181316,37.926558,3940.0807152,0.149,-6.122,0.013
5.0267,128.181316,37.9266,3939.642108,0.15,-6.139,0.013
5.0434,128.181316,37.926642,3939.201672,0.151,-6.155,0.013
5.0601,128.181316,37.926685,3938.7597120000005,0.152,-6.172,0.013
5.0767,128.181316,37.926727,3938.3165328000005,0.153,-6.188,0.013
5.0935,128.181316,37.926769,3937.87122,0.153,-6.204,0.013
5.1102,128.181316,37.926811,3937.424688,0.154,-6.221,0.013
5.1269,128.181316,37.926854,3936.9766320000003,0.155,-6.237,0.013
5.1436,128.181316,37.926896,3936.5267472,0.156,-6.253,0.013
5.1602,128.181316,37.926938,3936.0756432000003,0.157,-6.27,0.013
5.1769,128.181316,37.926981,3935.6227104,0.158,-6.286,0.013
5.1937,128.181316,37.927023,3935.1682536,0.159,-6.302,0.013
5.2104,128.181316,37.927066,3934.7122728000004,0.16,-6.318,0.014
5.2271,128.181316,37.927108,3934.2547680000002,0.161,-6.334,0.014
5.2438,128.181316,37.927151,3933.7957392000003,0.162,-6.35,0.014
5.2604,128.181316,37.927193,3933.3348816000002,0.162,-6.366,0.014
5.2772,128.181316,37.927235,3932.8728048000003,0.163,-6.382,0.014
5.2939,128.181316,37.927278,3932.4088992,0.164,-6.398,0.014
5.3106,128.181316,37.927321,3931.9437744,0.165,-6.414,0.014
5.3273,128.181316,37.927363,3931.4768208000005,0.166,-6.43,0.014
5.3439,128.181316,37.927406,3931.0083432,0.167,-6.446,0.014
5.3606,128.181316,37.927448,3930.5386464000003,0.168,-6.462,0.014
5.3774,128.181316,37.927491,3930.0671208000003,0.169,-6.477,0.014
5.3941,128.181316,37.927533,3929.5940712000006,0.17,-6.493,0.014
5.4108,128.181316,37.927576,3929.1194976,0.171,-6.509,0.014
5.4275,128.181316,37.927619,3928.6434000000004,0.172,-6.525,0.014
5.4441,128.181316,37.927661,3928.1657784000004,0.173,-6.54,0.015
5.4609,128.181316,37.927704,3927.6863280000002,0.173,-6.556,0.015
5.4776,128.181316,37.927747,3927.2056584,0.174,-6.571,0.015
5.4943,128.181316,37.927789,3926.7234648,0.175,-6.587,0.015
5.511,128.181316,37.927832,3926.2397472000002,0.176,-6.602,0.015
5.5277,128.181316,37.927875,3925.7542008000005,0.177,-6.618,0.015
5.5443,128.181316,37.927918,3925.2674352000004,0.178,-6.633,0.015
5.5611,128.181317,37.92796,3924.7791456000004,0.179,-6.649,0.015
5.5778,128.181317,37.928003,3924.2893320000003,0.18,-6.664,0.015
5.5945,128.181317,37.928046,3923.7976896000005,0.181,-6.679,0.015
5.6112,128.181317,37.928089,3923.3048280000003,0.182,-6.695,0.015
5.6278,128.181317,37.928132,3922.8104424,0.183,-6.71,0.015
5.6445,128.181317,37.928175,3922.314228,0.184,-6.725,0.015
5.6613,128.181317,37.928218,3921.8167944,0.185,-6.74,0.015
5.678,128.181317,37.92826,3921.3178368000004,0.186,-6.755,0.016
5.6947,128.181317,37.928303,3920.8173552000003,0.187,-6.771,0.016
5.7114,128.181317,37.928346,3920.3150448,0.188,-6.786,0.016
5.728,128.181317,37.928389,3919.8115152,0.189,-6.801,0.016
5.7448,128.181317,37.928432,3919.3064616,0.19,-6.816,0.016
5.7615,128.181317,37.928475,3918.799884,0.191,-6.831,0.016
5.7782,128.181317,37.928518,3918.2917824000006,0.192,-6.846,0.016
5.7949,128.181317,37.928561,3917.7821568000004,0.193,-6.861,0.016
5.8115,128.181317,37.928604,3917.2710072000004,0.194,-6.875,0.016
5.8282,128.181317,37.928647,3916.7583336000002,0.195,-6.89,0.016
5.845,128.181317,37.928691,3916.2444408,0.196,-6.905,0.016
5.8617,128.181317,37.928734,3915.7287192000003,0.197,-6.92,0.016
5.8784,128.181317,37.928777,3915.2117784000006,0.198,-6.935,0.017
5.8951,128.181317,37.92882,3914.6930088,0.199,-6.949,0.017
5.9117,128.181317,37.928863,3914.17302,0.2,-6.964,0.017
5.9285,128.181317,37.928906,3913.6512024000003,0.201,-6.979,0.017
5.9452,128.181317,37.928949,3913.1281656,0.202,-6.993,0.017
5.9619,128.181317,37.928993,3912.6036048,0.203,-7.008,0.017
5.9786,128.181317,37.929036,3912.0775200000003,0.204,-7.023,0.017
5.9952,128.181317,37.929079,3911.550216,0.205,-7.037,0.017
6.0119,128.181317,37.929122,3911.0210832,0.206,-7.052,0.017
6.0287,128.181317,37.929166,3910.4904264,0.207,-7.066,0.017
6.0454,128.181317,37.929209,3909.9585504,0.208,-7.08,0.017
6.0621,128.181317,37.929252,3909.4251504000003,0.209,-7.095,0.017
6.0788,128.181317,37.929296,3908.8902264,0.21,-7.109,0.018
6.0954,128.181317,37.929339,3908.3537784000005,0.211,-7.124,0.018
6.1121,128.181317,37.929382,3907.8158064,0.212,-7.138,0.018
6.1289,128.181317,37.929426,3907.2763104,0.213,-7.152,0.018
6.1456,128.181317,37.929469,3906.7355952000003,0.214,-7.166,0.018
6.1623,128.181318,37.929512,3906.193356,0.215,-7.181,0.018
6.179,128.181318,37.929556,3905.6495928,0.216,-7.195,0.018
6.1956,128.181318,37.929599,3905.1043056000003,0.217,-7.209,0.018
6.2124,128.181318,37.929643,3904.5574944,0.218,-7.223,0.018
6.2291,128.181318,37.929686,3904.009464,0.219,-7.237,0.018
6.2458,128.181318,37.92973,3903.4596048000003,0.22,-7.251,0.018
6.2625,128.181318,37.929773,3902.9085264,0.221,-7.265,0.018
6.2791,128.181318,37.929817,3902.3562288,0.222,-7.279,0.019
6.2958,128.181318,37.92986,3901.8021024000004,0.223,-7.293,0.019
6.3126,128.181318,37.929904,3901.2467568,0.224,-7.307,0.019
6.3293,128.181318,37.929948,3900.6898872000006,0.225,-7.321,0.019
6.346,128.181318,37.929991,3900.1314936000003,0.226,-7.335,0.019
6.3627,128.181318,37.930035,3899.5715760000003,0.227,-7.349,0.019
6.3793,128.181318,37.930078,3899.0104392000003,0.229,-7.362,0.019
6.3961,128.181318,37.930122,3898.4477784000005,0.23,-7.376,0.019
6.4128,128.181318,37.930166,3897.8835936000005,0.231,-7.39,0.019
6.4295,128.181318,37.93021,3897.3178848000002,0.232,-7.403,0.019
6.4462,128.181318,37.930253,3896.7509568,0.233,-7.417,0.019
6.4628,128.181318,37.930297,3896.1825048,0.234,-7.43,0.02
6.4795,128.181318,37.930341,3895.6125288,0.235,-7.444,0.02
6.4963,128.181318,37.930384,3895.0413336,0.236,-7.457,0.02
6.513,128.181318,37.930428,3894.4683096000003,0.237,-7.471,0.02
6.5297,128.181318,37.930472,3893.8943712000005,0.238,-7.484,0.02
6.5464,128.181318,37.930516,3893.318604,0.239,-7.497,0.02
6.5631,128.181318,37.93056,3892.7416176,0.24,-7.511,0.02
6.5798,128.181318,37.930604,3892.1631072000005,0.242,-7.524,0.02
6.5965,128.181318,37.930647,3891.5830728,0.243,-7.537,0.02
6.6132,128.181318,37.930691,3891.0018192,0.244,-7.55,0.02
6.6299,128.181318,37.930735,3890.4190416000006,0.245,-7.563,0.02
6.6466,128.181318,37.930779,3889.8350448,0.246,-7.576,0.021
6.6633,128.181318,37.930823,3889.249524,0.247,-7.589,0.021
6.68,128.181319,37.930867,3888.6624792000002,0.248,-7.602,0.021
6.6967,128.181319,37.930911,3888.0742152,0.249,-7.615,0.021
6.7134,128.181319,37.930955,3887.4844272,0.25,-7.628,0.021
6.7301,128.181319,37.930999,3886.8931152,0.251,-7.641,0.021
6.7468,128.181319,37.931043,3886.300584,0.253,-7.654,0.021
6.7635,128.181319,37.931087,3885.7065288,0.254,-7.666,0.021
6.7802,128.181319,37.931131,3885.1112544000002,0.255,-7.679,0.021
6.7969,128.181319,37.931175,3884.514456,0.256,-7.692,0.021
6.8136,128.181319,37.931219,3883.9164384,0.257,-7.704,0.021
6.8303,128.181319,37.931263,3883.3165920000006,0.258,-7.717,0.022
6.847,128.181319,37.931308,3882.7158312,0.259,-7.73,0.022
6.8637,128.181319,37.931352,3882.1135464000004,0.26,-7.742,0.022
6.8804,128.181319,37.931396,3881.5097376,0.262,-7.755,0.022
6.8971,128.181319,37.93144,3880.9047096000004,0.263,-7.767,0.022
6.9138,128.181319,37.931484,3880.2981576,0.264,-7.779,0.022
6.9305,128.181319,37.931528,3879.6903864,0.265,-7.792,0.022
6.9472,128.181319,37.931573,3879.0810912,0.266,-7.804,0.022
6.9639,128.181319,37.931617,3878.4705768,0.267,-7.816,0.022
6.9806,128.181319,37.931661,3877.8585384000003,0.268,-7.829,0.022
6.9973,128.181319,37.931705,3877.2452808,0.27,-7.841,0.023
7.014,128.181319,37.93175,3876.6304992,0.271,-7.853,0.023
7.0307,128.181319,37.931794,3876.0144984000003,0.272,-7.865,0.023
7.0474,128.181319,37.931838,3875.3969736000004,0.273,-7.877,0.023
7.0641,128.181319,37.931883,3874.7782296,0.274,-7.889,0.023
7.0808,128.181319,37.931927,3874.1579616000004,0.275,-7.902,0.023
7.0975,128.181319,37.931971,3873.5364744,0.277,-7.914,0.023
7.1142,128.181319,37.932016,3872.9137680000003,0.278,-7.925,0.023
7.1309,128.18132,37.93206,3872.2895376,0.279,-7.937,0.023
7.1476,128.18132,37.932105,3871.6637832,0.28,-7.949,0.023
7.1643,128.18132,37.932149,3871.0371144000005,0.281,-7.961,0.023
7.181,128.18132,37.932194,3870.4089215999998,0.282,-7.973,0.024
7.1977,128.18132,37.932238,3869.7792048,0.284,-7.985,0.024
7.2144,128.18132,37.932283,3869.1482688000006,0.285,-7.996,0.024
7.2311,128.18132,37.932327,3868.5161136,0.286,-8.008,0.024
7.2478,128.18132,37.932372,3867.8824344000004,0.287,-8.02,0.024
7.2645,128.18132,37.932416,3867.2475360000003,0.288,-8.032,0.024
7.2812,128.18132,37.932461,3866.6114184000003,0.29,-8.043,0.024
7.2979,128.18132,37.932505,3865.9737768,0.291,-8.055,0.024
7.3146,128.18132,37.93255,3865.3349160000002,0.292,-8.066,0.024
7.3313,128.18132,37.932595,3864.694836,0.293,-8.078,0.025
7.348,128.18132,37.932639,3864.053232,0.294,-8.089,0.025
7.3647,128.18132,37.932684,3863.4104088,0.296,-8.101,0.025
7.3814,128.18132,37.932729,3862.7663664,0.297,-8.112,0.025
7.3981,128.18132,37.932773,3862.1208,0.298,-8.123,0.025
7.4148,128.18132,37.932818,3861.4740144,0.299,-8.135,0.025
7.4315,128.18132,37.932863,3860.8260096000004,0.3,-8.146,0.025
7.4482,128.18132,37.932908,3860.1764808,0.302,-8.157,0.025
7.4649,128.18132,37.932952,3859.5260376,0.303,-8.168,0.025
7.4816,128.18132,37.932997,3858.8740704,0.304,-8.18,0.025
7.4983,128.18132,37.933042,3858.2205792,0.305,-8.191,0.026
7.515,128.18132,37.933087,3857.5661736,0.306,-8.202,0.026
7.5317,128.18132,37.933132,3856.9102440000006,0.308,-8.213,0.026
7.5484,128.181321,37.933176,3856.2530952,0.309,-8.224,0.026
7.5651,128.181321,37.933221,3855.5947272000003,0.31,-8.235,0.026
7.5818,128.181321,37.933266,3854.93514,0.311,-8.246,0.026
7.5985,128.181321,37.933311,3854.2740288,0.313,-8.257,0.026
7.6152,128.181321,37.933356,3853.6116984000005,0.314,-8.268,0.026
7.6319,128.181321,37.933401,3852.9481488000006,0.315,-8.279,0.026
7.6486,128.181321,37.933446,3852.2833800000003,0.316,-8.29,0.027
7.6653,128.181321,37.933491,3851.6173920000006,0.318,-8.301,0.027
7.682,128.181321,37.933536,3850.94988,0.319,-8.311,0.027
7.6987,128.181321,37.933581,3850.2811488000007,0.32,-8.322,0.027
7.7154,128.181321,37.933626,3849.6111984000004,0.321,-8.333,0.027
7.7321,128.181321,37.933671,3848.9400288,0.323,-8.344,0.027
7.7488,128.181321,37.933716,3848.26764,0.324,-8.354,0.027
7.7655,128.181321,37.933761,3847.5940320000004,0.325,-8.365,0.027
7.7822,128.181321,37.933806,3846.9192048000004,0.326,-8.375,0.027
7.7989,128.181321,37.933851,3846.2428535999998,0.328,-8.386,0.028
7.8156,128.181321,37.933896,3845.565588,0.329,-8.396,0.028
7.8323,128.181321,37.933942,3844.8867984000003,0.33,-8.407,0.028
7.849,128.181321,37.933987,3844.2067896000003,0.332,-8.417,0.028
7.8657,128.181321,37.934032,3843.5255616000004,0.333,-8.428,0.028
7.8824,128.181321,37.934077,3842.8431144000006,0.334,-8.438,0.028
7.8991,128.181321,37.934122,3842.1594480000003,0.335,-8.449,0.028
7.9158,128.181321,37.934168,3841.4745624000007,0.337,-8.459,0.028
7.9325,128.181322,37.934213,3840.7884576000006,0.338,-8.469,0.028
7.9492,128.181322,37.934258,3840.1011336,0.339,-8.48,0.029
7.9659,128.181322,37.934303,3839.4125904,0.341,-8.49,0.029
7.9826,128.181322,37.934349,3838.7228280000004,0.342,-8.5,0.029
7.9993,128.181322,37.934394,3838.0318464000006,0.343,-8.51,0.029
8.016,128.181322,37.934439,3837.3393408,0.345,-8.52,0.029
8.0327,128.181322,37.934485,3836.6459208,0.346,-8.53,0.029
8.0494,128.181322,37.93453,3835.9512816,0.347,-8.54,0.029
8.0661,128.181322,37.934575,3835.2554232,0.349,-8.55,0.029
8.0828,128.181322,37.934621,3834.5583456000004,0.35,-8.56,0.029
8.0994,128.181322,37.934666,3833.8597440000003,0.351,-8.57,0.03
8.1161,128.181322,37.934712,3833.160228,0.353,-8.58,0.03
8.1329,128.181322,37.934757,3832.4594928,0.354,-8.59,0.03
8.1496,128.181322,37.934803,3831.7575384,0.355,-8.6,0.03
8.1663,128.181322,37.934848,3831.0543648,0.357,-8.61,0.03
8.183,128.181322,37.934893,3830.349972,0.358,-8.62,0.03
8.1997,128.181322,37.934939,3829.6443600000002,0.359,-8.63,0.03
8.2164,128.181322,37.934985,3828.9378336,0.361,-8.639,0.03
8.2331,128.181322,37.93503,3828.2297832,0.362,-8.649,0.031
8.2498,128.181322,37.935076,3827.5208184000003,0.363,-8.659,0.031
8.2665,128.181322,37.935121,3826.8103296000004,0.365,-8.668,0.031
8.2831,128.181323,37.935167,3826.0989264,0.366,-8.678,0.031
8.2998,128.181323,37.935212,3825.386304,0.367,-8.688,0.031
8.3166,128.181323,37.935258,3824.6724624000003,0.369,-8.697,0.031
8.3333,128.181323,37.935304,3823.9574016,0.37,-8.707,0.031
8.35,128.181323,37.935349,3823.2411216,0.371,-8.716,0.031
8.3667,128.181323,37.935395,3822.5236224,0.373,-8.726,0.032
8.3834,128.181323,37.935441,3821.8052088,0.374,-8.735,0.032
8.4001,128.181323,37.935487,3821.0852712000005,0.376,-8.745,0.032
8.4168,128.181323,37.935532,3820.3644192000006,0.377,-8.754,0.032
8.4335,128.181323,37.935578,3819.6423480000003,0.378,-8.763,0.032
8.4502,128.181323,37.935624,3818.9193624000004,0.38,-8.773,0.032
8.4668,128.181323,37.93567,3818.1948528000003,0.381,-8.782,0.032
8.4835,128.181323,37.935715,3817.4694288,0.382,-8.791,0.032
8.5003,128.181323,37.935761,3816.7427856,0.384,-8.801,0.033
8.517,128.181323,37.935807,3816.0149232000003,0.385,-8.81,0.033
8.5337,128.181323,37.935853,3815.2858416000004,0.387,-8.819,0.033
8.5504,128.181323,37.935899,3814.5558456000003,0.388,-8.828,0.033
8.5671,128.181323,37.935945,3813.8243256000005,0.389,-8.837,0.033
8.5838,128.181323,37.935991,3813.0921960000005,0.391,-8.846,0.033
8.6005,128.181324,37.936037,3812.3585424,0.392,-8.855,0.033
8.6172,128.181324,37.936082,3811.6236696,0.394,-8.864,0.033
8.6339,128.181324,37.936128,3810.8878824000003,0.395,-8.873,0.034
8.6505,128.181324,37.936174,3810.1511808,0.397,-8.882,0.034
8.6672,128.181324,37.93622,3809.4129552000004,0.398,-8.891,0.034
8.684,128.181324,37.936266,3808.6738152,0.399,-8.9,0.034
8.7007,128.181324,37.936312,3807.933456,0.401,-8.909,0.034
8.7174,128.181324,37.936358,3807.1918776,0.402,-8.918,0.034
8.7341,128.181324,37.936405,3806.4493848,0.404,-8.927,0.034
8.7508,128.181324,37.936451,3805.7056728000002,0.405,-8.935,0.035
8.7675,128.181324,37.936497,3804.9607416000003,0.407,-8.944,0.035
8.7842,128.181324,37.936543,3804.2148960000004,0.408,-8.953,0.035
8.8009,128.181324,37.936589,3803.4678312,0.409,-8.961,0.035
8.8176,128.181324,37.936635,3802.719852,0.411,-8.97,0.035
8.8342,128.181324,37.936681,3801.9703488000005,0.412,-8.979,0.035
8.8509,128.181324,37.936727,3801.220236,0.414,-8.987,0.035
8.8676,128.181324,37.936774,3800.4685992,0.415,-8.996,0.035
8.8844,128.181324,37.93682,3799.7160480000002,0.417,-9.004,0.036
8.9011,128.181325,37.936866,3798.9625824000004,0.418,-9.013,0.036
8.9178,128.181325,37.936912,3798.2075928,0.42,-9.021,0.036
8.9345,128.181325,37.936959,3797.4516888000003,0.421,-9.03,0.036
8.9512,128.181325,37.937005,3796.6948704,0.423,-9.038,0.036
8.9679,128.181325,37.937051,3795.9368328000005,0.424,-9.047,0.036
8.9846,128.181325,37.937097,3795.1778808,0.426,-9.055,0.036
9.0013,128.181325,37.937144,3794.4177096000003,0.427,-9.063,0.037
9.0179,128.181325,37.93719,3793.6563192000003,0.429,-9.072,0.037
9.0346,128.181325,37.937237,3792.8940144000003,0.43,-9.08,0.037
9.0513,128.181325,37.937283,3792.1304904,0.432,-9.088,0.037
9.0681,128.181325,37.937329,3791.3660520000003,0.433,-9.096,0.037
9.0848,128.181325,37.937376,3790.6003944,0.435,-9.104,0.037
9.1015,128.181325,37.937422,3789.8338224,0.436,-9.113,0.037
9.1182,128.181325,37.937469,3789.0660312,0.438,-9.121,0.038
9.1349,128.181325,37.937515,3788.2973256000005,0.439,-9.129,0.038
9.1516,128.181325,37.937562,3787.5274008000006,0.441,-9.137,0.038
9.1683,128.181325,37.937608,3786.7565616,0.442,-9.145,0.038
9.185,128.181326,37.937655,3785.9848079999997,0.444,-9.153,0.038
9.2016,128.181326,37.937701,3785.2118352000007,0.445,-9.161,0.038
9.2183,128.181326,37.937748,3784.4376432000004,0.447,-9.169,0.038
9.235,128.181326,37.937794,3783.6625368000005,0.448,-9.177,0.039
9.2518,128.181326,37.937841,3782.886516,0.45,-9.185,0.039
9.2685,128.181326,37.937887,3782.1092760000006,0.451,-9.193,0.039
9.2852,128.181326,37.937934,3781.3308168000003,0.453,-9.2,0.039
9.3019,128.181326,37.937981,3780.5517480000003,0.454,-9.208,0.039
9.3186,128.181326,37.938027,3779.7714600000004,0.456,-9.216,0.039
9.3353,128.181326,37.938074,3778.9899528000005,0.457,-9.224,0.039
9.352,128.181326,37.938121,3778.2075312,0.459,-9.231,0.04
9.3687,128.181326,37.938167,3777.4241952,0.46,-9.239,0.04
9.3854,128.181326,37.938214,3776.63964,0.462,-9.247,0.04
9.402,128.181326,37.938261,3775.8541704000004,0.464,-9.254,0.04
9.4187,128.181326,37.938308,3775.0677864000004,0.465,-9.262,0.04
9.4355,128.181326,37.938354,3774.2801832,0.467,-9.269,0.04
9.4522,128.181327,37.938401,3773.4916656,0.468,-9.277,0.041
9.4689,128.181327,37.938448,3772.7022336,0.47,-9.285,0.041
9.4856,128.181327,37.938495,3771.9115824000005,0.471,-9.292,0.041
9.5023,128.181327,37.938542,3771.1200168000005,0.473,-9.299,0.041
9.519,128.181327,37.938588,3770.3275368000004,0.475,-9.307,0.041
9.5357,128.181327,37.938635,3769.5338376,0.476,-9.314,0.041
9.5524,128.181327,37.938682,3768.739224,0.478,-9.322,0.041
9.5691,128.181327,37.938729,3767.9436960000003,0.479,-9.329,0.042
9.5857,128.181327,37.938776,3767.1469488000002,0.481,-9.336,0.042
9.6024,128.181327,37.938823,3766.3492872000006,0.483,-9.344,0.042
9.6192,128.181327,37.93887,3765.5507112,0.484,-9.351,0.042
9.6359,128.181327,37.938917,3764.7512208000003,0.486,-9.358,0.042
9.6526,128.181327,37.938964,3763.9505112,0.487,-9.365,0.042
9.6693,128.181327,37.939011,3763.1488872000004,0.489,-9.372,0.043
9.686,128.181327,37.939058,3762.3463488000007,0.491,-9.38,0.043
9.7027,128.181328,37.939105,3761.5428960000004,0.492,-9.387,0.043
9.7194,128.181328,37.939152,3760.738224,0.494,-9.394,0.043
9.7361,128.181328,37.939199,3759.9326376,0.495,-9.401,0.043
9.7528,128.181328,37.939246,3759.1261368000005,0.497,-9.408,0.043
9.7694,128.181328,37.939293,3758.3187216,0.499,-9.415,0.044
9.7861,128.181328,37.93934,3757.5103920000006,0.5,-9.422,0.044
9.8029,128.181328,37.939387,3756.7008432000002,0.502,-9.429,0.044
9.8196,128.181328,37.939435,3755.8906848,0.504,-9.436,0.044
9.8363,128.181328,37.939482,3755.0793072,0.505,-9.443,0.044
9.853,128.181328,37.939529,3754.2670152,0.507,-9.449,0.044
9.8697,128.181328,37.939576,3753.453504,0.509,-9.456,0.044
9.8864,128.181328,37.939623,3752.6393832,0.51,-9.463,0.045
9.9031,128.181328,37.939671,3751.824348,0.512,-9.47,0.045
9.9198,128.181328,37.939718,3751.0080936000004,0.514,-9.477,0.045
9.9365,128.181328,37.939765,3750.1909248,0.515,-9.483,0.045
9.9531,128.181329,37.939812,3749.3728416000004,0.517,-9.49,0.045
9.9698,128.181329,37.93986,3748.5538440000005,0.519,-9.497,0.045
9.9865,128.181329,37.939907,3747.733932,0.52,-9.503,0.046
10.0033,128.181329,37.939954,3746.9131056000006,0.522,-9.51,0.046
10.02,128.181329,37.940002,3746.0913648,0.524,-9.517,0.046
10.0367,128.181329,37.940049,3745.2684048,0.525,-9.523,0.046
10.0534,128.181329,37.940096,3744.4448352000004,0.527,-9.53,0.046
10.0701,128.181329,37.940144,3743.6203511999997,0.529,-9.536,0.047
10.0868,128.181329,37.940191,3742.794648,0.53,-9.543,0.047
10.1035,128.181329,37.940239,3741.9683352000006,0.532,-9.549,0.047
10.1202,128.181329,37.940286,3741.1408032000004,0.534,-9.555,0.047
10.1368,128.181329,37.940333,3740.3123568,0.535,-9.562,0.047
10.1535,128.181329,37.940381,3739.4833008000005,0.537,-9.568,0.047
10.1702,128.18133,37.940428,3738.6530256000005,0.539,-9.575,0.048
10.187,128.18133,37.940476,3737.821836,0.541,-9.581,0.048
10.2037,128.18133,37.940524,3736.9900368000003,0.542,-9.587,0.048
10.2204,128.18133,37.940571,3736.1570184,0.544,-9.593,0.048
10.2371,128.18133,37.940619,3735.3230856,0.546,-9.6,0.048
10.2538,128.18133,37.940666,3734.4885432,0.547,-9.606,0.048
10.2705,128.18133,37.940714,3733.6527816000003,0.549,-9.612,0.049
10.2872,128.18133,37.940761,3732.8164103999998,0.551,-9.618,0.049
10.3039,128.18133,37.940809,3731.9788200000003,0.553,-9.624,0.049
10.3205,128.18133,37.940857,3731.14062,0.554,-9.63,0.049
10.3372,128.18133,37.940904,3730.3012008000005,0.556,-9.636,0.049
10.3539,128.18133,37.940952,3729.461172,0.558,-9.642,0.05
10.3707,128.18133,37.941,3728.6202288,0.56,-9.649,0.05
10.3874,128.181331,37.941047,3727.7780664,0.561,-9.654,0.05
10.4041,128.181331,37.941095,3726.9352943999997,0.563,-9.66,0.05
10.4208,128.181331,37.941143,3726.0916079999997,0.565,-9.666,0.05
10.4375,128.181331,37.941191,3725.2470072,0.567,-9.672,0.05
10.4542,128.181331,37.941238,3724.4017968,0.568,-9.678,0.051
10.4709,128.181331,37.941286,3723.5553672,0.57,-9.684,0.051
10.4876,128.181331,37.941334,3722.708328,0.572,-9.69,0.051
10.5042,128.181331,37.941382,3721.8600696,0.574,-9.696,0.051
10.5209,128.181331,37.94143,3721.0112016,0.575,-9.701,0.051
10.5376,128.181331,37.941478,3720.1614192000006,0.577,-9.707,0.052
10.5544,128.181331,37.941525,3719.3107224,0.579,-9.713,0.052
10.5711,128.181331,37.941573,3718.4591112000003,0.581,-9.719,0.052
10.5878,128.181331,37.941621,3717.6068904,0.583,-9.724,0.052
10.6045,128.181332,37.941669,3716.7534504000005,0.584,-9.73,0.052
10.6212,128.181332,37.941717,3715.8994008000004,0.586,-9.735,0.052
10.6379,128.181332,37.941765,3715.0444368000003,0.588,-9.741,0.053
10.6546,128.181332,37.941813,3714.1885584,0.59,-9.747,0.053
10.6713,128.181332,37.941861,3713.3320704000002,0.592,-9.752,0.053
10.6879,128.181332,37.941909,3712.4743632,0.593,-9.758,0.053
10.7046,128.181332,37.941957,3711.6160464000004,0.595,-9.763,0.053
10.7213,128.181332,37.942005,3710.7568152,0.597,-9.769,0.054
10.7381,128.181332,37.942053,3709.8969744,0.599,-9.774,0.054
10.7548,128.181332,37.942101,3709.0359144000004,0.601,-9.779,0.054
10.7715,128.181332,37.942149,3708.1742448,0.603,-9.785,0.054
10.7882,128.181332,37.942197,3707.3116608,0.604,-9.79,0.054
10.8049,128.181333,37.942245,3706.4484672,0.606,-9.795,0.055
10.8216,128.181333,37.942294,3705.5840544000002,0.608,-9.801,0.055
10.8383,128.181333,37.942342,3704.7190320000004,0.61,-9.806,0.055
10.855,128.181333,37.94239,3703.8534,0.612,-9.811,0.055
10.8717,128.181333,37.942438,3702.9865488000005,0.614,-9.817,0.055
10.8883,128.181333,37.942486,3702.119088,0.616,-9.822,0.056
10.905,128.181333,37.942534,3701.2507128,0.617,-9.827,0.056
10.9218,128.181333,37.942583,3700.3817280000003,0.619,-9.832,0.056
10.9385,128.181333,37.942631,3699.5118288,0.621,-9.837,0.056
10.9552,128.181333,37.942679,3698.6410152,0.623,-9.843,0.056
10.9719,128.181333,37.942727,3697.7695920000006,0.625,-9.848,0.057
10.9886,128.181334,37.942776,3696.8972544000003,0.627,-9.853,0.057
11.0053,128.181334,37.942824,3696.0240024000004,0.629,-9.859,0.057
11.022,128.181334,37.942872,3695.1501408000004,0.63,-9.864,0.057
11.0387,128.181334,37.942921,3694.2753648,0.632,-9.869,0.057
11.0554,128.181334,37.942969,3693.3996744,0.634,-9.875,0.058
11.072,128.181334,37.943018,3692.5233744,0.636,-9.88,0.058
11.0887,128.181334,37.943066,3691.6461600000002,0.638,-9.885,0.058
11.1054,128.181334,37.943114,3690.768336,0.64,-9.89,0.058
11.1222,128.181334,37.943163,3689.8895976000003,0.642,-9.896,0.058
11.1389,128.181334,37.943211,3689.0099448,0.644,-9.901,0.059
11.1556,128.181334,37.94326,3688.1296824000005,0.646,-9.906,0.059
11.1723,128.181335,37.943308,3687.2485056000005,0.648,-9.912,0.059
11.189,128.181335,37.943357,3686.3667192000003,0.649,-9.917,0.059
11.2057,128.181335,37.943405,3685.4840184000004,0.651,-9.922,0.059
11.2224,128.181335,37.943454,3684.6004032000005,0.653,-9.928,0.06
11.2391,128.181335,37.943502,3683.7161784000004,0.655,-9.933,0.06
11.2557,128.181335,37.943551,3682.831344,0.657,-9.938,0.06
11.2724,128.181335,37.943599,3681.9455952000003,0.659,-9.944,0.06
11.2891,128.181335,37.943648,3681.0589320000004,0.661,-9.949,0.06
11.3059,128.181335,37.943696,3680.1713544,0.663,-9.954,0.061
11.3226,128.181335,37.943745,3679.283472,0.665,-9.959,0.061
11.3393,128.181335,37.943794,3678.3943704000003,0.667,-9.965,0.061
11.356,128.181336,37.943842,3677.5046592000003,0.669,-9.97,0.061
11.3727,128.181336,37.943891,3676.6143384,0.671,-9.975,0.061
11.3894,128.181336,37.94394,3675.7231032000004,0.672,-9.98,0.062
11.4061,128.181336,37.943988,3674.8309536,0.674,-9.986,0.062
11.4228,128.181336,37.944037,3673.9381943999997,0.676,-9.991,0.062
11.4394,128.181336,37.944086,3673.0448256000004,0.678,-9.996,0.062
11.4561,128.181336,37.944135,3672.1505424,0.68,-10.001,0.062
11.4728,128.181336,37.944183,3671.2553448,0.682,-10.007,0.063
11.4896,128.181336,37.944232,3670.3595376,0.684,-10.012,0.063
11.5063,128.181336,37.944281,3669.462816,0.686,-10.017,0.063
11.523,128.181337,37.94433,3668.5654848000004,0.688,-10.022,0.063
11.5397,128.181337,37.944379,3667.6672392000005,0.69,-10.027,0.064
11.5564,128.181337,37.944427,3666.768384,0.692,-10.032,0.064
11.5731,128.181337,37.944476,3665.8689192000006,0.694,-10.037,0.064
11.5898,128.181337,37.944525,3664.96854,0.696,-10.043,0.064
11.6065,128.181337,37.944574,3664.0672464000004,0.698,-10.048,0.064
11.6231,128.181337,37.944623,3663.1653432000003,0.7,-10.053,0.065
11.6398,128.181337,37.944672,3662.2625256,0.702,-10.058,0.065
11.6565,128.181337,37.944721,3661.3590984,0.704,-10.063,0.065
11.6733,128.181337,37.94477,3660.4550616,0.706,-10.068,0.065
11.69,128.181338,37.944819,3659.5501104,0.708,-10.073,0.065
11.7067,128.181338,37.944868,3658.6445496,0.71,-10.078,0.066
11.7234,128.181338,37.944917,3657.7380744,0.712,-10.083,0.066
11.7401,128.181338,37.944966,3656.8306848,0.714,-10.088,0.066
11.7568,128.181338,37.945015,3655.9229904,0.716,-10.093,0.066
11.7735,128.181338,37.945064,3655.0140768,0.718,-10.098,0.066
11.7902,128.181338,37.945113,3654.1048584,0.72,-10.103,0.067
11.8068,128.181338,37.945162,3653.1944208000004,0.722,-10.108,0.067
11.8235,128.181338,37.945211,3652.2836784000006,0.724,-10.113,0.067
11.8402,128.181338,37.94526,3651.3720215999997,0.726,-10.118,0.067
11.857,128.181339,37.945309,3650.4594504,0.728,-10.123,0.068
11.8737,128.181339,37.945358,3649.5462696,0.73,-10.128,0.068
11.8904,128.181339,37.945407,3648.6324792,0.732,-10.133,0.068
11.9071,128.181339,37.945457,3647.7177744,0.734,-10.138,0.068
11.9238,128.181339,37.945506,3646.8024600000003,0.736,-10.143,0.068
11.9405,128.181339,37.945555,3645.886536,0.738,-10.148,0.069
11.9572,128.181339,37.945604,3644.9696976,0.74,-10.153,0.069
11.9739,128.181339,37.945653,3644.0519448,0.742,-10.158,0.069
11.9905,128.181339,37.945703,3643.1335824000003,0.744,-10.163,0.069
12.0072,128.18134,37.945752,3642.2146104,0.746,-10.167,0.07
12.0239,128.18134,37.945801,3641.2950288,0.748,-10.172,0.07
12.0407,128.18134,37.945851,3640.3745328000005,0.75,-10.177,0.07
12.0574,128.18134,37.9459,3639.4531224,0.752,-10.182,0.07
12.0741,128.18134,37.945949,3638.5311024000002,0.754,-10.187,0.07
12.0908,128.18134,37.945999,3637.6084728,0.756,-10.192,0.071
12.1075,128.18134,37.946048,3636.6852336,0.758,-10.196,0.071
12.1242,128.18134,37.946097,3635.76108,0.76,-10.201,0.071
12.1409,128.18134,37.946147,3634.836012,0.762,-10.206,0.071
12.1576,128.181341,37.946196,3633.9106392000003,0.765,-10.211,0.071
12.1743,128.181341,37.946245,3632.9840472,0.767,-10.215,0.072
12.1909,128.181341,37.946295,3632.0571504000004,0.769,-10.22,0.072
12.2076,128.181341,37.946344,3631.1293392000002,0.771,-10.225,0.072
12.2243,128.181341,37.946394,3630.2009184000003,0.773,-10.23,0.072
12.2411,128.181341,37.946443,3629.2715832,0.775,-10.234,0.073
12.2578,128.181341,37.946493,3628.3416384,0.777,-10.239,0.073
12.2745,128.181341,37.946542,3627.4110840000003,0.779,-10.244,0.073
12.2912,128.181341,37.946592,3626.47992,0.781,-10.248,0.073
12.3079,128.181342,37.946641,3625.5478416000005,0.783,-10.253,0.074
12.3246,128.181342,37.946691,3624.6148488000003,0.785,-10.258,0.074
12.3413,128.181342,37.946741,3623.6815512,0.787,-10.262,0.074
12.358,128.181342,37.94679,3622.7473392,0.789,-10.267,0.074
12.3746,128.181342,37.94684,3621.8122128,0.792,-10.272,0.074
12.3913,128.181342,37.946889,3620.8767816,0.794,-10.276,0.075
12.408,128.181342,37.946939,3619.9404360000003,0.796,-10.281,0.075
12.4248,128.181342,37.946989,3619.0031760000006,0.798,-10.285,0.075
12.4415,128.181343,37.947038,3618.0656112,0.8,-10.29,0.075
12.4582,128.181343,37.947088,3617.127132,0.802,-10.295,0.076
12.4749,128.181343,37.947138,3616.1880432000003,0.804,-10.299,0.076
12.4916,128.181343,37.947187,3615.24804,0.806,-10.304,0.076
12.5083,128.181343,37.947237,3614.3074272000003,0.808,-10.308,0.076
12.525,128.181343,37.947287,3613.3662048,0.811,-10.313,0.076
12.5417,128.181343,37.947337,3612.4240680000003,0.813,-10.317,0.077
12.5583,128.181343,37.947386,3611.4816264,0.815,-10.322,0.077
12.575,128.181343,37.947436,3610.5382704000003,0.817,-10.326,0.077
12.5917,128.181344,37.947486,3609.594,0.819,-10.331,0.077
12.6085,128.181344,37.947536,3608.6494248,0.821,-10.335,0.078
12.6252,128.181344,37.947586,3607.7039352000006,0.823,-10.34,0.078
12.6419,128.181344,37.947635,3606.7575312,0.826,-10.344,0.078
12.6586,128.181344,37.947685,3605.8108224000002,0.828,-10.349,0.078
12.6753,128.181344,37.947735,3604.8631992,0.83,-10.353,0.079
12.692,128.181344,37.947785,3603.9149664,0.832,-10.357,0.079
12.7087,128.181344,37.947835,3602.966124,0.834,-10.362,0.079
12.7254,128.181345,37.947885,3602.0163672,0.836,-10.366,0.079
12.742,128.181345,37.947935,3601.0660008000004,0.839,-10.371,0.08
12.7587,128.181345,37.947985,3600.1150248000004,0.841,-10.375,0.08
12.7754,128.181345,37.948035,3599.1634392000005,0.843,-10.379,0.08
12.7922,128.181345,37.948085,3598.2109392,0.845,-10.384,0.08
12.8089,128.181345,37.948135,3597.2578296,0.847,-10.388,0.08
12.8256,128.181345,37.948185,3596.3041104,0.849,-10.392,0.081
12.8423,128.181345,37.948235,3595.3497816,0.852,-10.397,0.081
12.859,128.181346,37.948285,3594.3945384000003,0.854,-10.401,0.081
12.8757,128.181346,37.948335,3593.4386856,0.856,-10.405,0.081
12.8924,128.181346,37.948385,3592.4822232,0.858,-10.41,0.082
12.9091,128.181346,37.948435,3591.5251512,0.86,-10.414,0.082
12.9257,128.181346,37.948485,3590.5671648,0.862,-10.418,0.082
12.9424,128.181346,37.948535,3589.6088736000006,0.865,-10.422,0.082
12.9591,128.181346,37.948586,3588.649668,0.867,-10.427,0.083
12.9759,128.181346,37.948636,3587.6895480000003,0.869,-10.431,0.083
12.9926,128.181347,37.948686,3586.7291232000002,0.871,-10.435,0.083
13.0093,128.181347,37.948736,3585.767784,0.874,-10.439,0.083
13.026,128.181347,37.948786,3584.8058352000003,0.876,-10.444,0.084
13.0427,128.181347,37.948836,3583.8432768000002,0.878,-10.448,0.084
13.0594,128.181347,37.948887,3582.8801088,0.88,-10.452,0.084
13.0761,128.181347,37.948937,3581.9163312,0.882,-10.456,0.084
13.0928,128.181347,37.948987,3580.9516392000005,0.885,-10.46,0.085
13.1095,128.181348,37.949037,3579.9863376,0.887,-10.464,0.085
13.1262,128.181348,37.949088,3579.0204264,0.889,-10.469,0.085
13.1429,128.181348,37.949138,3578.0539056000002,0.891,-10.473,0.085
13.1596,128.181348,37.949188,3577.0867752000004,0.894,-10.477,0.086
13.1763,128.181348,37.949239,3576.1187304000005,0.896,-10.481,0.086
13.193,128.181348,37.949289,3575.1500760000004,0.898,-10.485,0.086
13.2097,128.181348,37.949339,3574.1808120000005,0.9,-10.489,0.086
13.2264,128.181349,37.94939,3573.2109384,0.902,-10.493,0.087
13.2431,128.181349,37.94944,3572.2404552000003,0.905,-10.497,0.087
13.2598,128.181349,37.949491,3571.2690576000005,0.907,-10.501,0.087
13.2765,128.181349,37.949541,3570.2973552000003,0.909,-10.505,0.087
13.2932,128.181349,37.949591,3569.3247384,0.911,-10.509,0.088
13.3099,128.181349,37.949642,3568.351512,0.914,-10.513,0.088
13.3266,128.181349,37.949692,3567.3776760000005,0.916,-10.518,0.088
13.3433,128.181349,37.949743,3566.4032304,0.918,-10.522,0.088
13.36,128.18135,37.949793,3565.4278704000003,0.921,-10.526,0.089
13.3767,128.18135,37.949844,3564.4522056000005,0.923,-10.53,0.089
13.3934,128.18135,37.949894,3563.4756264,0.925,-10.534,0.089
13.4101,128.18135,37.949945,3562.4987424,0.927,-10.538,0.089
13.4268,128.18135,37.949995,3561.5209440000003,0.93,-10.541,0.09
13.4435,128.18135,37.950046,3560.542536,0.932,-10.545,0.09
13.4602,128.18135,37.950097,3559.5632136000004,0.934,-10.549,0.09
13.4769,128.181351,37.950147,3558.5835864,0.937,-10.553,0.09
13.4936,128.181351,37.950198,3557.6033496,0.939,-10.557,0.091
13.5103,128.181351,37.950248,3556.6221984000003,0.941,-10.561,0.091
13.527,128.181351,37.950299,3555.6404376,0.943,-10.565,0.091
13.5437,128.181351,37.95035,3554.658372,0.946,-10.569,0.091
13.5604,128.181351,37.9504,3553.6753920000006,0.948,-10.573,0.092
13.5771,128.181351,37.950451,3552.6918024,0.95,-10.577,0.092
13.5938,128.181352,37.950502,3551.7076032000004,0.953,-10.581,0.092
13.6105,128.181352,37.950552,3550.7227944,0.955,-10.584,0.092
13.6272,128.181352,37.950603,3549.7370712,0.957,-10.588,0.093
13.6439,128.181352,37.950654,3548.7510432000004,0.96,-10.592,0.093
13.6606,128.181352,37.950705,3547.7644056000004,0.962,-10.596,0.093
13.6773,128.181352,37.950755,3546.7768536,0.964,-10.6,0.093
13.694,128.181353,37.950806,3545.7886920000005,0.967,-10.604,0.094
13.7107,128.181353,37.950857,3544.8002256000004,0.969,-10.607,0.094
13.7274,128.181353,37.950908,3543.8108448,0.971,-10.611,0.094
13.7441,128.181353,37.950959,3542.8208544,0.974,-10.615,0.095
13.7608,128.181353,37.95101,3541.8302544000003,0.976,-10.619,0.095
13.7775,128.181353,37.95106,3540.8390448,0.978,-10.622,0.095
13.7942,128.181353,37.951111,3539.8472256000005,0.981,-10.626,0.095
13.8109,128.181354,37.951162,3538.8547968,0.983,-10.63,0.096
13.8276,128.181354,37.951213,3537.8617584,0.985,-10.634,0.096
13.8443,128.181354,37.951264,3536.8681103999998,0.988,-10.637,0.096
13.861,128.181354,37.951315,3535.873548,0.99,-10.641,0.096
13.8777,128.181354,37.951366,3534.8786808,0.992,-10.645,0.097
13.8944,128.181354,37.951417,3533.883204,0.995,-10.649,0.097
13.9111,128.181354,37.951468,3532.8868128,0.997,-10.652,0.097
13.9278,128.181355,37.951519,3531.8901168,0.999,-10.656,0.097
13.9445,128.181355,37.95157,3530.8925064,1.002,-10.66,0.098
13.9612,128.181355,37.951621,3529.8945912000004,1.004,-10.663,0.098
13.9779,128.181355,37.951672,3528.8957616000002,1.007,-10.667,0.098
13.9946,128.181355,37.951723,3527.8966272000002,1.009,-10.671,0.099
14.0113,128.181355,37.951774,3526.8965784000006,1.011,-10.674,0.099
14.028,128.181356,37.951825,3525.89592,1.014,-10.678,0.099
14.0447,128.181356,37.951876,3524.8949568000003,1.016,-10.681,0.099
14.0614,128.181356,37.951927,3523.8930792,1.018,-10.685,0.1
14.0781,128.181356,37.951978,3522.8905920000007,1.021,-10.689,0.1
14.0948,128.181356,37.952029,3521.8878,1.023,-10.692,0.1
14.1115,128.181356,37.952081,3520.8840936,1.026,-10.696,0.1
14.1282,128.181357,37.952132,3519.8797776,1.028,-10.699,0.101
14.1449,128.181357,37.952183,3518.8751568000002,1.03,-10.703,0.101
14.1616,128.181357,37.952234,3517.8696216,1.033,-10.706,0.101
14.1783,128.181357,37.952285,3516.8637816,1.035,-10.71,0.102
14.195,128.181357,37.952337,3515.8570272,1.038,-10.713,0.102
14.2117,128.181357,37.952388,3514.8496632,1.04,-10.717,0.102
14.2284,128.181357,37.952439,3513.8419943999997,1.043,-10.72,0.102
14.2451,128.181358,37.95249,3512.8334112000002,1.045,-10.724,0.103
14.2618,128.181358,37.952542,3511.8242184,1.047,-10.727,0.103
14.2785,128.181358,37.952593,3510.8147208000005,1.05,-10.731,0.103
14.2952,128.181358,37.952644,3509.8043088,1.052,-10.734,0.103
14.3119,128.181358,37.952696,3508.7935920000004,1.055,-10.738,0.104
14.3286,128.181358,37.952747,3507.7822656000003,1.057,-10.741,0.104
14.3453,128.181359,37.952798,3506.7700248,1.06,-10.745,0.104
14.362,128.181359,37.95285,3505.7574792,1.062,-10.748,0.105
14.3787,128.181359,37.952901,3504.7440192000004,1.064,-10.752,0.105
14.3954,128.181359,37.952952,3503.7302544,1.067,-10.755,0.105
14.4121,128.181359,37.953004,3502.71588,1.069,-10.758,0.105
14.4288,128.181359,37.953055,3501.7008960000003,1.072,-10.762,0.106
14.4455,128.18136,37.953107,3500.6853024,1.074,-10.765,0.106
14.4622,128.18136,37.953158,3499.6690992,1.077,-10.769,0.106
14.4789,128.18136,37.953209,3498.6522864000003,1.079,-10.772,0.107
14.4956,128.18136,37.953261,3497.634864,1.082,-10.775,0.107
14.5123,128.18136,37.953312,3496.616832,1.084,-10.779,0.107
14.529,128.18136,37.953364,3495.5981904,1.087,-10.782,0.107
14.5457,128.181361,37.953415,3494.5792440000005,1.089,-10.785,0.108
14.5624,128.181361,37.953467,3493.5593832,1.091,-10.789,0.108
14.5791,128.181361,37.953519,3492.5389128,1.094,-10.792,0.108
14.5958,128.181361,37.95357,3491.5181376,1.096,-10.795,0.109
14.6125,128.181361,37.953622,3490.4967528,1.099,-10.799,0.109
14.6292,128.181362,37.953673,3489.4744536,1.101,-10.802,0.109
14.6459,128.181362,37.953725,3488.4518496,1.104,-10.805,0.109
14.6626,128.181362,37.953776,3487.428636,1.106,-10.808,0.11
14.6793,128.181362,37.953828,3486.4048128,1.109,-10.812,0.11
14.696,128.181362,37.95388,3485.38038,1.111,-10.815,0.11
14.7127,128.181362,37.953931,3484.3556424,1.114,-10.818,0.111
14.7294,128.181363,37.953983,3483.3299904,1.116,-10.821,0.111
14.7461,128.181363,37.954035,3482.3037288,1.119,-10.825,0.111
14.7628,128.181363,37.954086,3481.2771624000006,1.121,-10.828,0.111
14.7795,128.181363,37.954138,3480.2499864,1.124,-10.831,0.112
14.7962,128.181363,37.95419,3479.2218960000005,1.126,-10.834,0.112
14.8129,128.181363,37.954242,3478.1935008000005,1.129,-10.838,0.112
14.8296,128.181364,37.954293,3477.1648008,1.131,-10.841,0.113
14.8463,128.181364,37.954345,3476.1351864000003,1.134,-10.844,0.113
14.863,128.181364,37.954397,3475.1049624,1.137,-10.847,0.113
14.8797,128.181364,37.954449,3474.0744336000002,1.139,-10.85,0.114
14.8964,128.181364,37.9545,3473.0429904000002,1.142,-10.853,0.114
14.9131,128.181365,37.954552,3472.0112424,1.144,-10.857,0.114
14.9298,128.181365,37.954604,3470.9788848000003,1.147,-10.86,0.114
14.9465,128.181365,37.954656,3469.9459176,1.149,-10.863,0.115
14.9632,128.181365,37.954708,3468.9123408,1.152,-10.866,0.115
14.9799,128.181365,37.95476,3467.8784592,1.154,-10.869,0.115
14.9966,128.181365,37.954812,3466.8436632000003,1.157,-10.872,0.116
15.0133,128.181366,37.954864,3465.8085624000005,1.159,-10.875,0.116
15.03,128.181366,37.954915,3464.772852,1.162,-10.878,0.116
15.0467,128.181366,37.954967,3463.7365320000004,1.165,-10.881,0.117
15.0634,128.181366,37.955019,3462.6996024,1.167,-10.884,0.117
15.0801,128.181366,37.955071,3461.6620632,1.17,-10.887,0.117
15.0968,128.181367,37.955123,3460.6242192000004,1.172,-10.891,0.117
15.1135,128.181367,37.955175,3459.5857656000003,1.175,-10.894,0.118
15.1302,128.181367,37.955227,3458.5467024000004,1.177,-10.897,0.118
15.1469,128.181367,37.955279,3457.5070296000004,1.18,-10.9,0.118
15.1636,128.181367,37.955331,3456.4667472,1.183,-10.903,0.119
15.1803,128.181368,37.955383,3455.4258552,1.185,-10.906,0.119
15.197,128.181368,37.955435,3454.3846584,1.188,-10.909,0.119
15.2137,128.181368,37.955487,3453.342852,1.19,-10.912,0.12
15.2304,128.181368,37.955539,3452.300436,1.193,-10.915,0.12
15.2471,128.181368,37.955592,3451.2574104,1.195,-10.918,0.12
15.2638,128.181369,37.955644,3450.21408,1.198,-10.921,0.121
15.2805,128.181369,37.955696,3449.17014,1.201,-10.923,0.121
15.2972,128.181369,37.955748,3448.1255904,1.203,-10.926,0.121
15.3139,128.181369,37.9558,3447.0804312,1.206,-10.929,0.121
15.3306,128.181369,37.955852,3446.0346624000003,1.208,-10.932,0.122
15.3473,128.181369,37.955904,3444.9885888000003,1.211,-10.935,0.122
15.364,128.18137,37.955957,3443.9419056000006,1.214,-10.938,0.122
15.3807,128.18137,37.956009,3442.8946128,1.216,-10.941,0.123
15.3974,128.18137,37.956061,3441.8467104,1.219,-10.944,0.123
15.4141,128.18137,37.956113,3440.7981984000003,1.222,-10.947,0.123
15.4308,128.18137,37.956165,3439.7493816,1.224,-10.95,0.124
15.4475,128.181371,37.956218,3438.6999552,1.227,-10.953,0.124
15.4642,128.181371,37.95627,3437.6499192000006,1.229,-10.955,0.124
15.4809,128.181371,37.956322,3436.5995784000006,1.232,-10.958,0.125
15.4976,128.181371,37.956375,3435.5486280000005,1.235,-10.961,0.125
15.5143,128.181371,37.956427,3434.497068,1.237,-10.964,0.125
15.531,128.181372,37.956479,3433.4448984000005,1.24,-10.967,0.126
15.5477,128.181372,37.956532,3432.3921192000003,1.243,-10.97,0.126
15.5644,128.181372,37.956584,3431.3390352000006,1.245,-10.972,0.126
15.5811,128.181372,37.956636,3430.2853416000003,1.248,-10.975,0.126
15.5978,128.181372,37.956689,3429.2310384,1.251,-10.978,0.127
15.6145,128.181373,37.956741,3428.1764304000003,1.253,-10.981,0.127
15.6312,128.181373,37.956793,3427.1212128,1.256,-10.984,0.127
15.6479,128.181373,37.956846,3426.0653856,1.259,-10.986,0.128
15.6646,128.181373,37.956898,3425.0089488000003,1.261,-10.989,0.128
15.6813,128.181374,37.956951,3423.9522072000004,1.264,-10.992,0.128
15.698,128.181374,37.957003,3422.894856,1.267,-10.995,0.129
15.7147,128.181374,37.957056,3421.8368952,1.269,-10.997,0.129
15.7314,128.181374,37.957108,3420.7786296000004,1.272,-11.0,0.129
15.7481,128.181374,37.957161,3419.7197544,1.275,-11.003,0.13
15.7648,128.181375,37.957213,3418.6602696,1.277,-11.006,0.13
15.7815,128.181375,37.957266,3417.6001752,1.28,-11.008,0.13
15.7982,128.181375,37.957318,3416.5397760000005,1.283,-11.011,0.131
15.8149,128.181375,37.957371,3415.4787671999998,1.285,-11.014,0.131
15.8316,128.181375,37.957423,3414.4174536,1.288,-11.016,0.131
15.8483,128.181376,37.957476,3413.3552256000003,1.291,-11.019,0.132
15.865,128.181376,37.957528,3412.2926928,1.293,-11.022,0.132
15.8817,128.181376,37.957581,3411.2298552,1.296,-11.024,0.132
15.8984,128.181376,37.957634,3410.1661032,1.299,-11.027,0.133
15.9151,128.181376,37.957686,3409.1020464000003,1.301,-11.03,0.133
15.9318,128.181377,37.957739,3408.03738,1.304,-11.032,0.133
15.9485,128.181377,37.957792,3406.9724088000003,1.307,-11.035,0.134
15.9652,128.181377,37.957844,3405.906828,1.31,-11.038,0.134
15.9819,128.181377,37.957897,3404.8406376,1.312,-11.04,0.134
15.9986,128.181378,37.95795,3403.7741424,1.315,-11.043,0.135
