Time,Longitude,Latitude,Altitude,Roll (deg),Pitch (deg),Yaw (deg)
0.0,128.181881,37.927966,7000.1797512,0.0,-0.003,179.999
0.0167,128.181881,37.927921,7000.1611584,0.0,-0.012,180.0
0.0334,128.181881,37.927876,7000.1416512000005,0.0,-0.025,180.0
0.0501,128.181881,37.927831,7000.1215344,0.0,-0.04,180.0
0.0668,128.181881,37.927786,7000.1005032,0.0,-0.057,180.0
0.0834,128.181881,37.927741,7000.0782528,0.0,-0.075,180.0
0.1002,128.181881,37.927696,7000.055392800001,0.0,-0.094,180.0
0.1169,128.181881,37.927651,7000.0316184,0.0,-0.112,180.0
0.1336,128.181881,37.927606,7000.0069296,0.001,-0.131,180.0
0.1503,128.181881,37.927562,6999.9810216000005,0.001,-0.149,180.0
0.1669,128.181881,37.927517,6999.954504,0.001,-0.167,180.0
0.1837,128.181881,37.927472,6999.927072,0.002,-0.185,180.0
0.2004,128.181881,37.927427,6999.8984208,0.002,-0.203,180.0
0.2171,128.181881,37.927382,6999.8688552,0.003,-0.22,180.0
0.2338,128.181881,37.927337,6999.83868,0.003,-0.237,180.0
0.2505,128.181881,37.927292,6999.8069808,0.004,-0.254,180.0
0.2672,128.181881,37.927247,6999.7746720000005,0.004,-0.271,180.0
0.2839,128.181881,37.927202,6999.7414488,0.005,-0.287,180.0
0.3006,128.181881,37.927158,6999.707006400001,0.005,-0.304,180.0
0.3172,128.181881,37.927113,6999.6716496,0.006,-0.32,180.0
0.3339,128.181881,37.927068,6999.6350736,0.007,-0.335,180.0
0.3507,128.181881,37.927023,6999.5975832,0.008,-0.351,180.0
0.3674,128.181881,37.926978,6999.559178400001,0.009,-0.366,180.0
0.3841,128.181881,37.926933,6999.519859200001,0.01,-0.381,180.0
0.4008,128.181881,37.926888,6999.4793208,0.011,-0.396,180.0
0.4175,128.181881,37.926844,6999.437868,0.012,-0.411,180.001
0.4342,128.181881,37.926799,6999.395196,0.014,-0.426,180.001
0.4509,128.181881,37.926754,6999.3516096,0.015,-0.441,180.001
0.4676,128.181881,37.926709,6999.306804,0.017,-0.455,180.001
0.4843,128.181881,37.926664,6999.261084000001,0.019,-0.469,180.001
0.501,128.181881,37.92662,6999.2144496,0.02,-0.484,180.001
0.5176,128.181881,37.926575,6999.166596000001,0.023,-0.498,180.001
0.5344,128.181881,37.92653,6999.117828,0.025,-0.512,180.001
0.5511,128.181881,37.926485,6999.0678408,0.027,-0.526,180.001
0.5678,128.181881,37.926441,6999.0169392,0.03,-0.54,180.002
0.5845,128.181881,37.926396,6998.964818400001,0.033,-0.553,180.002
0.6012,128.181881,37.926351,6998.911783200001,0.036,-0.567,180.002
0.6179,128.181881,37.926306,6998.857528800001,0.039,-0.581,180.002
0.6345,128.181881,37.926262,6998.802055200001,0.043,-0.594,180.002
0.6513,128.181881,37.926217,6998.7456672,0.047,-0.608,180.003
0.6679,128.181881,37.926172,6998.6883648,0.051,-0.621,180.003
0.6847,128.181881,37.926127,6998.629843199999,0.056,-0.635,180.003
0.7014,128.181881,37.926083,6998.5701024,0.061,-0.648,180.004
0.7181,128.181881,37.926038,6998.509447200001,0.067,-0.662,180.004
0.7348,128.181881,37.925993,6998.447572800001,0.073,-0.675,180.004
0.7514,128.181881,37.925949,6998.384784000001,0.079,-0.688,180.005
0.7682,128.181881,37.925904,6998.3207760000005,0.086,-0.702,180.005
0.7848,128.181881,37.925859,6998.2555488,0.094,-0.715,180.006
0.8016,128.181881,37.925815,6998.1894072,0.102,-0.728,180.006
0.8183,128.181881,37.92577,6998.122046400001,0.112,-0.741,180.007
0.835,128.181881,37.925726,6998.0534664,0.121,-0.755,180.007
0.8517,128.181881,37.925681,6997.983972,0.132,-0.768,180.008
0.8684,128.181881,37.925636,6997.9132584,0.144,-0.781,180.008
0.8851,128.181881,37.925592,6997.8416304,0.156,-0.794,180.009
0.9018,128.181881,37.925547,6997.7684784,0.17,-0.808,180.01
0.9185,128.181881,37.925503,6997.694412,0.185,-0.821,180.011
0.9352,128.181881,37.925458,6997.6191264,0.201,-0.834,180.012
0.9519,128.181881,37.925414,6997.5426216000005,0.218,-0.847,180.013
0.9686,128.181881,37.925369,6997.4652024,0.237,-0.861,180.014
0.9853,128.181881,37.925325,6997.3862592000005,0.258,-0.874,180.015
1.002,128.181881,37.92528,6997.306401600001,0.28,-0.887,180.016
1.0187,128.181881,37.925235,6997.225324800001,0.304,-0.901,180.018
1.0353,128.181881,37.925191,6997.143028800001,0.33,-0.914,180.019
1.0521,128.181881,37.925147,6997.0595136,0.359,-0.927,180.021
1.0688,128.181881,37.925102,6996.974779200001,0.389,-0.941,180.022
1.0855,128.181881,37.925058,6996.8888256,0.423,-0.954,180.024
1.1022,128.181881,37.925013,6996.8016528,0.459,-0.968,180.026
1.1189,128.181881,37.924969,6996.713260800001,0.498,-0.981,180.029
1.1356,128.181881,37.924924,6996.6233448,0.541,-0.995,180.031
1.1522,128.181881,37.92488,6996.532514400001,0.587,-1.009,180.034
1.169,128.181881,37.924835,6996.440160000001,0.638,-1.022,180.036
1.1857,128.181881,37.924791,6996.3465864,0.692,-1.036,180.04
1.2024,128.181881,37.924746,6996.2514888,0.751,-1.05,180.043
1.2191,128.181881,37.924702,6996.155172,0.815,-1.064,180.046
1.2358,128.181881,37.924658,6996.0576360000005,0.885,-1.078,180.05
1.2525,128.181881,37.924613,6995.958576,0.96,-1.092,180.055
1.2691,128.18188,37.924569,6995.857992,1.042,-1.106,180.059
1.2859,128.18188,37.924525,6995.755884000001,1.131,-1.12,180.064
1.3026,128.18188,37.92448,6995.652556800001,1.227,-1.135,180.07
1.3193,128.18188,37.924436,6995.5474008,1.331,-1.149,180.075
1.3359,128.18188,37.924391,6995.4410256,1.444,-1.164,180.082
1.3527,128.18188,37.924347,6995.3328216,1.567,-1.179,180.089
1.3694,128.18188,37.924303,6995.2227888,1.7,-1.194,180.096
1.386,128.18188,37.924258,6995.111232,1.845,-1.209,180.104
1.4028,128.18188,37.924214,6994.9981512,2.001,-1.224,180.113
1.4195,128.18188,37.92417,6994.882936800001,2.171,-1.24,180.122
1.4362,128.18188,37.924126,6994.7661984,2.356,-1.256,180.132
1.4528,128.18188,37.924081,6994.6470216,2.557,-1.272,180.142
1.4696,128.18188,37.924037,6994.5263208,2.776,-1.288,180.153
1.4863,128.18188,37.923993,6994.4034864000005,3.015,-1.304,180.164
1.5029,128.18188,37.923948,6994.2782136000005,3.274,-1.321,180.175
1.5197,128.18188,37.923904,6994.1508072,3.555,-1.339,180.186
1.5364,128.18188,37.92386,6994.0212672,3.862,-1.356,180.198
1.5531,128.18188,37.923816,6993.888984000001,4.195,-1.374,180.21
1.5697,128.18188,37.923771,6993.7542624,4.556,-1.393,180.223
1.5865,128.18188,37.923727,6993.6171024,4.95,-1.412,180.236
1.6032,128.18188,37.923683,6993.4768944,5.377,-1.431,180.25
1.6198,128.18188,37.923639,6993.333638400001,5.841,-1.451,180.264
1.6366,128.18188,37.923594,6993.1873344,6.346,-1.472,180.279
1.6533,128.18188,37.92355,6993.0376776,6.894,-1.494,180.294
1.67,128.18188,37.923506,6992.886192000001,7.418,-1.515,180.305
1.6867,128.18188,37.923462,6992.7328776,7.914,-1.536,180.311
1.7034,128.18188,37.923418,6992.5777344,8.389,-1.557,180.314
1.7201,128.18188,37.923373,6992.421372,8.845,-1.578,180.316
1.7368,128.18188,37.923329,6992.2644,9.288,-1.6,180.318
1.7535,128.18188,37.923285,6992.105904,9.722,-1.621,180.321
1.7702,128.18188,37.923241,6991.945579200001,10.152,-1.643,180.325
1.7869,128.18188,37.923197,6991.7834256,10.582,-1.665,180.33
1.8036,128.18188,37.923152,6991.619748,11.015,-1.688,180.336
1.8203,128.18188,37.923108,6991.4542416,11.455,-1.711,180.343
1.837,128.18188,37.923064,6991.286601600001,11.904,-1.734,180.35
1.8537,128.18188,37.92302,6991.116828,12.365,-1.758,180.359
1.8704,128.18188,37.922976,6990.9452255999995,12.838,-1.781,180.367
1.8871,128.18188,37.922932,6990.7711848,13.327,-1.806,180.376
1.9038,128.18188,37.922888,6990.5950104,13.831,-1.83,180.386
1.9205,128.18188,37.922844,6990.4167024,14.353,-1.855,180.395
1.9372,128.18188,37.922799,6990.235956,14.893,-1.88,180.405
1.9539,128.181879,37.922755,6990.053076,15.453,-1.905,180.415
1.9706,128.181879,37.922711,6989.8674528,16.033,-1.931,180.425
1.9873,128.181879,37.922667,6989.6793912,16.634,-1.958,180.436
2.004,128.181879,37.922623,6989.488891200001,17.257,-1.985,180.446
2.0207,128.181879,37.922579,6989.2959528,17.903,-2.012,180.457
2.0374,128.181879,37.922535,6989.1002712,18.574,-2.04,180.467
2.0541,128.181879,37.922491,6988.901846400001,19.269,-2.068,180.478
2.0707,128.181879,37.922447,6988.7006784000005,19.99,-2.097,180.489
2.0875,128.181879,37.922403,6988.4967672,20.738,-2.127,180.5
2.1042,128.181879,37.922358,6988.2901128,21.513,-2.157,180.511
2.1208,128.181879,37.922314,6988.080105600001,22.317,-2.188,180.522
2.1376,128.181879,37.92227,6987.867660000001,23.151,-2.219,180.532
2.1543,128.181879,37.922226,6987.6518616,24.017,-2.251,180.543
2.171,128.181879,37.922182,6987.433015200001,24.914,-2.284,180.553
2.1877,128.181879,37.922138,6987.2111208,25.845,-2.318,180.563
2.2044,128.181879,37.922094,6986.985873600001,26.81,-2.352,180.572
2.2211,128.181879,37.92205,6986.757578400001,27.81,-2.387,180.581
2.2378,128.181878,37.922006,6986.5256256,28.848,-2.422,180.589
2.2544,128.181878,37.921962,6986.290624800001,29.923,-2.459,180.597
2.2712,128.181878,37.921918,6986.0519664,31.037,-2.496,180.605
2.2879,128.181878,37.921874,6985.8099552,32.191,-2.534,180.611
2.3045,128.181878,37.92183,6985.5642864,33.387,-2.573,180.617
2.3213,128.181878,37.921786,6985.314960000001,34.625,-2.612,180.623
2.338,128.181878,37.921742,6985.061976,35.907,-2.652,180.627
2.3546,128.181878,37.921698,6984.8053344,37.234,-2.694,180.631
2.3714,128.181878,37.921654,6984.5450352,38.607,-2.736,180.634
2.3881,128.181878,37.92161,6984.2807736,40.026,-2.778,180.636
2.4048,128.181878,37.921566,6984.013159200001,41.491,-2.822,180.637
2.4215,128.181878,37.921522,6983.741887200001,42.998,-2.866,180.636
2.4382,128.181878,37.921478,6983.4669576,44.548,-2.91,180.634
2.4549,128.181878,37.921434,6983.188370400001,46.139,-2.954,180.63
2.4716,128.181878,37.92139,6982.9064304,47.769,-2.999,180.625
2.4882,128.181879,37.921346,6982.6208328,49.437,-3.044,180.618
2.505,128.181879,37.921302,6982.331882400001,51.143,-3.089,180.61
2.5217,128.181879,37.921258,6982.039579200001,52.884,-3.134,180.6
2.5383,128.181879,37.921214,6981.743923200001,54.659,-3.179,180.589
2.5551,128.181879,37.92117,6981.444914400001,56.468,-3.224,180.575
2.5718,128.181879,37.921126,6981.1425528,58.309,-3.268,180.561
2.5884,128.181879,37.921082,6980.8368384000005,60.182,-3.313,180.544
2.6052,128.181879,37.921038,6980.528076,62.086,-3.357,180.527
2.6219,128.181879,37.920994,6980.215960800001,64.019,-3.401,180.507
2.6386,128.18188,37.92095,6979.900797600001,65.981,-3.444,180.487
2.6553,128.18188,37.920906,6979.582586400001,67.971,-3.486,180.464
2.6719,128.18188,37.920862,6979.261327200001,69.988,-3.528,180.441
2.6887,128.18188,37.920818,6978.937020000001,72.032,-3.57,180.416
2.7054,128.18188,37.920774,6978.6096648,74.101,-3.61,180.39
2.722,128.181881,37.92073,6978.2792616,76.195,-3.65,180.362
2.7388,128.181881,37.920686,6977.9461152,78.314,-3.689,180.334
2.7555,128.181881,37.920642,6977.6099208,80.457,-3.727,180.304
2.7721,128.181881,37.920598,6977.270983200001,82.622,-3.764,180.273
2.7889,128.181882,37.920554,6976.9293024,84.811,-3.8,180.241
2.8056,128.181882,37.92051,6976.584878400001,87.021,-3.835,180.208
2.8222,128.181882,37.920466,6976.237711200001,89.252,-3.869,180.174
2.839,128.181882,37.920422,6975.888105600001,91.504,-3.901,180.14
2.8557,128.181883,37.920378,6975.5360616,93.777,-3.933,180.105
2.8724,128.181883,37.920334,6975.181274400001,96.069,-3.963,180.069
2.8891,128.181883,37.92029,6974.8240488,98.38,-3.992,180.036
2.9057,128.181884,37.920246,6974.4643848,100.709,-4.022,180.012
2.9225,128.181884,37.920202,6974.102587200001,103.055,-4.053,180.001
2.9392,128.181885,37.920158,6973.738351200001,105.417,-4.088,180.007
2.9558,128.181885,37.920114,6973.3716768,107.795,-4.128,180.031
2.9726,128.181885,37.92007,6973.0028688,110.188,-4.175,180.074
2.9893,128.181886,37.920026,6972.6316224,112.594,-4.231,180.137
3.0059,128.181886,37.919982,6972.258242400001,115.013,-4.297,180.218
3.0227,128.181887,37.919938,6971.8821192000005,117.444,-4.374,180.317
3.0394,128.181887,37.919894,6971.5038624,119.885,-4.465,180.434
3.056,128.181887,37.91985,6971.1222528,122.322,-4.569,180.566
3.0728,128.181888,37.919806,6970.7375952,124.742,-4.689,180.715
3.0895,128.181888,37.919762,6970.349279999999,127.131,-4.823,180.877
3.1062,128.181888,37.919718,6969.956697600001,129.477,-4.974,181.052
3.1229,128.181889,37.919675,6969.5595432,131.769,-5.142,181.239
3.1395,128.181889,37.919631,6969.157512,133.996,-5.327,181.435
3.1563,128.181889,37.919587,6968.7496896,136.151,-5.531,181.639
3.173,128.181889,37.919543,6968.3357712,138.226,-5.753,181.849
3.1896,128.18189,37.919499,6967.9148424,140.216,-5.994,182.063
3.2064,128.18189,37.919455,6967.4865984,142.117,-6.254,182.279
3.2231,128.18189,37.919411,6967.0504296,143.927,-6.532,182.496
3.2397,128.18189,37.919367,6966.6057264,145.645,-6.827,182.712
3.2565,128.181889,37.919324,6966.152488799999,147.27,-7.138,182.925
3.2732,128.181889,37.91928,6965.6898024,148.805,-7.465,183.134
3.2899,128.181889,37.919236,6965.2176672000005,150.251,-7.806,183.339
3.3066,128.181889,37.919192,6964.735473600001,151.61,-8.16,183.537
3.3233,128.181889,37.919149,6964.2429168,152.887,-8.526,183.728
3.34,128.181888,37.919105,6963.739692000001,154.085,-8.901,183.912
3.3567,128.181888,37.919061,6963.2254944,155.208,-9.283,184.086
3.3734,128.181887,37.919018,6962.7000192000005,156.261,-9.666,184.249
3.3901,128.181887,37.918974,6962.1632664,157.249,-10.048,184.4
3.4068,128.181886,37.91893,6961.6146264,158.176,-10.427,184.54
3.4235,128.181885,37.918887,6961.054099200001,159.046,-10.801,184.667
3.4402,128.181885,37.918843,6960.48138,159.864,-11.169,184.782
3.4569,128.181884,37.9188,6959.896468800001,160.634,-11.53,184.886
3.4736,128.181883,37.918756,6959.298756000001,161.359,-11.885,184.98
3.4903,128.181882,37.918713,6958.688546400001,162.045,-12.232,185.063
3.507,128.181882,37.918669,6958.0655352,162.693,-12.572,185.138
3.5237,128.181881,37.918626,6957.4294176,163.307,-12.904,185.203
3.5404,128.18188,37.918582,6956.7814128,163.954,-13.231,185.255
3.5571,128.181879,37.918539,6956.121216,164.632,-13.552,185.295
3.5738,128.181878,37.918496,6955.448827200001,165.334,-13.868,185.325
3.5905,128.181877,37.918452,6954.764551200001,166.053,-14.176,185.347
3.6072,128.181876,37.918409,6954.068083200001,166.78,-14.478,185.363
3.6239,128.181874,37.918366,6953.358204,167.51,-14.774,185.374
3.6406,128.181873,37.918322,6952.6349136,168.234,-15.065,185.381
3.6573,128.181872,37.918279,6951.898212,168.947,-15.349,185.384
3.674,128.181871,37.918236,6951.1477944,169.644,-15.628,185.383
3.6907,128.18187,37.918193,6950.3830512,170.321,-15.903,185.379
3.7074,128.181868,37.91815,6949.603982400001,170.975,-16.173,185.371
3.7241,128.181867,37.918107,6948.810892800001,171.603,-16.439,185.359
3.7408,128.181866,37.918064,6948.0028680000005,172.204,-16.702,185.344
3.7575,128.181864,37.918021,6947.1802128,172.778,-16.962,185.326
3.7742,128.181863,37.917978,6946.343232,173.323,-17.218,185.304
3.7909,128.181862,37.917935,6945.491316,173.841,-17.472,185.28
3.8076,128.18186,37.917892,6944.624464800001,174.334,-17.724,185.253
3.8243,128.181859,37.917849,6943.742983200001,174.802,-17.973,185.226
3.841,128.181857,37.917807,6942.8465664,175.246,-18.221,185.196
3.8577,128.181856,37.917764,6941.9355192,175.667,-18.466,185.165
3.8744,128.181855,37.917721,6941.0095368,176.066,-18.71,185.131
3.8911,128.181853,37.917678,6940.0686192,176.444,-18.951,185.096
3.9078,128.181852,37.917636,6939.1130712,176.802,-19.192,185.058
3.9245,128.18185,37.917593,6938.142588000001,177.142,-19.43,185.019
3.9412,128.181849,37.917551,6937.157169600001,177.465,-19.667,184.978
3.9579,128.181847,37.917508,6936.1571208,177.773,-19.903,184.935
3.9746,128.181846,37.917466,6935.142441600001,178.066,-20.137,184.891
3.9913,128.181844,37.917423,6934.1128272000005,178.346,-20.37,184.845
4.008,128.181842,37.917381,6933.0685824,178.614,-20.601,184.798
4.0247,128.181841,37.917339,6932.0097072,178.871,-20.832,184.749
4.0414,128.181839,37.917296,6930.9362016000005,179.118,-21.06,184.7
4.058,128.181838,37.917254,6929.847760800001,179.357,-21.288,184.649
4.0748,128.181836,37.917212,6928.7446896,179.587,-21.514,184.597
4.0915,128.181835,37.91717,6927.626988000001,179.811,-21.739,184.546
4.1082,128.181833,37.917128,6926.494656000001,-179.97,-21.963,184.494
4.1249,128.181832,37.917086,6925.3479984,-179.757,-22.185,184.442
4.1415,128.18183,37.917044,6924.1864056,-179.549,-22.407,184.391
4.1583,128.181828,37.917002,6923.0101824,-179.345,-22.627,184.34
4.175,128.181827,37.91696,6921.819328800001,-179.145,-22.847,184.29
4.1917,128.181825,37.916918,6920.6141496,-178.948,-23.065,184.24
4.2084,128.181824,37.916876,6919.3940352,-178.755,-23.283,184.19
4.2251,128.181822,37.916835,6918.159595200001,-178.565,-23.499,184.142
4.2417,128.181821,37.916793,6916.9105248000005,-178.378,-23.715,184.094
4.2585,128.181819,37.916751,6915.646824,-178.194,-23.929,184.046
4.2752,128.181817,37.91671,6914.368492800001,-178.012,-24.143,183.999
4.2919,128.181816,37.916668,6913.075836,-177.834,-24.357,183.953
4.3086,128.181814,37.916627,6911.7685488,-177.658,-24.569,183.907
4.3252,128.181813,37.916585,6910.4466312,-177.486,-24.781,183.862
4.342,128.181811,37.916544,6909.110388000001,-177.317,-24.992,183.816
4.3587,128.18181,37.916502,6907.759209600001,-177.151,-25.203,183.771
4.3754,128.181808,37.916461,6906.3937056,-176.989,-25.413,183.726
4.3921,128.181807,37.91642,6905.013876,-176.831,-25.623,183.68
4.4088,128.181805,37.916379,6903.619416,-176.676,-25.832,183.634
4.4254,128.181804,37.916337,6902.2103256,-176.525,-26.04,183.588
4.4422,128.181802,37.916296,6900.7869096,-176.377,-26.248,183.541
4.4589,128.1818,37.916255,6899.3488632,-176.233,-26.456,183.494
4.4756,128.181799,37.916214,6897.8964912,-176.092,-26.663,183.447
4.4923,128.181798,37.916173,6896.4297936,-175.955,-26.87,183.399
4.5089,128.181796,37.916132,6894.9484656,-175.821,-27.076,183.352
4.5256,128.181795,37.916092,6893.4528119999995,-175.691,-27.282,183.304
4.5424,128.181793,37.916051,6891.9425280000005,-175.564,-27.488,183.256
4.5591,128.181792,37.91601,6890.4179184,-175.44,-27.693,183.207
4.5758,128.18179,37.915969,6888.878983200001,-175.32,-27.898,183.159
4.5925,128.181789,37.915929,6887.3254176,-175.203,-28.103,183.11
4.6091,128.181787,37.915888,6885.7578312000005,-175.09,-28.307,183.061
4.6259,128.181786,37.915848,6884.1756144,-174.981,-28.512,183.012
4.6426,128.181785,37.915807,6882.579072,-174.875,-28.716,182.963
4.6593,128.181783,37.915767,6880.968204,-174.773,-28.919,182.914
4.676,128.181782,37.915727,6879.343010400001,-174.674,-29.123,182.864
4.6927,128.181781,37.915686,6877.703491200001,-174.579,-29.326,182.815
4.7093,128.181779,37.915646,6876.049951200001,-174.487,-29.529,182.765
4.7261,128.181778,37.915606,6874.3817808,-174.399,-29.732,182.716
4.7428,128.181777,37.915566,6872.6992848,-174.315,-29.935,182.666
4.7595,128.181775,37.915526,6871.002768,-174.234,-30.137,182.617
4.7762,128.181774,37.915486,6869.2919256,-174.157,-30.34,182.567
4.7928,128.181773,37.915446,6867.5667576,-174.083,-30.542,182.518
4.8096,128.181771,37.915406,6865.8275688,-174.013,-30.744,182.469
4.8263,128.18177,37.915366,6864.0740544,-173.947,-30.946,182.419
4.843,128.181769,37.915327,6862.3065192,-173.884,-31.148,182.37
4.8597,128.181768,37.915287,6860.524658400001,-173.824,-31.349,182.321
4.8764,128.181767,37.915247,6858.728472,-173.768,-31.551,182.271
4.893,128.181765,37.915208,6856.9185696,-173.716,-31.752,182.222
4.9098,128.181764,37.915168,6855.094341600001,-173.666,-31.954,182.174
4.9265,128.181763,37.915129,6853.256092800001,-173.62,-32.155,182.125
4.9432,128.181762,37.91509,6851.4038232,-173.578,-32.356,182.076
4.9599,128.181761,37.91505,6849.537228,-173.538,-32.557,182.028
4.9765,128.18176,37.915011,6847.6569168,-173.502,-32.758,181.979
4.9932,128.181759,37.914972,6845.7625848,-173.468,-32.959,181.931
5.01,128.181758,37.914933,6843.854232000001,-173.438,-33.159,181.883
5.0267,128.181756,37.914894,6841.9318584,-173.41,-33.36,181.836
5.0434,128.181755,37.914855,6839.9954640000005,-173.386,-33.561,181.788
5.0601,128.181754,37.914816,6838.0453536,-173.364,-33.761,181.741
5.0767,128.181753,37.914777,6836.0812224,-173.345,-33.962,181.694
5.0935,128.181752,37.914739,6834.1030704,-173.329,-34.162,181.648
5.1102,128.181751,37.9147,6832.1112023999995,-173.315,-34.362,181.601
5.1269,128.18175,37.914661,6830.105618400001,-173.304,-34.563,181.555
5.1436,128.18175,37.914623,6828.0860136,-173.295,-34.763,181.509
5.1602,128.181749,37.914584,6826.052997600001,-173.288,-34.963,181.464
5.1769,128.181748,37.914546,6824.005960800001,-173.284,-35.163,181.418
5.1937,128.181747,37.914507,6821.945208,-173.281,-35.363,181.373
5.2104,128.181746,37.914469,6819.8707392,-173.281,-35.563,181.329
5.2271,128.181745,37.914431,6817.782554400001,-173.283,-35.763,181.285
5.2438,128.181744,37.914393,6815.6809584,-173.287,-35.963,181.241
5.2604,128.181743,37.914355,6813.5653416000005,-173.293,-36.163,181.197
5.2772,128.181743,37.914317,6811.4363136,-173.3,-36.363,181.154
5.2939,128.181742,37.914279,6809.293874400001,-173.309,-36.563,181.111
5.3106,128.181741,37.914241,6807.137719200001,-173.32,-36.763,181.068
5.3273,128.18174,37.914203,6804.967848,-173.333,-36.963,181.026
5.3439,128.18174,37.914165,6802.784565600001,-173.346,-37.162,180.985
5.3606,128.181739,37.914128,6800.587872,-173.362,-37.362,180.943
5.3774,128.181738,37.91409,6798.3777672,-173.378,-37.562,180.902
5.3941,128.181737,37.914053,6796.153946400001,-173.396,-37.762,180.862
5.4108,128.181737,37.914015,6793.9170192,-173.416,-37.961,180.821
5.4275,128.181736,37.913978,6791.6666808,-173.436,-38.161,180.782
5.4441,128.181736,37.913941,6789.4029312,-173.457,-38.361,180.742
5.4609,128.181735,37.913904,6787.125770400001,-173.48,-38.56,180.703
5.4776,128.181734,37.913866,6784.8351984,-173.503,-38.76,180.665
5.4943,128.181734,37.913829,6782.5315200000005,-173.527,-38.959,180.626
5.511,128.181733,37.913792,6780.2147352,-173.552,-39.159,180.589
5.5277,128.181733,37.913756,6777.8842343999995,-173.578,-39.359,180.551
5.5443,128.181732,37.913719,6775.540932000001,-173.604,-39.558,180.514
5.5611,128.181731,37.913682,6773.184218400001,-173.632,-39.758,180.478
5.5778,128.181731,37.913645,6770.8147032,-173.66,-39.957,180.441
5.5945,128.18173,37.913609,6768.4317768,-173.688,-40.157,180.406
5.6112,128.18173,37.913572,6766.035744,-173.717,-40.356,180.37
5.6278,128.18173,37.913536,6763.626604800001,-173.747,-40.556,180.335
5.6445,128.181729,37.913499,6761.204664000001,-173.777,-40.755,180.301
5.6613,128.181729,37.913463,6758.769312,-173.807,-40.955,180.267
5.678,128.181728,37.913427,6756.3211584,-173.838,-41.154,180.233
5.6947,128.181728,37.913391,6753.8602032,-173.869,-41.353,180.2
5.7114,128.181727,37.913355,6751.386141600001,-173.901,-41.553,180.167
5.728,128.181727,37.913319,6748.8992784,-173.933,-41.752,180.134
5.7448,128.181727,37.913283,6746.399308800001,-173.965,-41.952,180.102
5.7615,128.181726,37.913247,6743.8865376,-173.997,-42.151,180.07
5.7782,128.181726,37.913211,6741.360964800001,-174.03,-42.351,180.039
5.7949,128.181726,37.913176,6738.8225904,-174.063,-42.55,180.008
5.8115,128.181725,37.91314,6736.2714144,-174.096,-42.749,179.977
5.8282,128.181725,37.913105,6733.7074368,-174.129,-42.949,179.947
5.845,128.181725,37.913069,6731.1309624,-174.162,-43.148,179.917
5.8617,128.181725,37.913034,6728.5413816,-174.195,-43.348,179.888
5.8784,128.181724,37.912999,6725.939304,-174.228,-43.547,179.859
5.8951,128.181724,37.912964,6723.3247296,-174.262,-43.746,179.83
5.9117,128.181724,37.912929,6720.6973536000005,-174.295,-43.945,179.801
5.9285,128.181724,37.912894,6718.0574808,-174.328,-44.144,179.774
5.9452,128.181724,37.912859,6715.405111200001,-174.362,-44.343,179.746
5.9619,128.181723,37.912824,6712.73994,-174.395,-44.542,179.719
5.9786,128.181723,37.912789,6710.0625768,-174.428,-44.741,179.692
5.9952,128.181723,37.912755,6707.3727168,-174.461,-44.939,179.665
6.0119,128.181723,37.91272,6704.6700552,-174.494,-45.138,179.639
6.0287,128.181723,37.912686,6701.955201600001,-174.527,-45.337,179.613
6.0454,128.181723,37.912651,6699.228156000001,-174.56,-45.535,179.588
6.0621,128.181723,37.912617,6696.488308800001,-174.593,-45.734,179.563
6.0788,128.181722,37.912583,6693.736574400001,-174.625,-45.932,179.538
6.0954,128.181722,37.912549,6690.972038400001,-174.658,-46.131,179.513
6.1121,128.181722,37.912515,6688.195615200001,-174.69,-46.329,179.489
6.1289,128.181722,37.912481,6685.4066952,-174.722,-46.528,179.465
6.1456,128.181722,37.912447,6682.605888000001,-174.754,-46.726,179.442
6.1623,128.181722,37.912413,6679.792584000001,-174.786,-46.925,179.418
6.179,128.181722,37.912379,6676.967088,-174.817,-47.123,179.395
6.1956,128.181722,37.912346,6674.129704800001,-174.849,-47.322,179.373
6.2124,128.181722,37.912312,6671.2801296,-174.88,-47.52,179.35
6.2291,128.181722,37.912279,6668.4183624,-174.911,-47.719,179.328
6.2458,128.181722,37.912245,6665.544708,-174.942,-47.918,179.306
6.2625,128.181722,37.912212,6662.6588616,-174.973,-48.116,179.284
6.2791,128.181722,37.912179,6659.761128,-175.003,-48.315,179.263
6.2958,128.181722,37.912146,6656.8515072,-175.033,-48.513,179.242
6.3126,128.181723,37.912113,6653.929999200001,-175.063,-48.712,179.221
6.3293,128.181723,37.91208,6650.996604,-175.093,-48.91,179.201
6.346,128.181723,37.912047,6648.0513216,-175.122,-49.109,179.18
6.3627,128.181723,37.912015,6645.094152000001,-175.151,-49.307,179.16
6.3793,128.181723,37.911982,6642.1250952,-175.18,-49.506,179.14
6.3961,128.181723,37.91195,6639.144151200001,-175.209,-49.704,179.121
6.4128,128.181723,37.911917,6636.1519296,-175.237,-49.903,179.101
6.4295,128.181723,37.911885,6633.147516,-175.265,-50.101,179.082
6.4462,128.181724,37.911853,6630.131824800001,-175.293,-50.3,179.063
6.4628,128.181724,37.91182,6627.1042464,-175.321,-50.498,179.044
6.4795,128.181724,37.911788,6624.0650856,-175.348,-50.697,179.026
6.4963,128.181724,37.911756,6621.014342400001,-175.375,-50.895,179.007
6.513,128.181724,37.911725,6617.9520168,-175.401,-51.094,178.989
6.5297,128.181725,37.911693,6614.8781088000005,-175.428,-51.292,178.971
6.5464,128.181725,37.911661,6611.792923200001,-175.454,-51.491,178.953
6.5631,128.181725,37.91163,6608.6961552,-175.48,-51.689,178.936
6.5798,128.181725,37.911598,6605.5881096,-175.505,-51.888,178.918
6.5965,128.181726,37.911567,6602.4684816,-175.53,-52.086,178.901
6.6132,128.181726,37.911536,6599.337576,-175.555,-52.285,178.884
6.6299,128.181726,37.911504,6596.195392800001,-175.58,-52.483,178.867
6.6466,128.181726,37.911473,6593.0416272,-175.605,-52.681,178.85
6.6633,128.181727,37.911442,6589.8768887999995,-175.629,-52.88,178.834
6.68,128.181727,37.911411,6586.7008728,-175.653,-53.078,178.818
6.6967,128.181727,37.911381,6583.513579200001,-175.676,-53.277,178.801
6.7134,128.181728,37.91135,6580.3150080000005,-175.7,-53.475,178.785
6.7301,128.181728,37.911319,6577.105464,-175.723,-53.674,178.769
6.7468,128.181728,37.911289,6573.884947200001,-175.745,-53.872,178.753
6.7635,128.181729,37.911259,6570.6531528,-175.768,-54.07,178.738
6.7802,128.181729,37.911228,6567.4103856,-175.79,-54.269,178.722
6.7969,128.181729,37.911198,6564.1566456,-175.811,-54.467,178.707
6.8136,128.18173,37.911168,6560.8919328,-175.833,-54.665,178.691
6.8303,128.18173,37.911138,6557.6162472000005,-175.854,-54.864,178.676
6.847,128.18173,37.911108,6554.3295888,-175.875,-55.062,178.661
6.8637,128.181731,37.911078,6551.0319576,-175.895,-55.26,178.646
6.8804,128.181731,37.911049,6547.7236584,-175.915,-55.459,178.631
6.8971,128.181732,37.911019,6544.4046912,-175.935,-55.657,178.616
6.9138,128.181732,37.91099,6541.074751200001,-175.955,-55.855,178.601
6.9305,128.181732,37.91096,6537.734143199999,-175.974,-56.054,178.587
6.9472,128.181733,37.910931,6534.3828672,-175.993,-56.252,178.572
6.9639,128.181733,37.910902,6531.020923200001,-176.011,-56.45,178.558
6.9806,128.181734,37.910873,6527.6483112000005,-176.029,-56.648,178.543
6.9973,128.181734,37.910844,6524.265336,-176.047,-56.847,178.529
7.014,128.181735,37.910815,6520.8713880000005,-176.065,-57.045,178.515
7.0307,128.181735,37.910786,6517.4670768000005,-176.082,-57.243,178.5
7.0474,128.181736,37.910758,6514.0524024,-176.099,-57.441,178.486
7.0641,128.181736,37.910729,6510.627364800001,-176.115,-57.64,178.472
7.0808,128.181737,37.910701,6507.191659200001,-176.132,-57.838,178.458
7.0975,128.181737,37.910672,6503.7455904,-176.147,-58.036,178.444
7.1142,128.181738,37.910644,6500.2894632,-176.163,-58.234,178.43
7.1309,128.181738,37.910616,6496.822668000001,-176.178,-58.432,178.416
7.1476,128.181739,37.910588,6493.345814400001,-176.193,-58.631,178.402
7.1643,128.181739,37.91056,6489.858597600001,-176.208,-58.829,178.389
7.181,128.18174,37.910532,6486.3613224,-176.222,-59.027,178.375
7.1977,128.18174,37.910504,6482.853684000001,-176.236,-59.225,178.361
7.2144,128.181741,37.910477,6479.3359872,-176.249,-59.423,178.347
7.2311,128.181741,37.910449,6475.808232,-176.263,-59.621,178.333
7.2478,128.181742,37.910422,6472.2704184,-176.275,-59.819,178.32
7.2645,128.181742,37.910395,6468.7225464,-176.288,-60.018,178.306
7.2812,128.181743,37.910368,6465.164616,-176.301,-60.216,178.292
7.2979,128.181744,37.910341,6461.596932,-176.313,-60.414,178.279
7.3146,128.181744,37.910314,6458.0191896,-176.324,-60.612,178.265
7.3313,128.181745,37.910287,6454.4316936,-176.336,-60.81,178.251
7.348,128.181745,37.91026,6450.834444,-176.347,-61.008,178.237
7.3647,128.181746,37.910234,6447.227136,-176.358,-61.206,178.224
7.3814,128.181746,37.910207,6443.6103792,-176.368,-61.404,178.21
7.3981,128.181747,37.910181,6439.983564,-176.379,-61.602,178.196
7.4148,128.181748,37.910154,6436.3473,-176.388,-61.8,178.182
7.4315,128.181748,37.910128,6432.7012824,-176.398,-61.998,178.168
7.4482,128.181749,37.910102,6429.045511200001,-176.407,-62.196,178.154
7.4649,128.18175,37.910076,6425.380596000001,-176.416,-62.394,178.14
7.4816,128.18175,37.910051,6421.705927200001,-176.425,-62.592,178.126
7.4983,128.181751,37.910025,6418.0215048,-176.433,-62.79,178.112
7.515,128.181751,37.909999,6414.327938400001,-176.441,-62.988,178.098
7.5317,128.181752,37.909974,6410.6249232,-176.448,-63.186,178.084
7.5484,128.181753,37.909948,6406.912459200001,-176.455,-63.384,178.069
7.5651,128.181753,37.909923,6403.190851200001,-176.462,-63.582,178.055
7.5818,128.181754,37.909898,6399.4597944,-176.469,-63.78,178.04
7.5985,128.181755,37.909873,6395.7192888,-176.475,-63.978,178.026
7.6152,128.181755,37.909848,6391.969944,-176.481,-64.176,178.011
7.6319,128.181756,37.909823,6388.2111504,-176.486,-64.373,177.997
7.6486,128.181757,37.909799,6384.4432128,-176.491,-64.571,177.982
7.6653,128.181757,37.909774,6380.666436,-176.496,-64.769,177.967
7.682,128.181758,37.90975,6376.880210400001,-176.5,-64.967,177.952
7.6987,128.181759,37.909725,6373.085450400001,-176.504,-65.165,177.937
7.7154,128.18176,37.909701,6369.281241600001,-176.508,-65.363,177.921
7.7321,128.18176,37.909677,6365.4684984,-176.512,-65.561,177.906
7.7488,128.181761,37.909653,6361.646611200001,-176.515,-65.758,177.89
7.7655,128.181762,37.909629,6357.8158848,-176.517,-65.956,177.875
7.7822,128.181762,37.909605,6353.976319200001,-176.52,-66.154,177.859
7.7989,128.181763,37.909582,6350.127914400001,-176.522,-66.352,177.843
7.8156,128.181764,37.909558,6346.2709752,-176.524,-66.55,177.827
7.8323,128.181764,37.909535,6342.4051968,-176.525,-66.747,177.81
7.849,128.181765,37.909512,6338.530884000001,-176.526,-66.945,177.794
7.8657,128.181766,37.909488,6334.6480368,-176.527,-67.143,177.777
7.8824,128.181767,37.909465,6330.7563504,-176.527,-67.341,177.761
7.8991,128.181767,37.909443,6326.8564344,-176.527,-67.539,177.743
7.9158,128.181768,37.90942,6322.9476792000005,-176.526,-67.736,177.726
7.9325,128.181769,37.909397,6319.0306944,-176.525,-67.934,177.709
7.9492,128.18177,37.909375,6315.10548,-176.524,-68.132,177.691
7.9659,128.18177,37.909352,6311.1717312,-176.522,-68.329,177.673
7.9826,128.181771,37.90933,6307.229448,-176.52,-68.527,177.655
7.9993,128.181772,37.909308,6303.27924,-176.517,-68.725,177.637
8.016,128.181773,37.909285,6299.320497600001,-176.514,-68.922,177.618
8.0327,128.181773,37.909264,6295.3538304,-176.51,-69.12,177.599
8.0494,128.181774,37.909242,6291.378933600001,-176.507,-69.318,177.58
8.0661,128.181775,37.90922,6287.3958072,-176.502,-69.515,177.561
8.0828,128.181776,37.909198,6283.404756000001,-176.498,-69.713,177.541
8.0994,128.181777,37.909177,6279.40578,-176.493,-69.911,177.521
8.1161,128.181777,37.909156,6275.398574400001,-176.487,-70.108,177.501
8.1329,128.181778,37.909134,6271.3837488,-176.481,-70.306,177.48
8.1496,128.181779,37.909113,6267.3606936,-176.475,-70.504,177.459
8.1663,128.18178,37.909092,6263.3300184,-176.468,-70.701,177.438
8.183,128.18178,37.909071,6259.2914184,-176.46,-70.899,177.417
8.1997,128.181781,37.909051,6255.2451984,-176.452,-71.096,177.395
8.2164,128.181782,37.90903,6251.1910536000005,-176.444,-71.294,177.372
8.2331,128.181783,37.90901,6247.1292888,-176.435,-71.491,177.35
8.2498,128.181784,37.908989,6243.0602088000005,-176.426,-71.689,177.326
8.2665,128.181784,37.908969,6238.983204,-176.416,-71.887,177.303
8.2831,128.181785,37.908949,6234.898884000001,-176.405,-72.084,177.279
8.2998,128.181786,37.908929,6230.806944,-176.394,-72.282,177.254
8.3166,128.181787,37.908909,6226.707384000001,-176.382,-72.479,177.229
8.3333,128.181788,37.908889,6222.6008136,-176.37,-72.677,177.204
8.35,128.181788,37.90887,6218.4866232,-176.357,-72.874,177.178
8.3667,128.181789,37.90885,6214.3651176,-176.343,-73.072,177.152
8.3834,128.18179,37.908831,6210.2366016000005,-176.329,-73.269,177.125
8.4001,128.181791,37.908812,6206.1004656000005,-176.315,-73.466,177.097
8.4168,128.181792,37.908793,6201.957624000001,-176.299,-73.664,177.069
8.4335,128.181793,37.908774,6197.8071624,-176.283,-73.861,177.041
8.4502,128.181793,37.908755,6193.6499952,-176.266,-74.059,177.012
8.4668,128.181794,37.908736,6189.4855128,-176.249,-74.256,176.982
8.4835,128.181795,37.908717,6185.314324800001,-176.231,-74.454,176.951
8.5003,128.181796,37.908699,6181.1358216,-176.212,-74.651,176.92
8.517,128.181797,37.908681,6176.9506128,-176.192,-74.848,176.888
8.5337,128.181798,37.908662,6172.7586984,-176.172,-75.046,176.855
8.5504,128.181798,37.908644,6168.559773600001,-176.15,-75.243,176.822
8.5671,128.181799,37.908626,6164.3541432,-176.128,-75.441,176.787
8.5838,128.1818,37.908609,6160.1418072,-176.105,-75.638,176.752
8.6005,128.181801,37.908591,6155.922765600001,-176.08,-75.835,176.716
8.6172,128.181802,37.908573,6151.6970184,-176.055,-76.033,176.679
8.6339,128.181803,37.908556,6147.464870400001,-176.029,-76.23,176.641
8.6505,128.181803,37.908539,6143.2260168,-176.002,-76.427,176.602
8.6672,128.181804,37.908521,6138.9807624000005,-175.974,-76.625,176.562
8.684,128.181805,37.908504,6134.7291072,-175.944,-76.822,176.521
8.7007,128.181806,37.908487,6130.4710512,-175.914,-77.019,176.479
8.7174,128.181807,37.908471,6126.2068992,-175.882,-77.216,176.436
8.7341,128.181808,37.908454,6121.936041600001,-175.849,-77.414,176.391
8.7508,128.181809,37.908437,6117.659088,-175.815,-77.611,176.345
8.7675,128.181809,37.908421,6113.376038400001,-175.779,-77.808,176.298
8.7842,128.18181,37.908405,6109.086588000001,-175.742,-78.005,176.249
8.8009,128.181811,37.908389,6104.7913464,-175.704,-78.203,176.199
8.8176,128.181812,37.908373,6100.4897040000005,-175.664,-78.4,176.147
8.8342,128.181813,37.908357,6096.182270400001,-175.622,-78.597,176.094
8.8509,128.181814,37.908341,6091.8690456,-175.578,-78.794,176.039
8.8676,128.181815,37.908325,6087.549724800001,-175.533,-78.991,175.982
8.8844,128.181815,37.90831,6083.224308,-175.485,-79.189,175.923
8.9011,128.181816,37.908295,6078.8934048,-175.436,-79.386,175.862
8.9178,128.181817,37.908279,6074.556710400001,-175.384,-79.583,175.799
8.9345,128.181818,37.908264,6070.214224800001,-175.33,-79.78,175.733
8.9512,128.181819,37.908249,6065.865948,-175.274,-79.977,175.665
8.9679,128.18182,37.908235,6061.5121848,-175.215,-80.174,175.595
8.9846,128.181821,37.90822,6057.1529352,-175.154,-80.371,175.522
9.0013,128.181822,37.908205,6052.7878944,-175.09,-80.568,175.446
9.0179,128.181822,37.908191,6048.4176720000005,-175.023,-80.765,175.367
9.0346,128.181823,37.908177,6044.0419632,-174.953,-80.962,175.285
9.0513,128.181824,37.908163,6039.660768000001,-174.879,-81.159,175.2
9.0681,128.181825,37.908149,6035.2743912000005,-174.802,-81.356,175.111
9.0848,128.181826,37.908135,6030.882528,-174.721,-81.553,175.018
9.1015,128.181827,37.908121,6026.485483200001,-174.635,-81.75,174.92
9.1182,128.181828,37.908107,6022.0835615999995,-174.546,-81.947,174.818
9.1349,128.181829,37.908094,6017.6761536,-174.451,-82.144,174.712
9.1516,128.181829,37.908081,6013.263868800001,-174.352,-82.341,174.6
9.1683,128.18183,37.908067,6008.8464023999995,-174.246,-82.538,174.482
9.185,128.181831,37.908054,6004.424059200001,-174.135,-82.734,174.358
9.2016,128.181832,37.908041,5999.9968392,-174.017,-82.931,174.228
9.2183,128.181833,37.908029,5995.564742400001,-173.892,-83.128,174.091
9.235,128.181834,37.908016,5991.1277688,-173.76,-83.325,173.946
9.2518,128.181835,37.908003,5986.6859184,-173.619,-83.521,173.792
9.2685,128.181836,37.907991,5982.239496,-173.47,-83.718,173.63
9.2852,128.181836,37.907979,5977.788501600001,-173.31,-83.914,173.457
9.3019,128.181837,37.907967,5973.3326304,-173.14,-84.111,173.273
9.3186,128.181838,37.907955,5968.872187200001,-172.957,-84.307,173.077
9.3353,128.181839,37.907943,5964.4074768,-172.762,-84.504,172.868
9.352,128.18184,37.907931,5959.9381944,-172.551,-84.7,172.644
9.3687,128.181841,37.90792,5955.46434,-172.324,-84.896,172.403
9.3854,128.181842,37.907908,5950.9862184,-172.078,-85.092,172.143
9.402,128.181843,37.907897,5946.503829599999,-171.812,-85.288,171.862
9.4187,128.181843,37.907886,5942.0171736,-171.521,-85.484,171.557
9.4355,128.181844,37.907875,5937.5262504,-171.204,-85.68,171.226
9.4522,128.181845,37.907864,5933.03106,-170.857,-85.876,170.863
9.4689,128.181846,37.907853,5928.5319072,-170.474,-86.071,170.466
9.4856,128.181847,37.907843,5924.028792000001,-170.051,-86.266,170.028
9.5023,128.181848,37.907832,5919.5214096,-169.581,-86.461,169.542
9.519,128.181849,37.907822,5915.010369600001,-169.055,-86.656,169.0
9.5357,128.181849,37.907812,5910.4950624,-168.464,-86.851,168.394
9.5524,128.18185,37.907801,5905.976097600001,-167.796,-87.045,167.709
9.5691,128.181851,37.907792,5901.4534752,-167.033,-87.238,166.929
9.5857,128.181852,37.907782,5896.9268904,-166.154,-87.431,166.034
9.6024,128.181853,37.907772,5892.396648,-165.133,-87.624,164.995
9.6192,128.181854,37.907763,5887.862748,-163.931,-87.815,163.776
9.6359,128.181855,37.907753,5883.325495200001,-162.498,-88.005,162.325
9.6526,128.181856,37.907744,5878.7845848,-160.763,-88.194,160.572
9.6693,128.181856,37.907735,5874.2400168,-158.624,-88.381,158.414
9.686,128.181857,37.907726,5869.692096000001,-155.931,-88.565,155.702
9.7027,128.181858,37.907717,5865.140822400001,-152.455,-88.745,152.206
9.7194,128.181859,37.907709,5860.586196,-147.838,-88.918,147.57
9.7361,128.18186,37.9077,5856.0285216,-141.514,-89.082,141.226
9.7528,128.181861,37.907692,5851.4674944,-132.605,-89.23,132.297
9.7694,128.181861,37.907684,5846.9031144,-119.941,-89.351,119.611
9.7861,128.181862,37.907675,5842.335686400001,-102.762,-89.428,102.411
9.8029,128.181863,37.907668,5837.765210400001,-82.663,-89.442,82.29
9.8196,128.181864,37.90766,5833.1919912,-63.902,-89.389,63.507
9.8363,128.181865,37.907652,5828.6154192,-49.407,-89.284,48.988
9.853,128.181866,37.907645,5824.036408800001,-39.111,-89.145,38.669
9.8697,128.181867,37.907637,5819.4543504,-31.857,-88.986,31.391
9.8864,128.181867,37.90763,5814.8692439999995,-26.626,-88.816,26.135
9.9031,128.181868,37.907623,5810.2816992,-22.737,-88.639,22.219
9.9198,128.181869,37.907616,5805.6914112,-19.758,-88.456,19.213
9.9365,128.18187,37.907609,5801.098379999999,-17.416,-88.27,16.843
9.9531,128.181871,37.907602,5796.5029104000005,-15.532,-88.082,14.931
9.9698,128.181872,37.907596,5791.9050024,-13.989,-87.892,13.359
9.9865,128.181872,37.907589,5787.3043512,-12.702,-87.701,12.042
10.0033,128.181873,37.907583,5782.7015664,-11.614,-87.509,10.923
10.02,128.181874,37.907577,5778.0963432,-10.681,-87.316,9.958
10.0367,128.181875,37.907571,5773.4886816,-9.871,-87.122,9.115
10.0534,128.181876,37.907565,5768.878886400001,-9.162,-86.928,8.372
10.0701,128.181876,37.90756,5764.2669576,-8.535,-86.734,7.711
10.0868,128.181877,37.907554,5759.6525904,-7.975,-86.539,7.116
10.1035,128.181878,37.907549,5755.0363944,-7.479,-86.347,6.583
10.1202,128.181879,37.907543,5750.4180648,-7.041,-86.161,6.107
10.1368,128.18188,37.907538,5745.797906400001,-6.653,-85.984,5.681
10.1535,128.18188,37.907533,5741.1756144,-6.309,-85.816,5.297
10.1702,128.181881,37.907528,5736.5511888,-6.002,-85.659,4.948
10.187,128.181882,37.907524,5731.9252392,-5.724,-85.513,4.627
10.2037,128.181883,37.907519,5727.2971560000005,-5.47,-85.377,4.328
10.2204,128.181884,37.907515,5722.6675488,-5.235,-85.251,4.047
10.2371,128.181884,37.90751,5718.0361128,-5.015,-85.134,3.778
10.2538,128.181885,37.907506,5713.402848,-4.804,-85.026,3.519
10.2705,128.181886,37.907502,5708.768059200001,-4.601,-84.925,3.268
10.2872,128.181887,37.907498,5704.1314416000005,-4.403,-84.83,3.021
10.3039,128.181887,37.907495,5699.4933,-4.209,-84.741,2.779
10.3205,128.181888,37.907491,5694.8536343999995,-4.016,-84.658,2.539
10.3372,128.181889,37.907488,5690.21214,-3.824,-84.578,2.301
10.3539,128.18189,37.907484,5685.5694264,-3.631,-84.502,2.064
10.3707,128.18189,37.907481,5680.9251888,-3.436,-84.43,1.829
10.3874,128.181891,37.907478,5676.2791224,-3.24,-84.36,1.596
10.4041,128.181892,37.907475,5671.6318368,-3.048,-84.291,1.369
10.4208,128.181892,37.907472,5666.9830272,-2.861,-84.224,1.151
10.4375,128.181893,37.907469,5662.332693599999,-2.683,-84.158,0.944
10.4542,128.181894,37.907467,5657.6811408,-2.515,-84.092,0.751
10.4709,128.181895,37.907464,5653.028064,-2.362,-84.026,0.575
10.4876,128.181895,37.907462,5648.373768,-2.223,-83.96,0.416
10.5042,128.181896,37.90746,5643.7182528,-2.101,-83.895,0.277
10.5209,128.181897,37.907457,5639.0612136,-1.997,-83.829,0.158
10.5376,128.181897,37.907455,5634.4029552,-1.914,-83.763,0.061
10.5544,128.181898,37.907453,5629.7434776,-1.853,-83.698,359.987
10.5711,128.181899,37.907452,5625.0827808,-1.815,-83.634,359.937
10.5878,128.181899,37.90745,5620.4205600000005,-1.8,-83.572,359.911
10.6045,128.1819,37.907448,5615.757424800001,-1.809,-83.512,359.91
10.6212,128.181901,37.907447,5611.093070400001,-1.84,-83.454,359.933
10.6379,128.181901,37.907446,5606.427192,-1.894,-83.397,359.979
10.6546,128.181902,37.907444,5601.7603992,-1.968,-83.343,0.047
10.6713,128.181902,37.907443,5597.092692,-2.061,-83.289,0.135
10.6879,128.181903,37.907442,5592.423460800001,-2.172,-83.237,0.241
10.7046,128.181904,37.907441,5587.7533152000005,-2.297,-83.185,0.363
10.7213,128.181904,37.90744,5583.0819504,-2.435,-83.134,0.498
10.7381,128.181905,37.90744,5578.4096712,-2.581,-83.083,0.643
10.7548,128.181905,37.907439,5573.7361728000005,-2.734,-83.032,0.795
10.7715,128.181906,37.907439,5569.0617600000005,-2.89,-82.983,0.951
10.7882,128.181907,37.907438,5564.386128,-3.047,-82.936,1.107
10.8049,128.181907,37.907438,5559.7095816,-3.201,-82.891,1.258
10.8216,128.181908,37.907438,5555.0321208,-3.352,-82.85,1.398
10.8383,128.181908,37.907438,5550.3540504,-3.495,-82.811,1.522
10.855,128.181909,37.907438,5545.6750656,-3.631,-82.775,1.621
10.8717,128.181909,37.907438,5540.995776,-3.757,-82.743,1.684
10.8883,128.18191,37.907438,5536.3158768,-3.875,-82.714,1.707
10.905,128.181911,37.907439,5531.635368,-3.984,-82.688,1.685
10.9218,128.181911,37.907439,5526.9545544,-4.085,-82.664,1.616
10.9385,128.181912,37.90744,5522.2731312000005,-4.177,-82.642,1.5
10.9552,128.181912,37.90744,5517.5914032,-4.258,-82.621,1.341
10.9719,128.181913,37.907441,5512.908456000001,-4.331,-82.612,1.149
10.9886,128.181913,37.907442,5508.2248992,-4.393,-82.614,0.934
11.0053,128.181914,37.907443,5503.5401232,-4.439,-82.624,0.7
11.022,128.181914,37.907444,5498.854128000001,-4.464,-82.637,0.457
11.0387,128.181915,37.907445,5494.1672184,-4.468,-82.649,0.216
11.0554,128.181915,37.907446,5489.47848,-4.453,-82.658,359.982
11.072,128.181916,37.907448,5484.7885224,-4.421,-82.661,359.762
11.0887,128.181916,37.907449,5480.0973456,-4.379,-82.659,359.558
11.1054,128.181917,37.907451,5475.4049496,-4.332,-82.652,359.375
11.1222,128.181917,37.907452,5470.710724800001,-4.287,-82.641,359.219
11.1389,128.181918,37.907454,5466.014976,-4.247,-82.629,359.096
11.1556,128.181918,37.907455,5461.3177032,-4.217,-82.616,359.014
11.1723,128.181918,37.907457,5456.618906400001,-4.198,-82.603,358.979
11.189,128.181919,37.907459,5451.9182808,-4.193,-82.589,358.995
11.2057,128.181919,37.90746,5447.2158264,-4.201,-82.576,359.063
11.2224,128.18192,37.907462,5442.5112384,-4.232,-82.578,359.19
11.2391,128.18192,37.907464,5437.8054312,-4.288,-82.594,359.372
11.2557,128.18192,37.907466,5433.0977952,-4.369,-82.621,359.602
11.2724,128.181921,37.907468,5428.38894,-4.475,-82.654,359.866
11.2891,128.181921,37.90747,5423.679170400001,-4.603,-82.688,0.152
11.3059,128.181922,37.907472,5418.9681816,-4.75,-82.721,0.445
11.3226,128.181922,37.907475,5414.2562784,-4.912,-82.75,0.736
11.3393,128.181922,37.907477,5409.5434608000005,-5.08,-82.774,1.016
11.356,128.181923,37.907479,5404.8297288,-5.249,-82.792,1.279
11.3727,128.181923,37.907482,5400.114777600001,-5.411,-82.804,1.52
11.3894,128.181923,37.907484,5395.398912,-5.563,-82.812,1.731
11.4061,128.181924,37.907487,5390.682741600001,-5.697,-82.816,1.9
11.4228,128.181924,37.907489,5385.965352000001,-5.812,-82.817,2.019
11.4394,128.181924,37.907492,5381.2476576,-5.906,-82.816,2.084
11.4561,128.181925,37.907495,5376.5293536,-5.981,-82.813,2.091
11.4728,128.181925,37.907498,5371.81044,-6.036,-82.808,2.04
11.4896,128.181925,37.907501,5367.0909168,-6.07,-82.801,1.932
11.5063,128.181926,37.907504,5362.370784000001,-6.082,-82.793,1.771
11.523,128.181926,37.907507,5357.649432,-6.07,-82.784,1.564
11.5397,128.181926,37.90751,5352.927165600001,-6.032,-82.773,1.317
11.5564,128.181927,37.907513,5348.20368,-5.967,-82.76,1.04
11.5731,128.181927,37.907517,5343.4789752,-5.873,-82.746,0.743
11.5898,128.181927,37.90752,5338.7527464,-5.754,-82.731,0.436
11.6065,128.181927,37.907523,5334.0249936,-5.615,-82.713,0.131
11.6231,128.181928,37.907527,5329.2957168,-5.462,-82.693,359.835
11.6398,128.181928,37.90753,5324.5652208,-5.301,-82.67,359.553
11.6565,128.181928,37.907534,5319.832896000001,-5.142,-82.647,359.293
11.6733,128.181928,37.907537,5315.0990472,-4.989,-82.625,359.061
11.69,128.181929,37.907541,5310.3636744000005,-4.85,-82.604,358.868
11.7067,128.181929,37.907544,5305.626168,-4.726,-82.586,358.724
11.7234,128.181929,37.907548,5300.886528,-4.62,-82.57,358.638
11.7401,128.181929,37.907551,5296.1450592,-4.529,-82.556,358.615
11.7568,128.18193,37.907555,5291.401152,-4.451,-82.544,358.66
11.7735,128.18193,37.907559,5286.655416,-4.388,-82.534,358.771
11.7902,128.18193,37.907562,5281.907241600001,-4.339,-82.525,358.945
11.8068,128.18193,37.907566,5277.157848,-4.308,-82.516,359.171
11.8235,128.181931,37.90757,5272.4066256,-4.299,-82.507,359.438
11.8402,128.181931,37.907574,5267.653879200001,-4.314,-82.496,359.733
11.857,128.181931,37.907578,5262.8999136,-4.353,-82.485,0.039
11.8737,128.181931,37.907581,5258.145033600001,-4.414,-82.472,0.34
11.8904,128.181931,37.907585,5253.3892392,-4.49,-82.456,0.624
11.9071,128.181931,37.907589,5248.6325304,-4.573,-82.438,0.882
11.9238,128.181932,37.907593,5243.8749072,-4.655,-82.419,1.111
11.9405,128.181932,37.907598,5239.116674400001,-4.731,-82.4,1.304
11.9572,128.181932,37.907602,5234.3575272,-4.796,-82.383,1.451
11.9739,128.181932,37.907606,5229.598379999999,-4.849,-82.366,1.543
11.9905,128.181932,37.90761,5224.8386232,-4.889,-82.352,1.569
12.0072,128.181933,37.907615,5220.078561599999,-4.92,-82.34,1.528
12.0239,128.181933,37.907619,5215.3181952,-4.946,-82.329,1.419
12.0407,128.181933,37.907624,5210.557828800001,-4.966,-82.32,1.247
12.0574,128.181933,37.907628,5205.796547999999,-4.981,-82.311,1.022
12.0741,128.181933,37.907633,5201.034352799999,-4.989,-82.303,0.76
12.0908,128.181933,37.907638,5196.2712432,-4.987,-82.295,0.477
12.1075,128.181933,37.907642,5191.506914400001,-4.976,-82.286,0.192
12.1242,128.181934,37.907647,5186.7413664,-4.96,-82.275,359.925
12.1409,128.181934,37.907652,5181.9742944,-4.943,-82.262,359.687
12.1576,128.181934,37.907657,5177.2053936,-4.931,-82.247,359.486
12.1743,128.181934,37.907661,5172.434664,-4.928,-82.23,359.323
12.1909,128.181934,37.907666,5167.6624104,-4.94,-82.214,359.204
12.2076,128.181934,37.907671,5162.8880232,-4.966,-82.198,359.131
12.2243,128.181934,37.907676,5158.1115024,-5.005,-82.184,359.109
12.2411,128.181934,37.907681,5153.3331528,-5.054,-82.171,359.137
12.2578,128.181935,37.907686,5148.552669600001,-5.11,-82.16,359.214
12.2745,128.181935,37.907691,5143.770357599999,-5.168,-82.15,359.332
12.2912,128.181935,37.907696,5138.9862168,-5.225,-82.141,359.481
12.3079,128.181935,37.907701,5134.200552000001,-5.278,-82.133,359.648
12.3246,128.181935,37.907706,5129.413668,-5.325,-82.124,359.818
12.3413,128.181935,37.907711,5124.625564800001,-5.363,-82.115,359.98
12.358,128.181935,37.907716,5119.836242400001,-5.391,-82.106,0.123
12.3746,128.181935,37.907721,5115.0457008,-5.408,-82.095,0.242
12.3913,128.181935,37.907726,5110.25394,-5.41,-82.084,0.332
12.408,128.181935,37.907731,5105.4612648,-5.398,-82.072,0.396
12.4248,128.181935,37.907736,5100.667065600001,-5.372,-82.06,0.434
12.4415,128.181936,37.907742,5095.871952,-5.334,-82.05,0.445
12.4582,128.181936,37.907747,5091.075924000001,-5.287,-82.04,0.432
12.4749,128.181936,37.907752,5086.2786768000005,-5.235,-82.031,0.396
12.4916,128.181936,37.907758,5081.480210400001,-5.18,-82.022,0.342
12.5083,128.181936,37.907763,5076.680220000001,-5.125,-82.015,0.274
12.525,128.181936,37.907769,5071.879315200001,-5.074,-82.007,0.198
12.5417,128.181936,37.907774,5067.0771912,-5.028,-82.0,0.12
12.5583,128.181936,37.90778,5062.273238400001,-4.989,-81.993,0.044
12.575,128.181936,37.907785,5057.4680664,-4.958,-81.985,359.975
12.5917,128.181936,37.907791,5052.6616752,-4.935,-81.977,359.916
12.6085,128.181936,37.907796,5047.8534552,-4.92,-81.969,359.867
12.6252,128.181936,37.907802,5043.043711200001,-4.912,-81.96,359.829
12.6419,128.181936,37.907807,5038.232747999999,-4.911,-81.95,359.801
12.6586,128.181936,37.907813,5033.4202608000005,-4.915,-81.94,359.781
12.6753,128.181936,37.907819,5028.6062496,-4.924,-81.93,359.77
12.692,128.181936,37.907825,5023.7907144,-4.936,-81.921,359.765
12.7087,128.181936,37.90783,5018.97396,-4.95,-81.912,359.765
12.7254,128.181936,37.907836,5014.1553768,-4.965,-81.904,359.77
12.742,128.181936,37.907842,5009.335574400001,-4.98,-81.896,359.777
12.7587,128.181936,37.907848,5004.5142479999995,-4.994,-81.889,359.786
12.7754,128.181936,37.907853,4999.6913976000005,-5.006,-81.882,359.796
12.7922,128.181936,37.907859,4994.8670232,-5.016,-81.875,359.805
12.8089,128.181936,37.907865,4990.0411248,-5.023,-81.868,359.813
12.8256,128.181936,37.907871,4985.2140072,-5.028,-81.862,359.819
12.8423,128.181936,37.907877,4980.3853656,-5.031,-81.855,359.823
12.859,128.181936,37.907883,4975.555200000001,-5.032,-81.849,359.826
12.8757,128.181936,37.907889,4970.7235104,-5.03,-81.842,359.827
12.8924,128.181936,37.907895,4965.8906016,-5.028,-81.836,359.826
12.9091,128.181936,37.907901,4961.056168800001,-5.024,-81.83,359.824
12.9257,128.181936,37.907907,4956.220212,-5.019,-81.824,359.82
12.9424,128.181936,37.907913,4951.3827312,-5.014,-81.817,359.816
12.9591,128.181936,37.907919,4946.5437264,-5.009,-81.811,359.812
12.9759,128.181936,37.907925,4941.7031976,-5.004,-81.805,359.807
12.9926,128.181936,37.907931,4936.8614496,-4.999,-81.799,359.801
13.0093,128.181936,37.907938,4932.0178728,-4.994,-81.793,359.796
13.026,128.181936,37.907944,4927.1730768,-4.989,-81.788,359.791
13.0427,128.181936,37.90795,4922.3267568,-4.985,-81.782,359.786
13.0594,128.181936,37.907956,4917.4789128,-4.982,-81.777,359.782
13.0761,128.181936,37.907962,4912.6295448,-4.978,-81.771,359.777
13.0928,128.181936,37.907969,4907.778652800001,-4.975,-81.766,359.773
13.1095,128.181936,37.907975,4902.9262368,-4.972,-81.761,359.769
13.1262,128.181936,37.907981,4898.0722968,-4.97,-81.756,359.766
13.1429,128.181936,37.907987,4893.216832800001,-4.968,-81.751,359.762
13.1596,128.181936,37.907994,4888.3598448,-4.966,-81.746,359.759
13.1763,128.181936,37.908,4883.5013328000005,-4.963,-81.742,359.755
13.193,128.181936,37.908007,4878.6416016,-4.962,-81.737,359.752
13.2097,128.181936,37.908013,4873.7800416,-4.96,-81.732,359.749
13.2264,128.181935,37.908019,4868.9169576,-4.958,-81.728,359.746
13.2431,128.181935,37.908026,4864.0523496000005,-4.956,-81.723,359.743
13.2598,128.181935,37.908032,4859.1862176,-4.954,-81.719,359.74
13.2765,128.181935,37.908039,4854.3185616,-4.953,-81.715,359.737
13.2932,128.181935,37.908045,4849.4496864,-4.951,-81.711,359.735
13.3099,128.181935,37.908052,4844.5789824,-4.949,-81.707,359.732
13.3266,128.181935,37.908058,4839.7067544,-4.948,-81.703,359.729
13.3433,128.181935,37.908065,4834.833002400001,-4.946,-81.699,359.727
13.36,128.181935,37.908071,4829.9577264,-4.945,-81.696,359.724
13.3767,128.181935,37.908078,4825.0809264,-4.943,-81.692,359.721
13.3934,128.181935,37.908084,4820.2029072000005,-4.942,-81.688,359.719
13.4101,128.181935,37.908091,4815.3230592,-4.94,-81.685,359.716
13.4268,128.181935,37.908098,4810.4416872,-4.939,-81.681,359.714
13.4435,128.181935,37.908104,4805.5587912,-4.937,-81.677,359.711
13.4602,128.181934,37.908111,4800.674371200001,-4.936,-81.674,359.709
13.4769,128.181934,37.908118,4795.7884272,-4.934,-81.671,359.706
13.4936,128.181934,37.908124,4790.901264,-4.933,-81.667,359.704
13.5103,128.181934,37.908131,4786.012272,-4.932,-81.664,359.701
13.527,128.181934,37.908138,4781.1217560000005,-4.93,-81.661,359.699
13.5437,128.181934,37.908144,4776.229716,-4.929,-81.658,359.697
13.5604,128.181934,37.908151,4771.336152,-4.928,-81.654,359.694
13.5771,128.181934,37.908158,4766.441064000001,-4.926,-81.651,359.692
13.5938,128.181934,37.908165,4761.544452,-4.925,-81.648,359.69
13.6105,128.181934,37.908171,4756.646316,-4.924,-81.645,359.687
13.6272,128.181933,37.908178,4751.746656,-4.922,-81.642,359.685
13.6439,128.181933,37.908185,4746.8457768,-4.921,-81.639,359.683
13.6606,128.181933,37.908192,4741.9430688,-4.92,-81.636,359.68
13.6773,128.181933,37.908199,4737.0388368,-4.918,-81.633,359.678
13.694,128.181933,37.908205,4732.1330808,-4.917,-81.63,359.676
13.7107,128.181933,37.908212,4727.225800800001,-4.916,-81.628,359.674
13.7274,128.181933,37.908219,4722.3169968,-4.914,-81.625,359.672
13.7441,128.181933,37.908226,4717.4066688,-4.913,-81.622,359.67
13.7608,128.181933,37.908233,4712.4948168,-4.911,-81.619,359.667
13.7775,128.181932,37.90824,4707.581440800001,-4.91,-81.616,359.665
13.7942,128.181932,37.908247,4702.6665408,-4.909,-81.614,359.663
13.8109,128.181932,37.908254,4697.750116800001,-4.907,-81.611,359.661
13.8276,128.181932,37.908261,4692.8321688000005,-4.906,-81.608,359.659
13.8443,128.181932,37.908268,4687.912392,-4.904,-81.606,359.657
13.861,128.181932,37.908275,4682.991396,-4.903,-81.604,359.655
13.8777,128.181932,37.908282,4678.068876,-4.901,-81.601,359.653
13.8944,128.181932,37.908289,4673.144832,-4.9,-81.599,359.651
13.9111,128.181932,37.908296,4668.219264,-4.898,-81.597,359.649
13.9278,128.181931,37.908303,4663.292172,-4.897,-81.595,359.647
13.9445,128.181931,37.90831,4658.363556,-4.895,-81.592,359.645
13.9612,128.181931,37.908317,4653.4331112,-4.894,-81.59,359.643
13.9779,128.181931,37.908324,4648.5014472,-4.892,-81.588,359.641
13.9946,128.181931,37.908331,4643.5682592,-4.89,-81.586,359.639
14.0113,128.181931,37.908338,4638.6335472,-4.888,-81.584,359.637
14.028,128.181931,37.908345,4633.6973112000005,-4.887,-81.582,359.635
14.0447,128.18193,37.908352,4628.759246400001,-4.885,-81.58,359.633
14.0614,128.18193,37.908359,4623.819962400001,-4.883,-81.578,359.631
14.0781,128.18193,37.908366,4618.8791544000005,-4.88,-81.575,359.63
14.0948,128.18193,37.908373,4613.9365176,-4.878,-81.573,359.628
14.1115,128.18193,37.90838,4608.9926616,-4.875,-81.571,359.626
14.1282,128.18193,37.908388,4604.0472816,-4.873,-81.569,359.624
14.1449,128.18193,37.908395,4599.1000728,-4.87,-81.567,359.623
14.1616,128.181929,37.908402,4594.1516448,-4.867,-81.565,359.621
14.1783,128.181929,37.908409,4589.201388,-4.863,-81.564,359.62
14.195,128.181929,37.908416,4584.249912,-4.859,-81.562,359.618
14.2117,128.181929,37.908423,4579.2966072,-4.855,-81.56,359.617
14.2284,128.181929,37.908431,4574.3420832,-4.85,-81.558,359.616
14.2451,128.181929,37.908438,4569.3857304,-4.845,-81.556,359.614
14.2618,128.181929,37.908445,4564.4281584,-4.84,-81.554,359.612
14.2785,128.181928,37.908452,4559.468757600001,-4.834,-81.553,359.61
14.2952,128.181928,37.90846,4554.5081376,-4.829,-81.551,359.607
14.3119,128.181928,37.908467,4549.5456888,-4.824,-81.549,359.604
14.3286,128.181928,37.908474,4544.5820208000005,-4.82,-81.547,359.601
14.3453,128.181928,37.908481,4539.6168288,-4.817,-81.545,359.597
14.362,128.181928,37.908489,4534.6501128,-4.814,-81.543,359.594
14.3787,128.181927,37.908496,4529.681568,-4.812,-81.54,359.591
14.3954,128.181927,37.908503,4524.7118040000005,-4.811,-81.537,359.588
14.4121,128.181927,37.90851,4519.740516,-4.81,-81.534,359.585
14.4288,128.181927,37.908518,4514.767704,-4.809,-81.531,359.582
14.4455,128.181927,37.908525,4509.793368000001,-4.808,-81.528,359.579
14.4622,128.181927,37.908532,4504.817508,-4.808,-81.524,359.576
14.4789,128.181927,37.90854,4499.840124,-4.807,-81.52,359.573
14.4956,128.181926,37.908547,4494.861216,-4.806,-81.516,359.57
14.5123,128.181926,37.908554,4489.880784,-4.806,-81.512,359.567
14.529,128.181926,37.908562,4484.898828,-4.805,-81.508,359.564
14.5457,128.181926,37.908569,4479.915348,-4.805,-81.504,359.561
14.5624,128.181926,37.908576,4474.930344,-4.804,-81.499,359.558
14.5791,128.181926,37.908584,4469.943816,-4.803,-81.495,359.554
14.5958,128.181925,37.908591,4464.9560688,-4.802,-81.49,359.551
14.6125,128.181925,37.908599,4459.9664928,-4.801,-81.485,359.547
14.6292,128.181925,37.908606,4454.9756976,-4.8,-81.48,359.543
14.6459,128.181925,37.908613,4449.9830736,-4.799,-81.475,359.539
14.6626,128.181925,37.908621,4444.9892304,-4.797,-81.47,359.535
14.6793,128.181924,37.908628,4439.9938632,-4.796,-81.464,359.531
14.696,128.181924,37.908636,4434.996972,-4.795,-81.459,359.527
14.7127,128.181924,37.908643,4429.9985568,-4.794,-81.453,359.523
14.7294,128.181924,37.908651,4424.9986176,-4.792,-81.448,359.519
14.7461,128.181924,37.908658,4419.9971544,-4.791,-81.442,359.515
14.7628,128.181924,37.908665,4414.9941671999995,-4.79,-81.436,359.511
14.7795,128.181923,37.908673,4409.9899608000005,-4.789,-81.43,359.507
14.7962,128.181923,37.90868,4404.9839256000005,-4.787,-81.424,359.503
14.8129,128.181923,37.908688,4399.9766712,-4.786,-81.418,359.498
14.8296,128.181923,37.908695,4394.9678928,-4.784,-81.412,359.494
14.8463,128.181923,37.908703,4389.9575904,-4.783,-81.406,359.489
14.863,128.181923,37.90871,4384.945764,-4.781,-81.4,359.485
14.8797,128.181922,37.908718,4379.9324136000005,-4.779,-81.393,359.48
14.8964,128.181922,37.908725,4374.917539200001,-4.778,-81.387,359.476
14.9131,128.181922,37.908733,4369.9014456,-4.776,-81.38,359.471
14.9298,128.181922,37.908741,4364.883828,-4.777,-81.374,359.468
14.9465,128.181922,37.908748,4359.8646864,-4.782,-81.367,359.468
14.9632,128.181921,37.908756,4354.8440208,-4.788,-81.36,359.468
14.9799,128.181921,37.908763,4349.8218312,-4.795,-81.354,359.469
14.9966,128.181921,37.908771,4344.7984224,-4.802,-81.347,359.469
15.0133,128.181921,37.908778,4339.7731848,-4.809,-81.34,359.47
15.03,128.181921,37.908786,4334.746728,-4.815,-81.333,359.469
15.0467,128.18192,37.908794,4329.719052,-4.82,-81.326,359.469
15.0634,128.18192,37.908801,4324.6895472,-4.826,-81.319,359.467
15.0801,128.18192,37.908809,4319.6588232,-4.83,-81.312,359.466
15.0968,128.18192,37.908816,4314.6265752,-4.835,-81.305,359.464
15.1135,128.18192,37.908824,4309.5928032,-4.839,-81.297,359.462
15.1302,128.181919,37.908832,4304.5575072,-4.843,-81.29,359.46
15.1469,128.181919,37.908839,4299.520992000001,-4.847,-81.283,359.457
15.1636,128.181919,37.908847,4294.4829528,-4.851,-81.276,359.455
15.1803,128.181919,37.908855,4289.4433896,-4.855,-81.268,359.452
15.197,128.181919,37.908862,4284.4023024,-4.858,-81.261,359.449
15.2137,128.181918,37.90887,4279.359996,-4.861,-81.253,359.445
15.2304,128.181918,37.908878,4274.3161656,-4.864,-81.246,359.442
15.2471,128.181918,37.908885,4269.2708112,-4.867,-81.239,359.438
