Time,Longitude,Latitude,Altitude,Roll (deg),Pitch (deg),Yaw (deg)
0.0,128.181881,37.923646,7000.146528,0.0,-0.003,0.0
0.0167,128.181881,37.923691,7000.1605488000005,0.0,-0.012,0.0
0.0334,128.181881,37.923736,7000.1733504,0.087,-0.013,0.011
0.0501,128.181881,37.923781,7000.1843232,0.258,0.007,0.034
0.0668,128.181881,37.923826,7000.1940768,0.516,0.063,0.064
0.0834,128.181881,37.92387,7000.20444,0.69,0.166,0.076
0.1002,128.181881,37.923915,7000.2157176,0.783,0.328,0.067
0.1169,128.181881,37.92396,7000.228519200001,0.79,0.557,0.045
0.1336,128.181881,37.924005,7000.2443688,0.702,0.86,0.017
0.1503,128.181881,37.92405,7000.263876,0.519,1.239,359.985
0.1669,128.181881,37.924095,7000.2876504000005,0.239,1.681,359.951
0.1837,128.181881,37.92414,7000.314472800001,0.04,2.173,359.94
0.2004,128.181881,37.924185,7000.3452576,-0.081,2.703,359.951
0.2171,128.181881,37.92423,7000.3800048,-0.116,3.251,359.976
0.2338,128.181881,37.924275,7000.418714400001,-0.058,3.803,0.008
0.2505,128.181881,37.92432,7000.4616912,0.095,4.34,0.045
0.2672,128.181881,37.924365,7000.5089352,0.344,4.847,0.083
0.2839,128.181881,37.92441,7000.5622752,0.514,5.32,0.1
0.3006,128.181881,37.924455,7000.6223208,0.609,5.762,0.095
0.3172,128.181881,37.9245,7000.6896816,0.619,6.175,0.076
0.3339,128.181881,37.924545,7000.765272000001,0.539,6.562,0.049
0.3507,128.181881,37.92459,7000.849701600001,0.369,6.924,0.017
0.3674,128.181881,37.924635,7000.9432752,0.109,7.265,359.983
0.3841,128.181881,37.92468,7001.044773600001,-0.074,7.586,359.97
0.4008,128.181881,37.924724,7001.155111200001,-0.183,7.888,359.977
0.4175,128.181881,37.924769,7001.272764,-0.212,8.158,359.997
0.4342,128.181881,37.924814,7001.3980368,-0.156,8.38,0.026
0.4509,128.181881,37.924859,7001.529710400001,-0.012,8.541,0.06
0.4676,128.181881,37.924904,7001.6677848,0.217,8.625,0.095
0.4843,128.181881,37.924949,7001.8140888,0.373,8.649,0.109
0.501,128.181881,37.924994,7001.967708,0.458,8.626,0.103
0.5176,128.181881,37.925039,7002.1295568000005,0.465,8.573,0.083
0.5344,128.181881,37.925084,7002.2996352,0.389,8.504,0.055
0.5511,128.181881,37.925129,7002.478247999999,0.227,8.434,0.022
0.5678,128.181881,37.925174,7002.6657000000005,-0.02,8.377,359.986
0.5845,128.181881,37.925218,7002.862905600001,-0.355,8.346,359.95
0.6012,128.181881,37.925263,7003.0674264,-0.61,8.353,359.934
0.6179,128.181881,37.925308,7003.279872,-0.79,8.386,359.939
0.6345,128.181881,37.925353,7003.499023200001,-0.886,8.435,359.958
0.6513,128.181881,37.925398,7003.72488,-0.895,8.486,359.986
0.6679,128.181881,37.925443,7003.9598808,-0.977,8.552,359.996
0.6847,128.181881,37.925488,7004.2031112,-1.128,8.645,359.986
0.7014,128.181881,37.925532,7004.4554856,-1.353,8.775,359.963
0.7181,128.181881,37.925577,7004.717918400001,-1.658,8.946,359.929
0.7348,128.181881,37.925622,7004.9898,-2.044,9.148,359.889
0.7514,128.181881,37.925667,7005.272654400001,-2.512,9.375,359.845
0.7682,128.181881,37.925711,7005.5661768,-3.06,9.619,359.797
0.7848,128.181881,37.925756,7005.871281600001,-3.685,9.872,359.747
0.8016,128.181881,37.925801,7006.188273600001,-4.386,10.129,359.693
0.8183,128.181881,37.925846,7006.516543199999,-5.16,10.387,359.637
0.835,128.181881,37.92589,7006.8567,-6.004,10.642,359.577
0.8517,128.181881,37.925935,7007.2084392,-6.915,10.893,359.514
0.8684,128.181881,37.925979,7007.572370400001,-7.89,11.138,359.447
0.8851,128.181881,37.926024,7007.9481888,-8.928,11.376,359.377
0.9018,128.181881,37.926069,7008.3361992,-10.027,11.608,359.302
0.9185,128.181881,37.926113,7008.7360968,-11.184,11.833,359.222
0.9352,128.18188,37.926158,7009.1478816,-12.397,12.052,359.138
0.9519,128.18188,37.926202,7009.5721632,-13.666,12.263,359.049
0.9686,128.18188,37.926247,7010.008332,-14.988,12.468,358.954
0.9853,128.18188,37.926291,7010.4563880000005,-16.363,12.667,358.854
1.002,128.181879,37.926336,7010.916636,-17.789,12.86,358.749
1.0187,128.181879,37.92638,7011.3884664,-19.265,13.046,358.637
1.0353,128.181878,37.926425,7011.8724888,-20.79,13.227,358.519
1.0521,128.181878,37.926469,7012.3680936,-22.364,13.402,358.395
1.0688,128.181877,37.926513,7012.8752808,-23.986,13.571,358.265
1.0855,128.181877,37.926558,7013.3940504,-25.655,13.735,358.127
1.1022,128.181876,37.926602,7013.923792800001,-27.37,13.894,357.983
1.1189,128.181875,37.926646,7014.4648128,-29.132,14.047,357.831
1.1356,128.181875,37.92669,7015.0165008,-30.939,14.195,357.672
1.1522,128.181874,37.926735,7015.5791616,-32.792,14.337,357.505
1.169,128.181873,37.926779,7016.1518808,-34.69,14.473,357.331
1.1857,128.181871,37.926823,7016.7349632000005,-36.632,14.603,357.149
1.2024,128.18187,37.926867,7017.3277992,-38.62,14.728,356.958
1.2191,128.181869,37.926911,7017.9300840000005,-40.651,14.846,356.759
1.2358,128.181868,37.926955,7018.5415128,-42.728,14.958,356.551
1.2525,128.181866,37.926999,7019.1617808,-44.848,15.062,356.335
1.2691,128.181865,37.927044,7019.790278400001,-47.013,15.16,356.111
1.2859,128.181863,37.927088,7020.4270056000005,-49.223,15.25,355.877
1.3026,128.181861,37.927132,7021.0716576,-51.476,15.331,355.635
1.3193,128.181859,37.927176,7021.723015200001,-53.775,15.405,355.384
1.3359,128.181857,37.927219,7022.3813832000005,-56.117,15.469,355.124
1.3527,128.181855,37.927263,7023.046152000001,-58.505,15.523,354.856
1.3694,128.181852,37.927307,7023.716712,-60.937,15.568,354.579
1.386,128.18185,37.927351,7024.3924536,-63.414,15.601,354.293
1.4028,128.181847,37.927395,7025.073072,-65.937,15.622,353.999
1.4195,128.181845,37.927439,7025.7579576,-68.506,15.631,353.697
1.4362,128.181842,37.927483,7026.446500800001,-71.12,15.626,353.387
1.4528,128.181839,37.927526,7027.138396800001,-73.779,15.606,353.069
1.4696,128.181836,37.92757,7027.8327312,-76.482,15.57,352.743
1.4863,128.181832,37.927614,7028.529504,-79.228,15.515,352.412
1.5029,128.181829,37.927658,7029.227496,-82.018,15.442,352.073
1.5197,128.181825,37.927701,7029.9267072,-84.85,15.348,351.73
1.5364,128.181822,37.927745,7030.626528000001,-87.723,15.233,351.383
1.5531,128.181818,37.927789,7031.3257392,-90.637,15.095,351.033
1.5697,128.181814,37.927832,7032.0246456,-93.592,14.933,350.682
1.5865,128.18181,37.927876,7032.722028,-96.585,14.747,350.33
1.6032,128.181806,37.92792,7033.417581600001,-99.617,14.535,349.981
1.6198,128.181801,37.927963,7034.1103920000005,-102.686,14.299,349.636
1.6366,128.181797,37.928007,7034.800459200001,-105.788,14.04,349.308
1.6533,128.181792,37.92805,7035.486868800001,-108.921,13.762,349.011
1.67,128.181787,37.928094,7036.1696208,-112.079,13.472,348.758
1.6867,128.181782,37.928137,7036.848105600001,-115.256,13.178,348.559
1.7034,128.181777,37.928181,7037.522323200001,-118.448,12.89,348.426
1.7201,128.181772,37.928225,7038.191664000001,-121.651,12.616,348.366
1.7368,128.181767,37.928268,7038.8564328,-124.861,12.37,348.387
1.7535,128.181762,37.928312,7039.5166296,-128.079,12.152,348.479
1.7702,128.181756,37.928355,7040.1719496000005,-131.31,11.958,348.625
1.7869,128.181751,37.928399,7040.822392800001,-134.554,11.782,348.81
1.8036,128.181746,37.928442,7041.4679592,-137.814,11.615,349.022
1.8203,128.18174,37.928486,7042.1089536,-141.092,11.451,349.248
1.837,128.181735,37.928529,7042.745376,-144.387,11.287,349.485
1.8537,128.181729,37.928573,7043.3772264,-147.698,11.122,349.729
1.8704,128.181723,37.928617,7044.005114400001,-151.027,10.958,349.978
1.8871,128.181718,37.92866,7044.6287352,-154.374,10.796,350.232
1.9038,128.181712,37.928704,7045.2486984,-157.74,10.637,350.488
1.9205,128.181706,37.928747,7045.8646992,-161.124,10.476,350.741
1.9372,128.181701,37.928791,7046.477042400001,-164.524,10.304,350.989
1.9539,128.181695,37.928834,7047.085728000001,-167.939,10.119,351.23
1.9706,128.181689,37.928878,7047.690451200001,-171.364,9.917,351.462
1.9873,128.181683,37.928922,7048.2915168,-174.797,9.695,351.685
2.004,128.181678,37.928965,7048.888620000001,-178.234,9.453,351.9
2.0207,128.181672,37.929009,7049.481760800001,178.327,9.189,352.106
2.0374,128.181666,37.929052,7050.0703296,174.892,8.904,352.305
2.0541,128.18166,37.929096,7050.6543264,171.463,8.596,352.497
2.0707,128.181655,37.929139,7051.2334464000005,168.043,8.265,352.683
2.0875,128.181649,37.929183,7051.80708,164.633,7.911,352.863
2.1042,128.181643,37.929227,7052.3752272,161.237,7.54,353.037
2.1208,128.181637,37.92927,7052.937278400001,157.859,7.156,353.208
2.1376,128.181632,37.929314,7053.4929288,154.518,6.767,353.382
2.1543,128.181626,37.929358,7054.0418736,151.225,6.382,353.565
2.171,128.18162,37.929401,7054.5841128,148.029,5.996,353.764
2.1877,128.181615,37.929445,7055.120256000001,144.976,5.611,353.977
2.2044,128.181609,37.929489,7055.6499984,142.104,5.235,354.202
2.2211,128.181603,37.929532,7056.17334,139.441,4.871,354.434
2.2378,128.181598,37.929576,7056.6908904,136.984,4.526,354.67
2.2544,128.181592,37.92962,7057.2023448,134.728,4.208,354.906
2.2712,128.181586,37.929663,7057.7083128,132.666,3.919,355.137
2.2879,128.181581,37.929707,7058.2087944,130.79,3.663,355.36
2.3045,128.181575,37.929751,7058.7037896,129.09,3.438,355.571
2.3213,128.18157,37.929795,7059.193908,127.559,3.244,355.768
2.338,128.181564,37.929839,7059.6791496000005,126.186,3.078,355.949
2.3546,128.181559,37.929882,7060.160124000001,124.963,2.941,356.11
2.3714,128.181553,37.929926,7060.637136,123.88,2.833,356.242
2.3881,128.181548,37.92997,7061.1101856000005,122.928,2.753,356.342
2.4048,128.181543,37.930014,7061.579272800001,122.102,2.7,356.409
2.4215,128.181537,37.930058,7062.044397600001,121.392,2.668,356.443
2.4382,128.181532,37.930102,7062.5061696,120.79,2.653,356.448
2.4549,128.181526,37.930146,7062.964284000001,120.29,2.649,356.427
2.4716,128.181521,37.93019,7063.418740800001,119.889,2.654,356.388
2.4882,128.181516,37.930233,7063.86954,119.586,2.663,356.335
2.505,128.18151,37.930277,7064.3166816,119.378,2.676,356.273
2.5217,128.181505,37.930321,7064.7604704000005,119.263,2.69,356.208
2.5383,128.1815,37.930365,7065.2006016000005,119.238,2.704,356.142
2.5551,128.181494,37.930409,7065.63738,119.301,2.716,356.079
2.5718,128.181489,37.930453,7066.0708056,119.449,2.725,356.021
2.5884,128.181484,37.930497,7066.5005736,119.679,2.731,355.97
2.6052,128.181478,37.930542,7066.9269888,119.989,2.73,355.929
2.6219,128.181473,37.930586,7067.350051200001,120.377,2.723,355.901
2.6386,128.181468,37.93063,7067.769760800001,120.84,2.708,355.885
2.6553,128.181462,37.930674,7068.1858128,121.376,2.686,355.881
2.6719,128.181457,37.930718,7068.598512,121.982,2.656,355.889
2.6887,128.181452,37.930762,7069.0078584,122.657,2.619,355.909
2.7054,128.181447,37.930806,7069.413852000001,123.397,2.574,355.94
2.722,128.181441,37.93085,7069.815883200001,124.202,2.522,355.982
2.7388,128.181436,37.930894,7070.2145616,125.068,2.46,356.035
2.7555,128.181431,37.930939,7070.6095824,125.995,2.391,356.097
2.7721,128.181426,37.930983,7071.0006408,126.979,2.312,356.17
2.7889,128.181421,37.931027,7071.3880416,128.02,2.224,356.252
2.8056,128.181415,37.931071,7071.77148,129.115,2.127,356.342
2.8222,128.18141,37.931116,7072.1506512000005,130.262,2.019,356.441
2.839,128.181405,37.93116,7072.525555200001,131.461,1.902,356.548
2.8557,128.1814,37.931204,7072.896192000001,132.709,1.773,356.661
2.8724,128.181395,37.931248,7073.262256800001,134.005,1.633,356.782
2.8891,128.18139,37.931293,7073.6234448000005,135.348,1.482,356.907
2.9057,128.181385,37.931337,7073.9800608000005,136.736,1.319,357.037
2.9225,128.18138,37.931381,7074.330276,138.155,1.146,357.17
2.9392,128.181375,37.931426,7074.6747000000005,139.59,0.963,357.307
2.9558,128.18137,37.93147,7075.012113600001,141.027,0.77,357.448
2.9726,128.181365,37.931514,7075.3425168,142.453,0.569,357.591
2.9893,128.18136,37.931559,7075.664995200001,143.857,0.359,357.734
3.0059,128.181355,37.931603,7075.9789392,145.231,0.141,357.877
3.0227,128.181351,37.931648,7076.2843488,146.567,-0.082,358.018
3.0394,128.181346,37.931692,7076.5800048,147.86,-0.311,358.156
3.056,128.181341,37.931737,7076.8659072,149.105,-0.546,358.29
3.0728,128.181337,37.931781,7077.141751200001,150.3,-0.783,358.419
3.0895,128.181332,37.931826,7077.406927200001,151.442,-1.023,358.541
3.1062,128.181328,37.93187,7077.6614352,152.531,-1.264,358.657
3.1229,128.181323,37.931915,7077.904665600001,153.565,-1.504,358.765
3.1395,128.181319,37.931959,7078.136618400001,154.547,-1.742,358.866
3.1563,128.181315,37.932004,7078.3572936,155.476,-1.977,358.958
3.173,128.18131,37.932048,7078.5660816,156.354,-2.208,359.043
3.1896,128.181306,37.932093,7078.762677600001,157.179,-2.436,359.12
3.2064,128.181302,37.932137,7078.9473864,157.953,-2.658,359.19
3.2231,128.181298,37.932182,7079.1192936,158.676,-2.876,359.253
3.2397,128.181294,37.932226,7079.2790088,159.347,-3.089,359.31
3.2565,128.18129,37.932271,7079.4271416,160.026,-3.299,359.358
3.2732,128.181286,37.932315,7079.563692000001,160.699,-3.505,359.397
3.2899,128.181282,37.93236,7079.6880504,161.349,-3.707,359.43
3.3066,128.181278,37.932404,7079.7993024,161.965,-3.905,359.461
3.3233,128.181274,37.932449,7079.897448,162.534,-4.099,359.49
3.34,128.18127,37.932494,7079.9818776,163.049,-4.29,359.519
3.3567,128.181266,37.932538,7080.0522864,163.509,-4.48,359.548
3.3734,128.181263,37.932583,7080.1086744,163.886,-4.653,359.581
3.3901,128.181259,37.932627,7080.1510416,164.181,-4.798,359.613
3.4068,128.181255,37.932672,7080.178778400001,164.397,-4.903,359.641
3.4235,128.181252,37.932717,7080.1924944,164.531,-4.955,359.658
3.4402,128.181248,37.932761,7080.193104,164.586,-4.945,359.66
3.4569,128.181245,37.932806,7080.1803024,164.561,-4.873,359.645
3.4736,128.181241,37.93285,7080.1543944000005,164.458,-4.755,359.619
3.4903,128.181238,37.932895,7080.1159896,164.278,-4.607,359.583
3.507,128.181234,37.932939,7080.0647832,164.025,-4.445,359.543
3.5237,128.181231,37.932984,7080.0016896,163.699,-4.278,359.502
3.5404,128.181228,37.933029,7079.926708800001,163.304,-4.114,359.461
3.5571,128.181224,37.933073,7079.8401456,162.841,-3.955,359.421
3.5738,128.181221,37.933118,7079.742609600001,162.313,-3.802,359.383
3.5905,128.181218,37.933162,7079.634100800001,161.723,-3.658,359.346
3.6072,128.181215,37.933207,7079.515228800001,161.071,-3.521,359.311
3.6239,128.181212,37.933251,7079.3872128,160.541,-3.398,359.266
3.6406,128.181208,37.933296,7079.2503576,160.129,-3.287,359.21
3.6573,128.181205,37.933341,7079.104968000001,159.837,-3.186,359.149
3.674,128.181202,37.933385,7078.9519584,159.668,-3.095,359.085
3.6907,128.181199,37.93343,7078.791938400001,159.62,-3.011,359.021
3.7074,128.181196,37.933474,7078.624908,159.692,-2.935,358.959
3.7241,128.181193,37.933519,7078.451781600001,159.871,-2.864,358.9
3.7408,128.18119,37.933564,7078.2728640000005,160.146,-2.799,358.845
3.7575,128.181187,37.933608,7078.088764800001,160.503,-2.739,358.795
3.7742,128.181184,37.933653,7077.899788799999,160.934,-2.684,358.749
3.7909,128.181181,37.933697,7077.706850400001,161.428,-2.632,358.707
3.8076,128.181178,37.933742,7077.5102544,161.978,-2.584,358.669
3.8243,128.181175,37.933787,7077.310305600001,162.575,-2.539,358.635
3.841,128.181172,37.933831,7077.1057848,163.214,-2.498,358.605
3.8577,128.181169,37.933876,7076.897911200001,163.887,-2.46,358.578
3.8744,128.181167,37.933921,7076.68638,164.592,-2.426,358.553
3.8911,128.181164,37.933966,7076.4708864,165.323,-2.394,358.532
3.9078,128.181161,37.93401,7076.2517352,166.077,-2.366,358.513
3.9245,128.181158,37.934055,7076.0289264,166.85,-2.341,358.496
3.9412,128.181155,37.9341,7075.802460000001,167.639,-2.318,358.481
3.9579,128.181152,37.934144,7075.572336,168.443,-2.298,358.467
3.9746,128.181149,37.934189,7075.3388592,169.26,-2.281,358.456
3.9913,128.181146,37.934234,7075.1020296,170.087,-2.266,358.446
4.008,128.181143,37.934279,7074.861542400001,170.924,-2.254,358.437
4.0247,128.18114,37.934324,7074.6180072,171.769,-2.244,358.429
4.0414,128.181138,37.934368,7074.3708144,172.62,-2.237,358.422
4.058,128.181135,37.934413,7074.1205736,173.477,-2.231,358.416
4.0748,128.181132,37.934458,7073.8672848,174.341,-2.228,358.41
4.0915,128.181129,37.934503,7073.610948,175.209,-2.227,358.406
4.1082,128.181126,37.934548,7073.3512584,176.082,-2.228,358.402
4.1249,128.181123,37.934592,7073.0885208,176.957,-2.231,358.399
4.1415,128.18112,37.934637,7072.82304,177.835,-2.235,358.396
4.1583,128.181118,37.934682,7072.554511200001,178.715,-2.242,358.393
4.175,128.181115,37.934727,7072.2829344,179.596,-2.25,358.391
4.1917,128.181112,37.934772,7072.008614400001,-179.522,-2.26,358.389
4.2084,128.181109,37.934817,7071.7315512000005,-178.642,-2.272,358.388
4.2251,128.181106,37.934862,7071.45144,-177.763,-2.285,358.387
4.2417,128.181103,37.934907,7071.1685856,-176.885,-2.299,358.386
4.2585,128.181101,37.934952,7070.882988000001,-176.01,-2.315,358.386
4.2752,128.181098,37.934997,7070.5946472000005,-175.137,-2.333,358.385
4.2919,128.181095,37.935042,7070.3035632,-174.269,-2.352,358.384
4.3086,128.181092,37.935087,7070.009736,-173.403,-2.372,358.384
4.3252,128.181089,37.935131,7069.713470400001,-172.54,-2.393,358.383
4.342,128.181087,37.935176,7069.414461599999,-171.682,-2.415,358.383
4.3587,128.181084,37.935221,7069.112709600001,-170.828,-2.438,358.382
4.3754,128.181081,37.935266,7068.808214400001,-169.979,-2.462,358.382
4.3921,128.181078,37.935311,7068.5012808,-169.136,-2.487,358.381
4.4088,128.181075,37.935356,7068.191604000001,-168.301,-2.513,358.38
4.4254,128.181073,37.935402,7067.878269600001,-167.578,-2.542,358.387
4.4422,128.18107,37.935447,7067.561582400001,-166.965,-2.573,358.4
4.4589,128.181067,37.935492,7067.2406280000005,-166.462,-2.606,358.417
4.4756,128.181064,37.935537,7066.915711200001,-166.069,-2.641,358.436
4.4923,128.181061,37.935582,7066.5859176,-165.784,-2.677,358.455
4.5089,128.181059,37.935627,7066.251247200001,-165.605,-2.715,358.473
4.5256,128.181056,37.935672,7065.911395200001,-165.529,-2.754,358.491
4.5424,128.181053,37.935717,7065.566056800001,-165.551,-2.793,358.508
4.5591,128.18105,37.935762,7065.2146224,-165.668,-2.834,358.524
4.5758,128.181047,37.935807,7064.857396800001,-165.878,-2.876,358.538
4.5925,128.181045,37.935852,7064.4946848,-166.175,-2.919,358.552
4.6091,128.181042,37.935897,7064.126181600001,-166.557,-2.962,358.566
4.6259,128.181039,37.935942,7063.751887200001,-167.021,-3.006,358.578
4.6426,128.181036,37.935987,7063.372106400001,-167.563,-3.05,358.59
4.6593,128.181033,37.936032,7062.9868392,-168.18,-3.095,358.602
4.676,128.18103,37.936077,7062.5957808,-168.869,-3.14,358.613
4.6927,128.181028,37.936122,7062.1989312000005,-169.626,-3.186,358.623
4.7093,128.181025,37.936167,7061.7965952,-170.45,-3.231,358.633
4.7261,128.181022,37.936212,7061.3887728,-171.337,-3.277,358.643
4.7428,128.181019,37.936257,7060.9751592,-172.285,-3.322,358.653
4.7595,128.181016,37.936303,7060.5560592,-173.29,-3.368,358.663
4.7762,128.181013,37.936348,7060.131168,-174.351,-3.413,358.673
4.7928,128.181011,37.936393,7059.7007904,-175.464,-3.458,358.682
4.8096,128.181008,37.936438,7059.2646216,-176.627,-3.502,358.692
4.8263,128.181005,37.936483,7058.8229664,-177.837,-3.546,358.702
4.843,128.181002,37.936528,7058.3755200000005,-179.093,-3.59,358.711
4.8597,128.180999,37.936573,7057.922282400001,179.607,-3.633,358.721
4.8764,128.180996,37.936618,7057.4635584,178.267,-3.676,358.731
4.893,128.180993,37.936663,7056.9990431999995,176.889,-3.717,358.741
4.9098,128.180991,37.936708,7056.528736800001,175.475,-3.759,358.751
4.9265,128.180988,37.936753,7056.052944,174.026,-3.799,358.761
4.9432,128.180985,37.936798,7055.571360000001,172.544,-3.838,358.771
4.9599,128.180982,37.936843,7055.0839848,171.032,-3.877,358.781
4.9765,128.180979,37.936888,7054.5908184,169.491,-3.915,358.792
4.9932,128.180977,37.936933,7054.092165600001,167.924,-3.952,358.802
5.01,128.180974,37.936978,7053.5874168,166.331,-3.988,358.813
5.0267,128.180971,37.937023,7053.077181600001,164.714,-4.023,358.823
5.0434,128.180968,37.937068,7052.561155200001,163.076,-4.057,358.833
5.0601,128.180966,37.937113,7052.039642400001,161.417,-4.09,358.844
5.0767,128.180963,37.937158,7051.512033600001,159.74,-4.122,358.854
5.0935,128.18096,37.937204,7050.9789384000005,158.044,-4.153,358.864
5.1102,128.180957,37.937249,7050.440052000001,156.333,-4.183,358.874
5.1269,128.180955,37.937294,7049.895374400001,154.607,-4.212,358.883
5.1436,128.180952,37.937339,7049.345210400001,152.868,-4.24,358.892
5.1602,128.18095,37.937384,7048.7892552,151.116,-4.267,358.901
5.1769,128.180947,37.937429,7048.2281184,149.353,-4.293,358.91
5.1937,128.180944,37.937474,7047.6608856,147.58,-4.318,358.918
5.2104,128.180942,37.937519,7047.0884712,145.798,-4.342,358.926
5.2271,128.180939,37.937564,7046.510570400001,144.008,-4.365,358.933
5.2438,128.180937,37.937609,7045.9271832,142.21,-4.388,358.94
5.2604,128.180934,37.937654,7045.338309600001,140.407,-4.409,358.946
5.2772,128.180932,37.937699,7044.7442544000005,138.598,-4.429,358.952
5.2939,128.18093,37.937744,7044.1447128,136.785,-4.449,358.957
5.3106,128.180927,37.937789,7043.5402944,134.968,-4.468,358.961
5.3273,128.180925,37.937834,7042.9306944,133.148,-4.486,358.964
5.3439,128.180923,37.937879,7042.3159128,131.325,-4.504,358.967
5.3606,128.180921,37.937924,7041.696254400001,129.501,-4.52,358.969
5.3774,128.180918,37.937969,7041.0714144,127.675,-4.537,358.97
5.3941,128.180916,37.938015,7040.4423072,125.849,-4.553,358.97
5.4108,128.180914,37.93806,7039.8080184,124.023,-4.568,358.97
5.4275,128.180912,37.938105,7039.1694624,122.197,-4.583,358.968
5.4441,128.18091,37.93815,7038.5263343999995,120.372,-4.599,358.969
5.4609,128.180908,37.938195,7037.8786344,118.547,-4.619,358.975
5.4776,128.180906,37.93824,7037.2263624,116.723,-4.642,358.989
5.4943,128.180904,37.938285,7036.570128,114.9,-4.671,359.012
5.511,128.180902,37.93833,7035.9096264,113.079,-4.703,359.045
5.5277,128.180901,37.938375,7035.2451624000005,111.259,-4.738,359.088
5.5443,128.180899,37.93842,7034.5764312,109.442,-4.777,359.142
5.5611,128.180897,37.938465,7033.9040424,107.628,-4.819,359.206
5.5778,128.180896,37.93851,7033.227691200001,105.816,-4.862,359.28
5.5945,128.180894,37.938556,7032.547682400001,104.009,-4.905,359.364
5.6112,128.180893,37.938601,7031.8643208,102.206,-4.949,359.457
5.6278,128.180891,37.938646,7031.177301600001,100.407,-4.992,359.558
5.6445,128.18089,37.938691,7030.4872344,98.612,-5.032,359.665
5.6613,128.180889,37.938736,7029.793814400001,96.821,-5.071,359.776
5.678,128.180888,37.938781,7029.097651200001,95.034,-5.106,359.892
5.6947,128.180887,37.938826,7028.3987448,93.25,-5.138,0.011
5.7114,128.180886,37.938871,7027.6970952,91.469,-5.166,0.132
5.728,128.180885,37.938916,7026.993312,89.691,-5.19,0.253
5.7448,128.180884,37.938962,7026.2870904,87.914,-5.21,0.375
5.7615,128.180883,37.939007,7025.5790400000005,86.138,-5.227,0.497
5.7782,128.180882,37.939052,7024.869465600001,84.362,-5.238,0.619
5.7949,128.180882,37.939097,7024.1583672,82.586,-5.246,0.741
5.8115,128.180881,37.939142,7023.4460496,80.809,-5.249,0.864
5.8282,128.180881,37.939187,7022.7328176,79.028,-5.245,1.0
5.845,128.18088,37.939232,7022.018976,77.242,-5.231,1.162
5.8617,128.18088,37.939278,7021.3048296,75.451,-5.206,1.348
5.8784,128.18088,37.939323,7020.590683200001,73.654,-5.171,1.549
5.8951,128.18088,37.939368,7019.8765368,71.851,-5.128,1.757
5.9117,128.18088,37.939413,7019.1633048,70.043,-5.077,1.967
5.9285,128.18088,37.939458,7018.450682400001,68.23,-5.021,2.172
5.9452,128.180881,37.939504,7017.739279200001,66.411,-4.96,2.369
5.9619,128.180881,37.939549,7017.0297048,64.586,-4.896,2.554
5.9786,128.180881,37.939594,7016.321654400001,62.755,-4.83,2.725
5.9952,128.180882,37.939639,7015.615737600001,60.916,-4.762,2.883
6.0119,128.180883,37.939684,7014.912564,59.069,-4.695,3.026
6.0287,128.180883,37.93973,7014.212133600001,57.212,-4.626,3.157
6.0454,128.180884,37.939775,7013.515056000001,55.344,-4.555,3.277
6.0621,128.180885,37.93982,7012.8213312,53.463,-4.484,3.387
6.0788,128.180886,37.939865,7012.1315688,51.57,-4.412,3.487
6.0954,128.180888,37.939911,7011.4457688,49.662,-4.339,3.579
6.1121,128.180889,37.939956,7010.764540800001,47.738,-4.264,3.663
6.1289,128.18089,37.940001,7010.0878848,45.798,-4.188,3.739
6.1456,128.180892,37.940046,7009.416410400001,43.84,-4.11,3.81
6.1623,128.180893,37.940092,7008.7504224,41.865,-4.028,3.875
6.179,128.180895,37.940137,7008.0890064000005,39.888,-3.945,3.937
6.1956,128.180897,37.940182,7007.4330768,37.941,-3.859,3.998
6.2124,128.180898,37.940227,7006.782024000001,36.053,-3.773,4.058
6.2291,128.1809,37.940273,7006.1361528,34.25,-3.685,4.118
6.2458,128.180902,37.940318,7005.4948536,32.554,-3.597,4.179
6.2625,128.180904,37.940363,7004.8584312,30.979,-3.508,4.24
6.2791,128.180906,37.940409,7004.2268856,29.549,-3.418,4.302
6.2958,128.180908,37.940454,7003.5993024,28.254,-3.327,4.362
6.3126,128.18091,37.9405,7002.975986400001,27.092,-3.236,4.419
6.3293,128.180912,37.940545,7002.356328000001,26.057,-3.147,4.471
6.346,128.180914,37.94059,7001.740632,25.141,-3.061,4.52
6.3627,128.180917,37.940636,7001.1282888,24.335,-2.978,4.565
6.3793,128.180919,37.940681,7000.5189936,23.632,-2.899,4.605
6.3961,128.180921,37.940727,6999.9124416,23.022,-2.825,4.64
6.4128,128.180923,37.940772,6999.3095472,22.488,-2.757,4.669
6.4295,128.180926,37.940818,6998.710310400001,22.023,-2.697,4.692
6.4462,128.180928,37.940863,6998.1147312,21.619,-2.642,4.71
6.4628,128.180931,37.940909,6997.5228096,21.27,-2.592,4.727
6.4795,128.180933,37.940954,6996.9345456,20.97,-2.548,4.744
6.4963,128.180935,37.941,6996.3499392,20.717,-2.511,4.759
6.513,128.180938,37.941045,6995.7683808,20.513,-2.483,4.773
6.5297,128.18094,37.941091,6995.191699200001,20.348,-2.463,4.784
6.5464,128.180943,37.941136,6994.617456000001,20.227,-2.45,4.793
6.5631,128.180946,37.941182,6994.046565600001,20.155,-2.445,4.8
6.5798,128.180948,37.941228,6993.4778088,20.146,-2.448,4.806
6.5965,128.180951,37.941273,6992.9111856,20.211,-2.458,4.813
6.6132,128.180954,37.941319,6992.346391200001,20.362,-2.475,4.819
6.6299,128.180956,37.941365,6991.7849496,20.562,-2.494,4.824
6.6466,128.180959,37.94141,6991.2265560000005,20.741,-2.499,4.825
6.6633,128.180962,37.941456,6990.671210400001,20.896,-2.487,4.822
6.68,128.180964,37.941502,6990.120132,21.027,-2.461,4.819
6.6967,128.180967,37.941547,6989.573015999999,21.134,-2.425,4.82
6.7134,128.18097,37.941593,6989.0301672000005,21.217,-2.383,4.821
6.7301,128.180973,37.941639,6988.4921952,21.28,-2.337,4.826
6.7468,128.180976,37.941684,6987.9591,21.326,-2.291,4.833
6.7635,128.180979,37.94173,6987.4296624,21.368,-2.25,4.843
6.7802,128.180982,37.941776,6986.903882400001,21.493,-2.228,4.856
6.7969,128.180985,37.941822,6986.380540800001,21.7,-2.238,4.866
6.8136,128.180988,37.941867,6985.860856800001,21.801,-2.288,4.854
6.8303,128.180991,37.941913,6985.343001600001,21.996,-2.383,4.828
6.847,128.180994,37.941959,6984.8272799999995,22.277,-2.51,4.794
6.8637,128.180997,37.942005,6984.313082400001,22.643,-2.652,4.758
6.8804,128.181,37.942051,6983.7997992,23.096,-2.798,4.722
6.8971,128.181003,37.942096,6983.2871256,23.633,-2.938,4.689
6.9138,128.181007,37.942142,6982.7765856000005,24.15,-3.053,4.659
6.9305,128.18101,37.942188,6982.268179200001,24.633,-3.131,4.636
6.9472,128.181013,37.942234,6981.761906400001,25.081,-3.166,4.628
6.9639,128.181016,37.94228,6981.2577672,25.428,-3.161,4.62
6.9806,128.18102,37.942326,6980.7563712,25.674,-3.13,4.611
6.9973,128.181023,37.942371,6980.2574136,25.817,-3.089,4.597
7.014,128.181026,37.942417,6979.7618088,25.854,-3.052,4.577
7.0307,128.18103,37.942463,6979.268947200001,25.785,-3.034,4.547
7.0474,128.181033,37.942509,6978.779438400001,25.614,-3.046,4.502
7.0641,128.181037,37.942555,6978.292368,25.522,-3.101,4.461
7.0808,128.18104,37.942601,6977.8068216,25.506,-3.19,4.428
7.0975,128.181044,37.942647,6977.3227992,25.577,-3.299,4.402
7.1142,128.181047,37.942693,6976.839691200001,25.741,-3.42,4.379
7.1309,128.181051,37.942738,6976.357192800001,26.003,-3.545,4.357
7.1476,128.181054,37.942784,6975.8743896,26.361,-3.669,4.337
7.1643,128.181058,37.94283,6975.3909768,26.815,-3.791,4.317
7.181,128.181061,37.942876,6974.9066496000005,27.362,-3.91,4.297
7.1977,128.181065,37.942922,6974.4207983999995,27.999,-4.025,4.279
7.2144,128.181068,37.942968,6973.9331184,28.722,-4.135,4.26
7.2311,128.181072,37.943014,6973.4433048,29.529,-4.241,4.242
7.2478,128.181075,37.94306,6972.9513576,30.417,-4.343,4.225
7.2645,128.181079,37.943106,6972.4572768,31.382,-4.442,4.207
7.2812,128.181083,37.943152,6971.9604528,32.421,-4.537,4.19
7.2979,128.181086,37.943198,6971.4618,33.533,-4.628,4.173
7.3146,128.18109,37.943244,6970.960404,34.714,-4.716,4.156
7.3313,128.181093,37.94329,6970.456264800001,35.963,-4.801,4.139
7.348,128.181097,37.943336,6969.949992000001,37.276,-4.883,4.121
7.3647,128.181101,37.943382,6969.4406712,38.651,-4.963,4.103
7.3814,128.181104,37.943428,6968.928912,40.087,-5.04,4.084
7.3981,128.181108,37.943474,6968.4141048,41.395,-5.101,4.049
7.4148,128.181112,37.94352,6967.897164000001,42.582,-5.145,3.999
7.4315,128.181115,37.943567,6967.3783944,43.64,-5.177,3.938
7.4482,128.181119,37.943613,6966.8581008,44.563,-5.201,3.872
7.4649,128.181123,37.943659,6966.336588000001,45.349,-5.221,3.806
7.4816,128.181126,37.943705,6965.813551200001,46.001,-5.239,3.741
7.4983,128.18113,37.943751,6965.289904800001,46.521,-5.254,3.678
7.515,128.181134,37.943797,6964.7650392,46.915,-5.268,3.618
7.5317,128.181137,37.943843,6964.2398688,47.188,-5.281,3.562
7.5484,128.181141,37.943889,6963.7143936,47.345,-5.291,3.508
7.5651,128.181145,37.943935,6963.1883088,47.392,-5.301,3.457
7.5818,128.181149,37.943982,6962.662224000001,47.519,-5.325,3.424
7.5985,128.181153,37.944028,6962.135224800001,47.723,-5.365,3.409
7.6152,128.181156,37.944074,6961.606396800001,48.016,-5.415,3.404
7.6319,128.18116,37.94412,6961.07574,48.407,-5.468,3.406
7.6486,128.181164,37.944166,6960.5432544000005,48.898,-5.522,3.411
7.6653,128.181168,37.944212,6960.0080256,49.49,-5.576,3.417
7.682,128.181172,37.944259,6959.4703584,50.18,-5.628,3.424
7.6987,128.181176,37.944305,6958.9296432,50.964,-5.678,3.43
7.7154,128.181179,37.944351,6958.38588,51.84,-5.727,3.435
7.7321,128.181183,37.944397,6957.838764,52.803,-5.775,3.44
7.7488,128.181187,37.944443,6957.2882952,53.849,-5.822,3.444
7.7655,128.181191,37.94449,6956.7344736000005,54.974,-5.868,3.448
7.7822,128.181195,37.944536,6956.177604,56.176,-5.914,3.45
7.7989,128.181199,37.944582,6955.6173816,57.451,-5.958,3.452
7.8156,128.181202,37.944628,6955.053806400001,58.796,-6.002,3.452
7.8323,128.181206,37.944675,6954.487183200001,60.208,-6.045,3.452
7.849,128.18121,37.944721,6953.917512,61.684,-6.088,3.45
7.8657,128.181214,37.944767,6953.344488000001,63.222,-6.13,3.448
7.8824,128.181217,37.944814,6952.768416,64.819,-6.171,3.444
7.8991,128.181221,37.94486,6952.1892960000005,66.472,-6.211,3.439
7.9158,128.181225,37.944906,6951.6074328,68.179,-6.251,3.433
7.9325,128.181228,37.944953,6951.0222168,69.938,-6.29,3.426
7.9492,128.181232,37.944999,6950.4339528,71.747,-6.329,3.418
7.9659,128.181236,37.945045,6949.8429456,73.603,-6.366,3.409
7.9826,128.18124,37.945092,6949.2488904,75.505,-6.403,3.399
7.9993,128.181243,37.945138,6948.652092,77.451,-6.439,3.388
8.016,128.181247,37.945185,6948.052245600001,79.439,-6.474,3.376
8.0327,128.18125,37.945231,6947.449656000001,81.467,-6.509,3.363
8.0494,128.181254,37.945278,6946.844323200001,83.535,-6.542,3.35
8.0661,128.181258,37.945324,6946.2362472,85.639,-6.575,3.335
8.0828,128.181261,37.94537,6945.6257328,87.779,-6.606,3.32
8.0994,128.181265,37.945417,6945.0124752,89.953,-6.637,3.304
8.1161,128.181268,37.945463,6944.3964744,92.16,-6.667,3.288
8.1329,128.181272,37.94551,6943.7780352,94.399,-6.696,3.271
8.1496,128.181276,37.945556,6943.1571576,96.668,-6.725,3.253
8.1663,128.181279,37.945603,6942.5338416,98.966,-6.752,3.235
8.183,128.181283,37.94565,6941.906868,101.082,-6.766,3.218
8.1997,128.181286,37.945696,6941.277456000001,103.02,-6.772,3.219
8.2164,128.18129,37.945743,6940.645300800001,104.778,-6.778,3.251
8.2331,128.181293,37.945789,6940.0104024,106.366,-6.794,3.326
8.2498,128.181297,37.945836,6939.372456000001,107.812,-6.83,3.458
8.2665,128.1813,37.945882,6938.7311568000005,109.146,-6.894,3.654
8.2831,128.181304,37.945929,6938.0865048000005,110.395,-6.991,3.922
8.2998,128.181308,37.945975,6937.437585600001,111.581,-7.126,4.269
8.3166,128.181312,37.946022,6936.784704000001,112.726,-7.298,4.682
8.3333,128.181315,37.946069,6936.1278600000005,113.846,-7.504,5.148
8.35,128.181319,37.946115,6935.4667488000005,114.956,-7.737,5.653
8.3667,128.181323,37.946162,6934.800760800001,116.067,-7.993,6.176
8.3834,128.181327,37.946208,6934.1302008,117.19,-8.261,6.701
8.4001,128.181331,37.946255,6933.4544592,118.333,-8.535,7.208
8.4168,128.181335,37.946302,6932.7732312,119.506,-8.805,7.681
8.4335,128.181339,37.946348,6932.0868216,120.714,-9.065,8.109
8.4502,128.181344,37.946395,6931.394316,121.961,-9.314,8.494
8.4668,128.181348,37.946441,6930.695714400001,123.252,-9.556,8.841
8.4835,128.181352,37.946488,6929.990712,124.59,-9.79,9.155
8.5003,128.181357,37.946535,6929.279004,125.977,-10.019,9.438
8.517,128.181361,37.946581,6928.5602856000005,127.416,-10.244,9.695
8.5337,128.181366,37.946628,6927.834252000001,128.909,-10.466,9.929
8.5504,128.181371,37.946674,6927.1009032,130.458,-10.685,10.14
8.5671,128.181375,37.946721,6926.3599343999995,132.062,-10.902,10.333
8.5838,128.18138,37.946768,6925.6089071999995,133.541,-11.088,10.509
8.6005,128.181385,37.946814,6924.8496504,134.904,-11.238,10.662
8.6172,128.18139,37.946861,6924.0812496,136.144,-11.357,10.792
8.6339,128.181395,37.946907,6923.303704800001,137.259,-11.454,10.899
8.6505,128.1814,37.946954,6922.516711200001,138.249,-11.536,10.987
8.6672,128.181405,37.947,6921.7196592,139.117,-11.609,11.06
8.684,128.181411,37.947047,6920.9125488,139.866,-11.675,11.121
8.7007,128.181416,37.947093,6920.0950752,140.503,-11.737,11.172
8.7174,128.181422,37.94714,6919.267238400001,141.032,-11.796,11.216
8.7341,128.181427,37.947186,6918.428124000001,141.458,-11.854,11.255
8.7508,128.181433,37.947233,6917.5783416,141.787,-11.912,11.29
8.7675,128.181439,37.947279,6916.7172816,142.021,-11.97,11.324
8.7842,128.181444,37.947326,6915.844944,142.165,-12.029,11.357
8.8009,128.18145,37.947372,6914.9607192,142.223,-12.089,11.39
8.8176,128.181456,37.947418,6914.064912,142.197,-12.152,11.423
8.8342,128.181462,37.947465,6913.1572176,142.092,-12.216,11.458
8.8509,128.181468,37.947511,6912.2373312,141.909,-12.284,11.495
8.8676,128.181475,37.947557,6911.3052528,141.652,-12.354,11.534
8.8844,128.181481,37.947603,6910.3612872,141.324,-12.428,11.577
8.9011,128.181488,37.94765,6909.4057391999995,140.927,-12.505,11.623
8.9178,128.181494,37.947696,6908.438304,140.463,-12.585,11.672
8.9345,128.181501,37.947742,6907.459286400001,139.935,-12.668,11.726
8.9512,128.181507,37.947788,6906.4689912,139.344,-12.755,11.784
8.9679,128.181514,37.947834,6905.4668088,138.693,-12.845,11.847
8.9846,128.181521,37.94788,6904.4536536000005,137.984,-12.937,11.916
9.0013,128.181528,37.947926,6903.428916,137.218,-13.033,11.989
9.0179,128.181535,37.947972,6902.3947296,136.582,-13.158,12.062
9.0346,128.181542,37.948018,6901.349570400001,136.071,-13.318,12.142
9.0513,128.18155,37.948064,6900.294048,135.687,-13.517,12.244
9.0681,128.181557,37.94811,6899.2278576,135.435,-13.745,12.367
9.0848,128.181565,37.948156,6898.1516088,135.315,-13.992,12.509
9.1015,128.181572,37.948202,6897.064692000001,135.326,-14.25,12.663
9.1182,128.18158,37.948248,6895.9677168,135.464,-14.512,12.824
9.1349,128.181588,37.948294,6894.860988,135.726,-14.775,12.988
9.1516,128.181595,37.948339,6893.743896000001,136.107,-15.035,13.15
9.1683,128.181603,37.948385,6892.6167456,136.599,-15.29,13.307
9.185,128.181611,37.948431,6891.4798416,137.2,-15.54,13.459
9.2016,128.181619,37.948477,6890.333184000001,137.903,-15.785,13.603
9.2183,128.181627,37.948523,6889.1767728,138.704,-16.025,13.739
9.235,128.181636,37.948568,6888.0109128,139.599,-16.26,13.867
9.2518,128.181644,37.948614,6886.8352992,140.583,-16.49,13.986
9.2685,128.181652,37.94866,6885.649932,141.653,-16.718,14.096
9.2852,128.181661,37.948705,6884.4554208,142.805,-16.942,14.197
9.3019,128.181669,37.948751,6883.251460800001,144.036,-17.163,14.29
9.3186,128.181678,37.948797,6882.037747200001,145.344,-17.382,14.373
9.3353,128.181686,37.948842,6880.8139752,146.726,-17.6,14.448
9.352,128.181695,37.948888,6879.5804496,148.18,-17.817,14.515
9.3687,128.181704,37.948933,6878.3365608,149.702,-18.033,14.572
9.3854,128.181712,37.948979,6877.0807848,151.114,-18.225,14.634
9.402,128.181721,37.949024,6875.8146456,152.422,-18.378,14.691
9.4187,128.18173,37.94907,6874.5378384000005,153.622,-18.485,14.732
9.4355,128.181739,37.949115,6873.2503632,154.714,-18.533,14.746
9.4522,128.181748,37.949161,6871.9516104,155.695,-18.533,14.734
9.4689,128.181757,37.949206,6870.6415799999995,156.567,-18.5,14.704
9.4856,128.181766,37.949252,6869.3205768,157.331,-18.448,14.662
9.5023,128.181775,37.949297,6867.988296,157.991,-18.387,14.613
9.519,128.181784,37.949342,6866.644432800001,158.551,-18.323,14.563
9.5357,128.181794,37.949388,6865.289901600001,159.016,-18.245,14.505
9.5524,128.181803,37.949433,6863.924397600001,159.393,-18.14,14.437
9.5691,128.181812,37.949478,6862.5482256,159.686,-18.002,14.356
9.5857,128.181822,37.949524,6861.1616904,159.899,-17.839,14.267
9.6024,128.181831,37.949569,6859.7641824,160.032,-17.667,14.175
9.6192,128.18184,37.949614,6858.356006400001,160.089,-17.494,14.084
9.6359,128.18185,37.949659,6856.9374672,160.073,-17.327,13.996
9.6526,128.181859,37.949704,6855.5082600000005,159.985,-17.169,13.912
9.6693,128.181869,37.94975,6854.0686896,159.829,-17.022,13.834
9.686,128.181878,37.949795,6852.619670400001,159.608,-16.887,13.76
9.7027,128.181888,37.94984,6851.160897600001,159.323,-16.763,13.692
9.7194,128.181898,37.949885,6849.692676,158.977,-16.65,13.628
9.7361,128.181907,37.94993,6848.215920000001,158.573,-16.548,13.568
9.7528,128.181917,37.949975,6846.730324800001,158.113,-16.456,13.513
9.7694,128.181927,37.95002,6845.2358904,157.599,-16.373,13.46
9.7861,128.181936,37.950065,6843.7335312000005,157.033,-16.298,13.411
9.8029,128.181946,37.950109,6842.222942400001,156.416,-16.232,13.365
9.8196,128.181956,37.950154,6840.704428800001,155.752,-16.173,13.322
9.8363,128.181966,37.950199,6839.1779904,155.041,-16.12,13.282
9.853,128.181976,37.950244,6837.644236800001,154.286,-16.074,13.243
9.8697,128.181986,37.950289,6836.103168000001,153.489,-16.033,13.207
9.8864,128.181996,37.950334,6834.554479200001,152.65,-15.997,13.173
9.9031,128.182006,37.950378,6832.99878,151.772,-15.966,13.141
9.9198,128.182016,37.950423,6831.436070400001,150.856,-15.939,13.11
9.9365,128.182026,37.950468,6829.868179200001,150.108,-15.927,13.06
9.9531,128.182036,37.950513,6828.294496800001,149.521,-15.931,12.989
9.9698,128.182046,37.950557,6826.7150232,149.099,-15.945,12.906
9.9865,128.182056,37.950602,6825.1300632,148.848,-15.966,12.819
10.0033,128.182066,37.950647,6823.5405312,148.766,-15.991,12.731
10.02,128.182077,37.950692,6821.946122400001,148.85,-16.017,12.646
10.0367,128.182087,37.950736,6820.347751200001,149.094,-16.045,12.565
10.0534,128.182097,37.950781,6818.7451128,149.491,-16.075,12.488
10.0701,128.182107,37.950826,6817.1391216,150.034,-16.105,12.414
10.0868,128.182118,37.95087,6815.529777600001,150.717,-16.137,12.343
10.1035,128.182128,37.950915,6813.9176904000005,151.533,-16.17,12.275
10.1202,128.182138,37.95096,6812.303164800001,152.476,-16.203,12.21
10.1368,128.182149,37.951005,6810.686200800001,153.539,-16.238,12.147
10.1535,128.182159,37.951049,6809.067408,154.719,-16.273,12.086
10.1702,128.182169,37.951094,6807.447091200001,156.009,-16.308,12.028
10.187,128.18218,37.951139,6805.8255552,157.404,-16.344,11.971
10.2037,128.18219,37.951184,6804.203104800001,158.9,-16.379,11.916
10.2204,128.1822,37.951228,6802.5803496,160.491,-16.415,11.862
10.2371,128.182211,37.951273,6800.9563751999995,162.173,-16.45,11.81
10.2538,128.182221,37.951318,6799.332096,163.941,-16.485,11.759
10.2705,128.182231,37.951363,6797.7069024,165.79,-16.52,11.709
10.2872,128.182241,37.951408,6796.07988,167.503,-16.548,11.684
10.3039,128.182252,37.951453,6794.451638400001,169.083,-16.572,11.687
10.3205,128.182262,37.951498,6792.821568,170.522,-16.593,11.706
10.3372,128.182272,37.951542,6791.189364000001,171.813,-16.614,11.732
10.3539,128.182283,37.951587,6789.5550264,172.955,-16.636,11.761
10.3707,128.182293,37.951632,6787.9182504,173.949,-16.658,11.788
10.3874,128.182303,37.951677,6786.2784264,174.8,-16.683,11.813
10.4041,128.182314,37.951722,6784.635554400001,175.514,-16.71,11.837
10.4208,128.182324,37.951767,6782.9893296,176.097,-16.739,11.86
10.4375,128.182335,37.951812,6781.339447200001,176.554,-16.769,11.881
10.4542,128.182345,37.951857,6779.685297600001,176.891,-16.801,11.901
10.4709,128.182355,37.951902,6778.0268808,177.112,-16.835,11.921
10.4876,128.182366,37.951947,6776.364196800001,177.222,-16.87,11.94
10.5042,128.182376,37.951992,6774.6963312,177.225,-16.906,11.959
10.5209,128.182387,37.952036,6773.023284000001,177.126,-16.943,11.977
10.5376,128.182397,37.952081,6771.3450552,176.928,-16.981,11.994
10.5544,128.182407,37.952126,6769.6607304,176.637,-17.02,12.011
10.5711,128.182418,37.952171,6767.9706144,176.255,-17.06,12.028
10.5878,128.182428,37.952216,6766.275012,175.787,-17.101,12.044
10.6045,128.182439,37.952261,6764.573618400001,175.236,-17.142,12.06
10.6212,128.182449,37.952306,6762.866433600001,174.606,-17.183,12.076
10.6379,128.18246,37.95235,6761.1537624,173.901,-17.225,12.091
10.6546,128.18247,37.952395,6759.4353,173.123,-17.266,12.106
10.6713,128.18248,37.95244,6757.7113512000005,172.276,-17.307,12.121
10.6879,128.182491,37.952485,6755.981611200001,171.364,-17.349,12.136
10.7046,128.182501,37.952529,6754.2463848,170.389,-17.39,12.151
10.7213,128.182512,37.952574,6752.5053672,169.353,-17.43,12.166
10.7381,128.182522,37.952619,6750.758863200001,168.261,-17.47,12.181
10.7548,128.182533,37.952663,6749.006568000001,167.115,-17.51,12.195
10.7715,128.182543,37.952708,6747.2487864,165.918,-17.548,12.21
10.7882,128.182554,37.952753,6745.4852136,164.671,-17.586,12.225
10.8049,128.182564,37.952797,6743.7161544,163.379,-17.623,12.239
10.8216,128.182575,37.952842,6741.941304,162.042,-17.659,12.254
10.8383,128.182586,37.952887,6740.1606624,160.664,-17.694,12.269
10.855,128.182596,37.952931,6738.3760584,159.467,-17.737,12.258
10.8717,128.182607,37.952976,6736.5865776,158.443,-17.788,12.222
10.8883,128.182617,37.953021,6734.7928296,157.6,-17.843,12.17
10.905,128.182628,37.953065,6732.994814400001,156.94,-17.9,12.112
10.9218,128.182639,37.95311,6731.192836800001,156.466,-17.956,12.053
10.9385,128.182649,37.953154,6729.386896800001,156.17,-18.011,11.997
10.9552,128.18266,37.953199,6727.5779088,156.046,-18.066,11.943
10.9719,128.182671,37.953243,6725.765872800001,156.087,-18.119,11.892
10.9886,128.182681,37.953288,6723.9507888,156.284,-18.172,11.843
11.0053,128.182692,37.953333,6722.1332664,156.629,-18.224,11.796
11.022,128.182703,37.953377,6720.3136104000005,157.116,-18.275,11.75
11.0387,128.182713,37.953422,6718.4921256,157.738,-18.326,11.705
11.0554,128.182724,37.953466,6716.668812,158.489,-18.376,11.662
11.072,128.182735,37.953511,6714.8442792000005,159.362,-18.424,11.619
11.0887,128.182745,37.953556,6713.0185272,160.351,-18.472,11.577
11.1054,128.182756,37.9536,6711.1921656,161.451,-18.518,11.536
11.1222,128.182767,37.953645,6709.3654992,162.657,-18.563,11.495
11.1389,128.182777,37.95369,6707.5382232,163.962,-18.606,11.455
11.1556,128.182788,37.953735,6705.7106424,165.363,-18.648,11.415
11.1723,128.182799,37.953779,6703.882452000001,166.854,-18.688,11.376
11.189,128.18281,37.953824,6702.0536520000005,168.43,-18.727,11.336
11.2057,128.18282,37.953869,6700.2245472,170.086,-18.764,11.298
11.2224,128.182831,37.953914,6698.394832800001,171.82,-18.799,11.259
11.2391,128.182842,37.953958,6696.5645088,173.625,-18.833,11.221
11.2557,128.182852,37.954003,6694.7326608,175.272,-18.862,11.21
11.2724,128.182863,37.954048,6692.8995936,176.767,-18.889,11.227
11.2891,128.182874,37.954093,6691.064392800001,178.101,-18.914,11.261
11.3059,128.182884,37.954138,6689.227363200001,179.268,-18.938,11.302
11.3226,128.182895,37.954183,6687.3878952000005,-179.731,-18.962,11.343
11.3393,128.182906,37.954228,6685.545379200001,-178.896,-18.987,11.381
11.356,128.182916,37.954272,6683.70012,-178.218,-19.012,11.417
11.3727,128.182927,37.954317,6681.851508,-177.691,-19.039,11.45
11.3894,128.182938,37.954362,6679.998933600001,-177.308,-19.067,11.482
11.4061,128.182949,37.954407,6678.142701600001,-177.061,-19.096,11.512
11.4228,128.182959,37.954452,6676.281897600001,-176.946,-19.126,11.541
11.4394,128.18297,37.954497,6674.4168264,-176.957,-19.158,11.569
11.4561,128.182981,37.954542,6672.5468784,-177.087,-19.19,11.596
11.4728,128.182992,37.954587,6670.671444,-177.333,-19.223,11.623
11.4896,128.183002,37.954631,6668.790828,-177.688,-19.257,11.648
11.5063,128.183013,37.954676,6666.9047256,-178.148,-19.292,11.673
11.523,128.183024,37.954721,6665.012222400001,-178.709,-19.327,11.698
11.5397,128.183034,37.954766,6663.113623200001,-179.365,-19.363,11.721
11.5564,128.183045,37.954811,6661.209537600001,179.886,-19.4,11.745
11.5731,128.183056,37.954855,6659.299051200001,179.051,-19.437,11.767
11.5898,128.183067,37.9549,6657.3830784,178.132,-19.475,11.79
11.6065,128.183077,37.954945,6655.461009600001,177.134,-19.512,11.812
11.6231,128.183088,37.95499,6653.5331496,176.061,-19.55,11.834
11.6398,128.183099,37.955034,6651.5994984,174.916,-19.588,11.856
11.6565,128.18311,37.955079,6649.660056000001,173.703,-19.625,11.877
11.6733,128.18312,37.955124,6647.7148224,172.426,-19.663,11.899
11.69,128.183131,37.955168,6645.7637976000005,171.086,-19.7,11.92
11.7067,128.183142,37.955213,6643.806981600001,169.689,-19.736,11.941
11.7234,128.183153,37.955258,6641.844374400001,168.237,-19.772,11.963
11.7401,128.183163,37.955302,6639.875976,166.733,-19.808,11.984
11.7568,128.183174,37.955347,6637.9030056,165.412,-19.848,11.978
11.7735,128.183185,37.955391,6635.9254632,164.264,-19.895,11.943
11.7902,128.183196,37.955436,6633.943044,163.3,-19.946,11.892
11.8068,128.183206,37.955481,6631.9566624,162.522,-19.998,11.835
11.8235,128.183217,37.955525,6629.9663184,161.932,-20.049,11.778
11.8402,128.183228,37.95557,6627.972012,161.524,-20.099,11.725
11.857,128.183239,37.955614,6625.9746576,161.291,-20.148,11.674
11.8737,128.18325,37.955659,6623.973950400001,161.223,-20.197,11.627
11.8904,128.183261,37.955703,6621.9708048,161.313,-20.246,11.582
11.9071,128.183272,37.955748,6619.964916,161.553,-20.294,11.538
11.9238,128.183282,37.955793,6617.9568936,161.935,-20.341,11.496
11.9405,128.183293,37.955837,6615.947042400001,162.454,-20.388,11.455
11.9572,128.183304,37.955882,6613.9356672,163.102,-20.434,11.415
11.9739,128.183315,37.955926,6611.922768,163.874,-20.479,11.375
11.9905,128.183326,37.955971,6609.9089544,164.763,-20.522,11.336
12.0072,128.183337,37.956016,6607.8945312000005,165.764,-20.565,11.298
12.0239,128.183347,37.95606,6605.8794984,166.87,-20.605,11.26
12.0407,128.183358,37.956105,6603.864160800001,168.078,-20.644,11.222
12.0574,128.183369,37.95615,6601.8482136,169.382,-20.681,11.185
12.0741,128.18338,37.956195,6599.8319616,170.775,-20.716,11.149
12.0908,128.183391,37.956239,6597.815100000001,172.255,-20.75,11.112
12.1075,128.183402,37.956284,6595.797628800001,173.816,-20.782,11.076
12.1242,128.183413,37.956329,6593.7792432,175.454,-20.811,11.04
12.1409,128.183423,37.956374,6591.7605527999995,177.164,-20.839,11.005
12.1576,128.183434,37.956418,6589.7412527999995,178.943,-20.865,10.97
12.1743,128.183445,37.956463,6587.720124,-179.449,-20.889,10.964
12.1909,128.183456,37.956508,6585.6974712,-178.007,-20.912,10.989
12.2076,128.183467,37.956553,6583.6729896,-176.74,-20.935,11.031
12.2243,128.183478,37.956598,6581.6460696,-175.652,-20.957,11.079
12.2411,128.183489,37.956643,6579.6164064,-174.744,-20.979,11.126
12.2578,128.1835,37.956688,6577.5836952,-174.012,-21.002,11.171
12.2745,128.18351,37.956733,6575.5476312,-173.447,-21.025,11.211
12.2912,128.183521,37.956778,6573.507909600001,-173.041,-21.049,11.249
12.3079,128.183532,37.956822,6571.4639208,-172.787,-21.074,11.285
12.3246,128.183543,37.956867,6569.415664800001,-172.677,-21.099,11.32
12.3413,128.183554,37.956912,6567.362836800001,-172.705,-21.126,11.353
12.358,128.183565,37.956957,6565.305132,-172.865,-21.154,11.386
12.3746,128.183576,37.957002,6563.2422456,-173.15,-21.183,11.417
12.3913,128.183587,37.957047,6561.1738728,-173.555,-21.212,11.448
12.408,128.183597,37.957092,6559.0997088,-174.074,-21.243,11.478
12.4248,128.183608,37.957137,6557.0194488,-174.704,-21.274,11.507
12.4415,128.183619,37.957181,6554.933092800001,-175.437,-21.306,11.535
12.4582,128.18363,37.957226,6552.8397264000005,-176.27,-21.339,11.562
12.4749,128.183641,37.957271,6550.740873600001,-177.198,-21.373,11.589
12.4916,128.183652,37.957316,6548.635620000001,-178.217,-21.407,11.615
12.5083,128.183663,37.957361,6546.523965600001,-179.321,-21.442,11.641
12.525,128.183673,37.957405,6544.406215200001,179.492,-21.477,11.667
12.5417,128.183684,37.95745,6542.282673600001,178.228,-21.512,11.692
12.5583,128.183695,37.957495,6540.1527312,176.891,-21.547,11.718
12.575,128.183706,37.95754,6538.016692800001,175.484,-21.582,11.743
12.5917,128.183717,37.957584,6535.874863200001,174.011,-21.617,11.768
12.6085,128.183728,37.957629,6533.7269376,172.475,-21.651,11.792
12.6252,128.183739,37.957674,6531.572916,170.88,-21.686,11.817
12.6419,128.183749,37.957718,6529.4127984,169.23,-21.719,11.842
12.6586,128.18376,37.957763,6527.2481088,167.768,-21.758,11.835
12.6753,128.183771,37.957808,6525.078237600001,166.489,-21.803,11.797
12.692,128.183782,37.957852,6522.9037944,165.403,-21.851,11.742
12.7087,128.183793,37.957897,6520.724779200001,164.514,-21.899,11.683
12.7254,128.183804,37.957942,6518.5414968000005,163.823,-21.947,11.625
12.742,128.183815,37.957986,6516.354556800001,163.322,-21.994,11.572
12.7587,128.183826,37.958031,6514.164264,163.003,-22.041,11.523
12.7754,128.183837,37.958076,6511.970618400001,162.857,-22.087,11.477
12.7922,128.183848,37.95812,6509.773924800001,162.875,-22.133,11.433
12.8089,128.183859,37.958165,6507.574792800001,163.048,-22.179,11.391
12.8256,128.18387,37.95821,6505.3735272,163.37,-22.224,11.35
12.8423,128.183881,37.958254,6503.169823200001,163.832,-22.269,11.309
12.859,128.183891,37.958299,6500.9649,164.43,-22.313,11.27
12.8757,128.183902,37.958344,6498.758148,165.155,-22.355,11.231
12.8924,128.183913,37.958389,6496.5504816,166.002,-22.397,11.193
12.9091,128.183924,37.958433,6494.3419008,166.965,-22.437,11.156
12.9257,128.183935,37.958478,6492.132710400001,168.038,-22.475,11.119
12.9424,128.183946,37.958523,6489.923520000001,169.215,-22.512,11.082
12.9591,128.183957,37.958568,6487.713110400001,170.492,-22.547,11.046
12.9759,128.183968,37.958613,6485.502396000001,171.862,-22.58,11.01
12.9926,128.183979,37.958658,6483.2907672,173.321,-22.611,10.974
13.0093,128.18399,37.958702,6481.078528800001,174.864,-22.64,10.939
13.026,128.184001,37.958747,6478.865376,176.486,-22.667,10.904
13.0427,128.184012,37.958792,6476.6516136,178.184,-22.692,10.869
13.0594,128.184023,37.958837,6474.437241600001,179.952,-22.714,10.835
13.0761,128.184034,37.958882,6472.221650400001,-178.212,-22.735,10.801
13.0928,128.184045,37.958927,6470.0039256,-176.518,-22.771,10.782
13.1095,128.184056,37.958972,6467.7834576,-174.988,-22.841,10.777
13.1262,128.184067,37.959017,6465.5599416000005,-173.62,-22.96,10.775
13.1429,128.184078,37.959062,6463.3318536,-172.404,-23.145,10.765
13.1596,128.184089,37.959107,6461.0988888,-171.328,-23.408,10.738
13.1763,128.1841,37.959152,6458.859523200001,-170.375,-23.76,10.688
13.193,128.184111,37.959197,6456.612842400001,-169.528,-24.209,10.611
13.2097,128.184122,37.959242,6454.3576272,-168.771,-24.738,10.508
13.2264,128.184133,37.959287,6452.0932680000005,-168.091,-25.332,10.381
13.2431,128.184144,37.959332,6449.8185456,-167.479,-25.967,10.234
13.2598,128.184154,37.959377,6447.5340696,-166.824,-26.62,10.064
13.2765,128.184165,37.959422,6445.2392303999995,-166.134,-27.265,9.877
13.2932,128.184176,37.959467,6442.933723200001,-165.425,-27.883,9.686
13.3099,128.184187,37.959512,6440.617243199999,-164.714,-28.45,9.5
13.3266,128.184198,37.959557,6438.2885712,-164.02,-28.946,9.332
13.3433,128.184208,37.959602,6435.9467928,-163.354,-29.378,9.178
13.36,128.184219,37.959646,6433.591908,-162.722,-29.762,9.036
13.3767,128.18423,37.959691,6431.2233072,-162.128,-30.112,8.9
13.3934,128.18424,37.959736,6428.8406856,-161.574,-30.437,8.768
13.4101,128.184251,37.95978,6426.4440432,-161.06,-30.743,8.637
13.4268,128.184261,37.959825,6424.032770400001,-160.583,-31.034,8.508
13.4435,128.184272,37.959869,6421.6074768,-160.143,-31.312,8.379
13.4602,128.184282,37.959914,6419.1675528,-159.736,-31.579,8.252
13.4769,128.184292,37.959958,6416.7129984,-159.361,-31.835,8.125
13.4936,128.184303,37.960003,6414.2438136,-159.013,-32.082,7.999
13.5103,128.184313,37.960047,6411.7599984,-158.69,-32.322,7.876
13.527,128.184323,37.960092,6409.2618575999995,-158.387,-32.554,7.755
13.5437,128.184333,37.960136,6406.7487816,-158.106,-32.78,7.636
13.5604,128.184343,37.96018,6404.220770400001,-157.843,-33.001,7.519
13.5771,128.184353,37.960224,6401.678128800001,-157.597,-33.215,7.402
13.5938,128.184362,37.960268,6399.120856800001,-157.367,-33.425,7.285
13.6105,128.184372,37.960312,6396.5486496,-157.151,-33.63,7.17
13.6272,128.184382,37.960356,6393.9615072,-156.948,-33.831,7.054
13.6439,128.184391,37.9604,6391.3597344,-156.755,-34.028,6.939
13.6606,128.184401,37.960444,6388.7433312,-156.572,-34.221,6.825
13.6773,128.18441,37.960488,6386.111992800001,-156.398,-34.412,6.711
13.694,128.18442,37.960532,6383.466024,-156.231,-34.599,6.597
13.7107,128.184429,37.960575,6380.805120000001,-156.071,-34.784,6.484
13.7274,128.184438,37.960619,6378.1292808,-155.917,-34.967,6.371
13.7441,128.184447,37.960663,6375.439116,-155.769,-35.147,6.258
13.7608,128.184456,37.960706,6372.734015999999,-155.625,-35.326,6.146
13.7775,128.184465,37.96075,6370.0139808,-155.485,-35.503,6.033
13.7942,128.184474,37.960793,6367.2793152,-155.35,-35.678,5.921
13.8109,128.184483,37.960837,6364.5300192,-155.218,-35.851,5.809
13.8276,128.184492,37.96088,6361.7660928000005,-155.089,-36.023,5.697
13.8443,128.1845,37.960923,6358.987536000001,-154.962,-36.194,5.586
13.861,128.184509,37.960966,6356.194044,-154.839,-36.364,5.474
13.8777,128.184517,37.96101,6353.3859216,-154.718,-36.533,5.362
13.8944,128.184526,37.961053,6350.5634736,-154.6,-36.701,5.251
13.9111,128.184534,37.961096,6347.7260904,-154.483,-36.868,5.139
13.9278,128.184542,37.961139,6344.874381600001,-154.369,-37.034,5.027
13.9445,128.18455,37.961182,6342.008042400001,-154.256,-37.2,4.915
13.9612,128.184558,37.961224,6339.1270728,-154.145,-37.364,4.803
13.9779,128.184566,37.961267,6336.2314728,-154.035,-37.529,4.691
13.9946,128.184574,37.96131,6333.321547200001,-153.927,-37.692,4.579
14.0113,128.184582,37.961353,6330.3969912,-153.82,-37.856,4.466
14.028,128.18459,37.961395,6327.4581096,-153.715,-38.018,4.353
14.0447,128.184597,37.961438,6324.504597600001,-153.611,-38.181,4.241
14.0614,128.184605,37.96148,6321.536760000001,-153.508,-38.342,4.128
14.0781,128.184612,37.961522,6318.554596800001,-153.406,-38.504,4.014
14.0948,128.18462,37.961565,6315.558108,-153.305,-38.665,3.901
14.1115,128.184627,37.961607,6312.5472936,-153.205,-38.826,3.787
14.1282,128.184634,37.961649,6309.5218488,-153.106,-38.986,3.673
14.1449,128.184641,37.961691,6306.482383200001,-153.008,-39.146,3.559
14.1616,128.184648,37.961733,6303.428592,-152.911,-39.306,3.444
14.1783,128.184655,37.961775,6300.36078,-152.814,-39.466,3.329
14.195,128.184662,37.961817,6297.278337600001,-152.718,-39.625,3.214
14.2117,128.184669,37.961859,6294.182179200001,-152.623,-39.784,3.099
14.2284,128.184676,37.961901,6291.0713904,-152.528,-39.943,2.983
14.2451,128.184682,37.961943,6287.9468856,-152.435,-40.102,2.867
14.2618,128.184689,37.961984,6284.8080552,-152.341,-40.261,2.751
14.2785,128.184695,37.962026,6281.6548992,-152.248,-40.42,2.634
14.2952,128.184701,37.962068,6278.4880272,-152.156,-40.578,2.517
14.3119,128.184708,37.962109,6275.3071344,-152.064,-40.736,2.399
14.3286,128.184714,37.96215,6272.1122208,-151.973,-40.894,2.281
14.3453,128.18472,37.962192,6268.9032864,-151.882,-41.052,2.163
14.362,128.184726,37.962233,6265.6803312,-151.791,-41.21,2.044
14.3787,128.184732,37.962274,6262.4433552,-151.701,-41.368,1.925
14.3954,128.184737,37.962315,6259.1926632,-151.611,-41.526,1.805
14.4121,128.184743,37.962356,6255.927950400001,-151.521,-41.684,1.685
14.4288,128.184749,37.962397,6252.6495216,-151.432,-41.841,1.565
14.4455,128.184754,37.962438,6249.357376800001,-151.343,-41.999,1.444
14.4622,128.18476,37.962479,6246.051211200001,-151.254,-42.156,1.323
14.4789,128.184765,37.962519,6242.7316344,-151.165,-42.314,1.201
14.4956,128.18477,37.96256,6239.3980368,-151.077,-42.471,1.079
14.5123,128.184775,37.962601,6236.0507232,-150.988,-42.628,0.956
14.529,128.184781,37.962641,6232.6896936,-150.9,-42.785,0.833
14.5457,128.184786,37.962682,6229.3152528,-150.812,-42.942,0.71
14.5624,128.18479,37.962722,6225.927096,-150.724,-43.099,0.586
14.5791,128.184795,37.962762,6222.5252232,-150.636,-43.256,0.461
14.5958,128.1848,37.962802,6219.1099392,-150.549,-43.413,0.336
14.6125,128.184804,37.962843,6215.6809392,-150.461,-43.57,0.211
14.6292,128.184809,37.962883,6212.238528000001,-150.373,-43.727,0.085
14.6459,128.184813,37.962923,6208.782705600001,-150.286,-43.883,359.959
14.6626,128.184818,37.962962,6205.3131672,-150.198,-44.04,359.832
14.6793,128.184822,37.963002,6201.8305224000005,-150.11,-44.196,359.704
14.696,128.184826,37.963042,6198.3344664,-150.022,-44.353,359.576
14.7127,128.18483,37.963082,6194.8246944,-149.935,-44.509,359.447
14.7294,128.184834,37.963121,6191.301816,-149.847,-44.666,359.318
14.7461,128.184838,37.963161,6187.7655264,-149.759,-44.822,359.189
14.7628,128.184842,37.9632,6184.2161304,-149.671,-44.978,359.059
14.7795,128.184846,37.963239,6180.6533232,-149.582,-45.134,358.928
14.7962,128.184849,37.963279,6177.077104800001,-149.494,-45.291,358.797
14.8129,128.184853,37.963318,6173.4877799999995,-149.405,-45.447,358.665
14.8296,128.184856,37.963357,6169.8853488,-149.317,-45.603,358.532
14.8463,128.184859,37.963396,6166.269811200001,-149.228,-45.759,358.399
14.863,128.184863,37.963435,6162.6411672,-149.138,-45.914,358.266
14.8797,128.184866,37.963474,6158.9994168,-149.049,-46.07,358.131
14.8964,128.184869,37.963512,6155.3445600000005,-148.959,-46.226,357.997
14.9131,128.184872,37.963551,6151.676596800001,-148.869,-46.382,357.861
14.9298,128.184875,37.96359,6147.995527200001,-148.779,-46.537,357.725
14.9465,128.184877,37.963628,6144.301656000001,-148.688,-46.693,357.588
14.9632,128.18488,37.963666,6140.594983200001,-148.598,-46.848,357.451
14.9799,128.184883,37.963705,6136.875204,-148.506,-47.004,357.313
14.9966,128.184885,37.963743,6133.1423184000005,-148.415,-47.159,357.174
15.0133,128.184887,37.963781,6129.396936,-148.323,-47.314,357.035
15.03,128.18489,37.963819,6125.638447200001,-148.231,-47.469,356.895
15.0467,128.184892,37.963857,6121.867156800001,-148.138,-47.624,356.755
15.0634,128.184894,37.963895,6118.083369600001,-148.045,-47.779,356.613
15.0801,128.184896,37.963933,6114.286476,-147.952,-47.934,356.471
15.0968,128.184898,37.963971,6110.4770856000005,-147.858,-48.089,356.329
15.1135,128.1849,37.964008,6106.6548936,-147.763,-48.244,356.185
15.1302,128.184901,37.964046,6102.8199,-147.668,-48.399,356.041
15.1469,128.184903,37.964083,6098.972714400001,-147.573,-48.553,355.896
15.1636,128.184905,37.964121,6095.1124224000005,-147.477,-48.708,355.75
15.1803,128.184906,37.964158,6091.239938400001,-147.381,-48.862,355.604
15.197,128.184907,37.964195,6087.3546528,-147.284,-49.016,355.457
15.2137,128.184909,37.964232,6083.456870400001,-147.186,-49.171,355.309
15.2304,128.18491,37.964269,6079.546896000001,-147.088,-49.325,355.16
15.2471,128.184911,37.964306,6075.62412,-146.99,-49.479,355.011
15.2638,128.184912,37.964343,6071.688847200001,-146.891,-49.633,354.86
15.2805,128.184913,37.96438,6067.7413824000005,-146.791,-49.787,354.709
15.2972,128.184914,37.964416,6063.7817256,-146.69,-49.941,354.557
15.3139,128.184914,37.964453,6059.809572,-146.589,-50.094,354.405
15.3306,128.184915,37.964489,6055.8249216,-146.488,-50.248,354.251
15.3473,128.184915,37.964525,6051.8280792000005,-146.385,-50.401,354.097
