Time,Longitude,Latitude,Altitude,Roll (deg),Pitch (deg),Yaw (deg)
0.0,128.181881,37.923646,7000.146528,0.0,-0.003,0.0
0.0167,128.181881,37.923691,7000.1605488000005,0.0,-0.012,0.0
0.0334,128.181881,37.923736,7000.174264800001,0.0,-0.013,359.999
0.0501,128.181881,37.923781,7000.1876760000005,0.0,0.007,359.999
0.0668,128.181881,37.923826,7000.2007824,0.0,0.063,359.999
0.0834,128.181881,37.923871,7000.2144984,0.0,0.168,359.999
0.1002,128.181881,37.923915,7000.229128800001,0.0,0.33,359.999
0.1169,128.181881,37.92396,7000.244978400001,0.0,0.56,359.999
0.1336,128.181881,37.924005,7000.2632664,-0.001,0.863,359.999
0.1503,128.181881,37.92405,7000.283688,-0.001,1.242,359.999
0.1669,128.181881,37.924095,7000.3068528,-0.001,1.684,359.999
0.1837,128.181881,37.92414,7000.3336752,-0.001,2.176,359.999
0.2004,128.181881,37.924185,7000.364155200001,-0.002,2.704,359.999
0.2171,128.181881,37.92423,7000.3992072,-0.002,3.252,359.999
0.2338,128.181881,37.924275,7000.439136,-0.002,3.803,359.999
0.2505,128.181881,37.92432,7000.4842464,-0.003,4.339,359.999
0.2672,128.181881,37.924365,7000.5348432,-0.003,4.845,359.999
0.2839,128.181881,37.92441,7000.591840800001,-0.004,5.317,359.999
0.3006,128.181881,37.924455,7000.6552392,-0.004,5.758,359.999
0.3172,128.181881,37.9245,7000.7259527999995,-0.005,6.17,359.999
0.3339,128.181881,37.924545,7000.8036768,-0.005,6.555,359.999
0.3507,128.181881,37.92459,7000.8893256,-0.006,6.916,359.999
0.3674,128.181881,37.924635,7000.9828992,-0.007,7.256,359.999
0.3841,128.181881,37.92468,7001.0850072,-0.008,7.575,359.999
0.4008,128.181881,37.924725,7001.1953448,-0.008,7.876,359.999
0.4175,128.181881,37.92477,7001.3145216,-0.009,8.16,359.999
0.4342,128.181881,37.924815,7001.442232800001,-0.01,8.429,359.999
0.4509,128.181881,37.92486,7001.579392800001,-0.011,8.684,359.998
0.4676,128.181881,37.924905,7001.725392,-0.012,8.927,359.998
0.4843,128.181881,37.92495,7001.881144800001,-0.014,9.159,359.998
0.501,128.181881,37.924995,7002.0460416000005,-0.015,9.38,359.998
0.5176,128.181881,37.92504,7002.220692000001,-0.016,9.593,359.998
0.5344,128.181881,37.925085,7002.404791200001,-0.018,9.797,359.998
0.5511,128.181881,37.92513,7002.5989488000005,-0.02,9.994,359.998
0.5678,128.181881,37.925175,7002.802860000001,-0.022,10.184,359.998
0.5845,128.181881,37.92522,7003.0168296,-0.024,10.368,359.997
0.6012,128.181881,37.925265,7003.2405528,-0.026,10.546,359.997
0.6179,128.181881,37.92531,7003.4746392,-0.028,10.719,359.997
0.6345,128.181881,37.925355,7003.718479200001,-0.031,10.888,359.997
0.6513,128.181881,37.9254,7003.972682400001,-0.034,11.053,359.996
0.6679,128.181881,37.925445,7004.2372488,-0.037,11.214,359.996
0.6847,128.181881,37.92549,7004.5118736,-0.04,11.372,359.996
0.7014,128.181881,37.925535,7004.7968616,-0.044,11.527,359.996
0.7181,128.181881,37.92558,7005.0922128,-0.048,11.679,359.995
0.7348,128.181881,37.925625,7005.397927200001,-0.052,11.829,359.995
0.7514,128.181881,37.925669,7005.7140048,-0.057,11.976,359.994
0.7682,128.181881,37.925714,7006.040445600001,-0.062,12.122,359.994
0.7848,128.181881,37.925759,7006.3772496,-0.067,12.266,359.993
0.8016,128.181881,37.925804,7006.7247216000005,-0.073,12.408,359.993
0.8183,128.181881,37.925849,7007.082252000001,-0.08,12.549,359.992
0.835,128.181881,37.925894,7007.4507552000005,-0.087,12.688,359.991
0.8517,128.181881,37.925938,7007.8293168,-0.094,12.826,359.991
0.8684,128.181881,37.925983,7008.2185464,-0.103,12.963,359.99
0.8851,128.181881,37.926028,7008.618444,-0.112,13.1,359.989
0.9018,128.181881,37.926073,7009.0287048,-0.122,13.235,359.988
0.9185,128.181881,37.926117,7009.449633600001,-0.132,13.37,359.987
0.9352,128.181881,37.926162,7009.8809255999995,-0.144,13.504,359.986
0.9519,128.181881,37.926207,7010.3231904,-0.157,13.637,359.984
0.9686,128.181881,37.926252,7010.7755136000005,-0.17,13.77,359.983
0.9853,128.181881,37.926296,7011.2388096,-0.185,13.902,359.982
1.002,128.181881,37.926341,7011.7124688,-0.202,14.034,359.98
1.0187,128.181881,37.926386,7012.196796,-0.219,14.166,359.978
1.0353,128.181881,37.92643,7012.691791200001,-0.238,14.297,359.976
1.0521,128.181881,37.926475,7013.197149600001,-0.259,14.428,359.974
1.0688,128.181881,37.926519,7013.713176,-0.282,14.559,359.972
1.0855,128.181881,37.926564,7014.239870400001,-0.306,14.689,359.969
1.1022,128.181881,37.926609,7014.777537600001,-0.333,14.82,359.967
1.1189,128.181881,37.926653,7015.3252632,-0.362,14.95,359.964
1.1356,128.181881,37.926698,7015.8839616,-0.394,15.08,359.96
1.1522,128.181881,37.926742,7016.4533280000005,-0.428,15.209,359.957
1.169,128.181881,37.926787,7017.0333624,-0.465,15.339,359.953
1.1857,128.181881,37.926831,7017.6240648,-0.506,15.469,359.949
1.2024,128.181881,37.926875,7018.2254352,-0.55,15.599,359.944
1.2191,128.181881,37.92692,7018.8374736000005,-0.598,15.728,359.939
1.2358,128.181881,37.926964,7019.46018,-0.65,15.858,359.934
1.2525,128.181881,37.927009,7020.0935544,-0.707,15.988,359.928
1.2691,128.181881,37.927053,7020.7379016,-0.768,16.117,359.921
1.2859,128.181881,37.927097,7021.3929168,-0.835,16.247,359.914
1.3026,128.181881,37.927142,7022.0586,-0.908,16.377,359.907
1.3193,128.181881,37.927186,7022.735256000001,-0.987,16.507,359.899
1.3359,128.181881,37.92723,7023.4225799999995,-1.073,16.637,359.89
1.3527,128.181881,37.927275,7024.120876800001,-1.167,16.767,359.88
1.3694,128.181881,37.927319,7024.830146400001,-1.269,16.897,359.869
1.386,128.181881,37.927363,7025.550084000001,-1.379,17.027,359.857
1.4028,128.181881,37.927407,7026.2809944,-1.499,17.158,359.845
1.4195,128.181881,37.927452,7027.0228776,-1.63,17.288,359.831
1.4362,128.181881,37.927496,7027.776038400001,-1.772,17.419,359.816
1.4528,128.18188,37.92754,7028.540172,-1.926,17.55,359.799
1.4696,128.18188,37.927584,7029.3152784,-2.095,17.681,359.782
1.4863,128.18188,37.927628,7030.1013576,-2.278,17.812,359.763
1.5029,128.18188,37.927672,7030.899019200001,-2.477,17.944,359.742
1.5197,128.18188,37.927716,7031.7079584,-2.694,18.076,359.721
1.5364,128.18188,37.92776,7032.527870400001,-2.931,18.208,359.698
1.5531,128.18188,37.927804,7033.359364800001,-3.189,18.341,359.673
1.5697,128.18188,37.927848,7034.2024416,-3.471,18.474,359.647
1.5865,128.18188,37.927892,7035.057100800001,-3.777,18.607,359.62
1.6032,128.18188,37.927936,7035.9233424,-4.11,18.74,359.59
1.6198,128.18188,37.92798,7036.8014712,-4.473,18.874,359.559
1.6366,128.18188,37.928023,7037.691182400001,-4.867,19.008,359.525
1.6533,128.181879,37.928067,7038.5930856,-5.297,19.143,359.489
1.67,128.181879,37.928111,7039.5071808,-5.765,19.278,359.45
1.6867,128.181879,37.928155,7040.433468,-6.273,19.414,359.408
1.7034,128.181879,37.928198,7041.372252000001,-6.827,19.549,359.363
1.7201,128.181879,37.928242,7042.323228,-7.429,19.686,359.314
1.7368,128.181878,37.928286,7043.287310400001,-8.085,19.823,359.262
1.7535,128.181878,37.928329,7044.2641944,-8.798,19.96,359.205
1.7702,128.181878,37.928373,7045.2541848,-9.574,20.097,359.144
1.7869,128.181878,37.928416,7046.2572816,-10.415,20.235,359.078
1.8036,128.181877,37.92846,7047.2728752,-11.322,20.373,359.007
1.8203,128.181877,37.928503,7048.3015752,-12.292,20.511,358.931
1.837,128.181877,37.928547,7049.342772,-13.324,20.65,358.851
1.8537,128.181876,37.92859,7050.396770400001,-14.417,20.789,358.765
1.8704,128.181876,37.928633,7051.463265600001,-15.569,20.927,358.674
1.8871,128.181875,37.928677,7052.5419528,-16.781,21.066,358.578
1.9038,128.181875,37.92872,7053.6331368,-18.049,21.204,358.475
1.9205,128.181874,37.928763,7054.736208,-19.374,21.341,358.366
1.9372,128.181873,37.928806,7055.8514712,-20.753,21.477,358.251
1.9539,128.181872,37.928849,7056.9786216,-22.188,21.612,358.129
1.9706,128.181872,37.928892,7058.1173544,-23.675,21.746,357.999
1.9873,128.181871,37.928935,7059.267669600001,-25.215,21.877,357.862
2.004,128.18187,37.928978,7060.4292624,-26.808,22.007,357.718
2.0207,128.181869,37.929021,7061.601828000001,-28.453,22.135,357.566
2.0374,128.181868,37.929064,7062.7853663999995,-30.148,22.26,357.407
2.0541,128.181867,37.929107,7063.979572800001,-31.895,22.382,357.239
2.0707,128.181865,37.92915,7065.1841424,-33.692,22.501,357.063
2.0875,128.181864,37.929193,7066.3990752,-35.539,22.616,356.879
2.1042,128.181863,37.929235,7067.623456800001,-37.435,22.728,356.686
2.1208,128.181861,37.929278,7068.857592,-39.381,22.835,356.485
2.1376,128.18186,37.929321,7070.1008712,-41.376,22.937,356.274
2.1543,128.181858,37.929363,7071.3532944,-43.419,23.034,356.054
2.171,128.181856,37.929406,7072.6139472,-45.511,23.125,355.825
2.1877,128.181854,37.929449,7073.8828296,-47.652,23.209,355.587
2.2044,128.181852,37.929491,7075.1596368,-49.841,23.287,355.34
2.2211,128.18185,37.929534,7076.4434544000005,-52.079,23.358,355.083
2.2378,128.181848,37.929576,7077.7345872000005,-54.364,23.421,354.817
2.2544,128.181845,37.929619,7079.0321208,-56.698,23.475,354.542
2.2712,128.181843,37.929661,7080.335445600001,-59.08,23.519,354.257
2.2879,128.18184,37.929703,7081.6445616,-61.511,23.554,353.963
2.3045,128.181837,37.929746,7082.9588592,-63.989,23.577,353.66
2.3213,128.181834,37.929788,7084.277728800001,-66.516,23.588,353.348
2.338,128.181831,37.92983,7085.600865600001,-69.09,23.585,353.026
2.3546,128.181828,37.929873,7086.92766,-71.71,23.567,352.696
2.3714,128.181825,37.929915,7088.2575024,-74.377,23.532,352.358
2.3881,128.181821,37.929957,7089.590088000001,-77.088,23.479,352.012
2.4048,128.181818,37.929999,7090.9245024,-79.844,23.407,351.659
2.4215,128.181814,37.930041,7092.260440800001,-82.643,23.314,351.301
2.4382,128.18181,37.930084,7093.5975984,-85.485,23.2,350.938
2.4549,128.181806,37.930126,7094.9350608,-88.368,23.063,350.571
2.4716,128.181802,37.930168,7096.2725232,-91.292,22.903,350.203
2.4882,128.181798,37.93021,7097.609376,-94.255,22.718,349.835
2.505,128.181793,37.930252,7098.9447048,-97.257,22.507,349.468
2.5217,128.181789,37.930294,7100.278204800001,-100.296,22.272,349.106
2.5383,128.181784,37.930336,7101.6095712,-103.37,22.01,348.749
2.5551,128.181779,37.930378,7102.9378896,-106.479,21.723,348.401
2.5718,128.181774,37.93042,7104.262550400001,-109.622,21.41,348.062
2.5884,128.181769,37.930462,7105.5832488,-112.796,21.072,347.736
2.6052,128.181764,37.930504,7106.8993752,-116.0,20.71,347.425
2.6219,128.181758,37.930546,7108.210624800001,-119.228,20.324,347.129
2.6386,128.181753,37.930588,7109.516388000001,-122.478,19.916,346.852
2.6553,128.181747,37.93063,7110.816055200001,-125.745,19.487,346.594
2.6719,128.181742,37.930672,7112.1093216,-129.026,19.038,346.357
2.6887,128.181736,37.930714,7113.3958824,-132.319,18.573,346.143
2.7054,128.18173,37.930756,7114.675432800001,-135.621,18.091,345.953
2.722,128.181724,37.930798,7115.9470584,-138.93,17.595,345.788
2.7388,128.181718,37.93084,7117.211064,-142.245,17.088,345.648
2.7555,128.181712,37.930883,7118.4665352,-145.563,16.57,345.534
2.7721,128.181705,37.930925,7119.713472,-148.885,16.044,345.446
2.7889,128.181699,37.930967,7120.9521792000005,-152.185,15.513,345.383
2.8056,128.181692,37.931009,7122.182656800001,-155.41,14.98,345.342
2.8222,128.181686,37.931051,7123.4042952,-158.514,14.448,345.319
2.839,128.181679,37.931093,7124.6180088,-161.481,13.919,345.311
2.8557,128.181673,37.931135,7125.823492800001,-164.317,13.394,345.319
2.8724,128.181666,37.931177,7127.020747200001,-167.026,12.874,345.341
2.8891,128.18166,37.931219,7128.2103816,-169.613,12.36,345.376
2.9057,128.181653,37.931262,7129.392396,-172.08,11.853,345.425
2.9225,128.181646,37.931304,7130.5667904,-174.433,11.353,345.485
2.9392,128.181639,37.931346,7131.733869600001,-176.675,10.862,345.557
2.9558,128.181633,37.931388,7132.8939384000005,-178.81,10.379,345.64
2.9726,128.181626,37.931431,7134.046996800001,179.159,9.906,345.733
2.9893,128.181619,37.931473,7135.1930448,177.229,9.442,345.836
3.0059,128.181612,37.931515,7136.332996800001,175.399,8.989,345.949
3.0227,128.181605,37.931558,7137.4662432,173.666,8.546,346.072
3.0394,128.181598,37.9316,7138.592784000001,172.029,8.114,346.207
3.056,128.181591,37.931642,7139.712009600001,170.486,7.693,346.352
3.0728,128.181584,37.931685,7140.824224800001,169.026,7.283,346.503
3.0895,128.181578,37.931727,7141.929124800001,167.647,6.884,346.66
3.1062,128.181571,37.93177,7143.026404800001,166.349,6.496,346.822
3.1229,128.181564,37.931812,7144.1160648000005,165.129,6.12,346.99
3.1395,128.181557,37.931855,7145.1978,163.987,5.755,347.164
3.1563,128.18155,37.931897,7146.2710008,162.919,5.402,347.343
3.173,128.181543,37.93194,7147.336276800001,161.924,5.06,347.528
3.1896,128.181536,37.931982,7148.3930184,161.0,4.73,347.716
3.2064,128.181529,37.932025,7149.4412256,160.142,4.411,347.908
3.2231,128.181522,37.932067,7150.4805936,159.351,4.103,348.103
3.2397,128.181515,37.93211,7151.5108176,158.623,3.806,348.3
3.2565,128.181508,37.932153,7152.5325072,157.956,3.519,348.5
3.2732,128.181501,37.932195,7153.544748,157.349,3.244,348.7
3.2899,128.181494,37.932238,7154.5475400000005,156.801,2.978,348.902
3.3066,128.181487,37.932281,7155.541188000001,156.31,2.723,349.105
3.3233,128.18148,37.932324,7156.5250824,155.875,2.477,349.308
3.34,128.181473,37.932366,7157.499528,155.494,2.241,349.511
3.3567,128.181466,37.932409,7158.463915200001,155.166,2.014,349.715
3.3734,128.181459,37.932452,7159.4185488,154.891,1.796,349.917
3.3901,128.181452,37.932495,7160.363124,154.666,1.586,350.118
3.4068,128.181446,37.932538,7161.2976408,154.492,1.384,350.318
3.4235,128.181439,37.932581,7162.2220992,154.366,1.19,350.517
3.4402,128.181432,37.932624,7163.1361944,154.287,1.003,350.712
3.4569,128.181425,37.932667,7164.0399264,154.255,0.822,350.906
3.4736,128.181418,37.93271,7164.9326856,154.266,0.648,351.095
3.4903,128.181412,37.932753,7165.814472,154.315,0.48,351.282
3.507,128.181405,37.932796,7166.6849808,154.398,0.317,351.465
3.5237,128.181398,37.932839,7167.544212,154.511,0.159,351.644
3.5404,128.181392,37.932882,7168.3918608,154.651,0.006,351.819
3.5571,128.181385,37.932925,7169.227622400001,154.813,-0.142,351.99
3.5738,128.181378,37.932968,7170.051496800001,154.995,-0.288,352.155
3.5905,128.181372,37.933011,7170.863179200001,155.193,-0.431,352.315
3.6072,128.181365,37.933054,7171.6623648,155.406,-0.572,352.47
3.6239,128.181359,37.933098,7172.4493584,155.631,-0.711,352.619
3.6406,128.181352,37.933141,7173.2235504,155.864,-0.848,352.762
3.6573,128.181346,37.933184,7173.985245600001,156.105,-0.985,352.899
3.674,128.18134,37.933227,7174.7341392,156.35,-1.121,353.03
3.6907,128.181333,37.933271,7175.4702312,156.6,-1.256,353.155
3.7074,128.181327,37.933314,7176.1929119999995,156.855,-1.391,353.275
3.7241,128.181321,37.933357,7176.9027912,157.115,-1.526,353.391
3.7408,128.181315,37.933401,7177.5992592,157.378,-1.659,353.503
3.7575,128.181309,37.933444,7178.282316,157.644,-1.793,353.611
3.7742,128.181302,37.933487,7178.9519616,157.913,-1.926,353.717
3.7909,128.181296,37.933531,7179.608196,158.183,-2.059,353.82
3.8076,128.18129,37.933574,7180.2507144,158.454,-2.191,353.92
3.8243,128.181284,37.933617,7180.8795168,158.725,-2.324,354.017
3.841,128.181278,37.933661,7181.4946032,158.995,-2.457,354.112
3.8577,128.181272,37.933704,7182.095668800001,159.264,-2.591,354.204
3.8744,128.181266,37.933748,7182.6830184,159.531,-2.725,354.294
3.8911,128.181261,37.933791,7183.256652000001,159.795,-2.859,354.381
3.9078,128.181255,37.933835,7183.815960000001,160.057,-2.994,354.467
3.9245,128.181249,37.933878,7184.361552000001,160.315,-3.129,354.55
3.9412,128.181243,37.933922,7184.892818400001,160.57,-3.266,354.632
3.9579,128.181238,37.933965,7185.410064000001,160.821,-3.403,354.711
3.9746,128.181232,37.934009,7185.9132887999995,161.068,-3.541,354.788
3.9913,128.181226,37.934053,7186.402188000001,161.312,-3.68,354.863
4.008,128.181221,37.934096,7186.8767616,161.551,-3.82,354.937
4.0247,128.181215,37.93414,7187.337314400001,161.785,-3.96,355.009
4.0414,128.18121,37.934183,7187.783236800001,162.016,-4.102,355.079
4.058,128.181204,37.934227,7188.215138400001,162.242,-4.245,355.147
4.0748,128.181199,37.934271,7188.632714400001,162.464,-4.388,355.214
4.0915,128.181193,37.934314,7189.0359648,162.681,-4.533,355.279
4.1082,128.181188,37.934358,7189.4245848,162.894,-4.678,355.342
4.1249,128.181183,37.934402,7189.798879200001,163.103,-4.825,355.404
4.1415,128.181177,37.934445,7190.1600672,163.367,-4.973,355.46
4.1583,128.181172,37.934489,7190.507844,163.684,-5.124,355.51
4.175,128.181167,37.934533,7190.842819200001,164.047,-5.276,355.557
4.1917,128.181162,37.934576,7191.164992800001,164.452,-5.429,355.6
4.2084,128.181156,37.93462,7191.4743648,164.892,-5.583,355.642
4.2251,128.181151,37.934664,7191.769716,165.358,-5.736,355.682
4.2417,128.181146,37.934708,7192.051656000001,165.846,-5.89,355.721
4.2585,128.181141,37.934751,7192.3195752,166.347,-6.043,355.758
4.2752,128.181136,37.934795,7192.5731688000005,166.856,-6.196,355.795
4.2919,128.181131,37.934839,7192.812436800001,167.367,-6.349,355.83
4.3086,128.181126,37.934883,7193.037074400001,167.876,-6.503,355.864
4.3252,128.181121,37.934927,7193.246776800001,168.378,-6.656,355.896
4.342,128.181116,37.93497,7193.4412392,168.869,-6.809,355.927
4.3587,128.181111,37.935014,7193.6210712,169.348,-6.963,355.956
4.3754,128.181106,37.935058,7193.7853584,169.811,-7.118,355.984
4.3921,128.181101,37.935102,7193.934710400001,170.257,-7.273,356.009
4.4088,128.181096,37.935146,7194.068517600001,170.684,-7.429,356.033
4.4254,128.181092,37.935189,7194.18678,171.092,-7.586,356.056
4.4422,128.181087,37.935233,7194.2898024,171.48,-7.745,356.076
4.4589,128.181082,37.935277,7194.3775848,171.848,-7.904,356.094
4.4756,128.181077,37.935321,7194.4495176,172.198,-8.065,356.112
4.4923,128.181072,37.935365,7194.506210400001,172.53,-8.226,356.129
4.5089,128.181068,37.935409,7194.5476632,172.845,-8.389,356.146
4.5256,128.181063,37.935452,7194.5732664,173.142,-8.553,356.161
4.5424,128.181058,37.935496,7194.5836296,173.422,-8.718,356.176
4.5591,128.181054,37.93554,7194.578448,173.685,-8.884,356.189
4.5758,128.181049,37.935584,7194.5580264,173.932,-9.051,356.201
4.5925,128.181044,37.935628,7194.52206,174.164,-9.219,356.211
4.6091,128.18104,37.935672,7194.4705488,174.382,-9.388,356.221
4.6259,128.181035,37.935716,7194.403797600001,174.587,-9.558,356.229
4.6426,128.18103,37.935759,7194.321806400001,174.78,-9.729,356.236
4.6593,128.181026,37.935803,7194.224270400001,174.961,-9.9,356.242
4.676,128.181021,37.935847,7194.1114944,175.131,-10.073,356.248
4.6927,128.181017,37.935891,7193.9834784,175.292,-10.246,356.252
4.7093,128.181012,37.935935,7193.8402224,175.443,-10.419,356.255
4.7261,128.181007,37.935979,7193.6814216,175.586,-10.593,356.258
4.7428,128.181003,37.936022,7193.5076856000005,175.721,-10.768,356.259
4.7595,128.180998,37.936066,7193.3184048,175.849,-10.943,356.26
4.7762,128.180994,37.93611,7193.1141888,175.971,-11.118,356.261
4.7928,128.180989,37.936154,7192.8944280000005,176.087,-11.294,356.261
4.8096,128.180985,37.936198,7192.6594272,176.197,-11.47,356.26
4.8263,128.18098,37.936241,7192.4094912,176.301,-11.646,356.258
4.843,128.180976,37.936285,7192.144315200001,176.402,-11.822,356.257
4.8597,128.180971,37.936329,7191.8635944,176.497,-11.999,356.254
4.8764,128.180967,37.936373,7191.5679384000005,176.589,-12.176,356.252
4.893,128.180963,37.936417,7191.2570424000005,176.677,-12.353,356.249
4.9098,128.180958,37.93646,7190.931211200001,176.761,-12.53,356.246
4.9265,128.180954,37.936504,7190.5898352,176.843,-12.707,356.242
4.9432,128.180949,37.936548,7190.233524000001,176.921,-12.884,356.238
4.9599,128.180945,37.936592,7189.8619728,176.996,-13.061,356.234
4.9765,128.180941,37.936635,7189.475181600001,177.069,-13.238,356.229
4.9932,128.180936,37.936679,7189.0731504000005,177.139,-13.415,356.225
5.01,128.180932,37.936723,7188.656184000001,177.207,-13.592,356.22
5.0267,128.180927,37.936766,7188.223977600001,177.273,-13.769,356.215
5.0434,128.180923,37.93681,7187.7765312,177.336,-13.947,356.209
5.0601,128.180919,37.936854,7187.3138448,177.398,-14.124,356.204
5.0767,128.180914,37.936898,7186.836223200001,177.458,-14.301,356.198
5.0935,128.18091,37.936941,7186.3433616,177.516,-14.478,356.193
5.1102,128.180906,37.936985,7185.835564800001,177.572,-14.655,356.187
5.1269,128.180901,37.937029,7185.3122232000005,177.627,-14.832,356.181
5.1436,128.180897,37.937072,7184.7742512,177.68,-15.008,356.175
5.1602,128.180893,37.937116,7184.2207344,177.731,-15.185,356.169
5.1769,128.180888,37.937159,7183.6522824,177.782,-15.362,356.162
5.1937,128.180884,37.937203,7183.0685904,177.831,-15.539,356.156
5.2104,128.18088,37.937247,7182.4699632,177.878,-15.715,356.15
5.2271,128.180876,37.93729,7181.856096,177.925,-15.892,356.143
5.2438,128.180871,37.937334,7181.2272936,177.97,-16.068,356.137
5.2604,128.180867,37.937377,7180.583251200001,178.014,-16.245,356.13
5.2772,128.180863,37.937421,7179.923968800001,178.056,-16.421,356.123
5.2939,128.180859,37.937464,7179.249751200001,178.098,-16.597,356.117
5.3106,128.180854,37.937508,7178.5602936,178.139,-16.773,356.11
5.3273,128.18085,37.937551,7177.8559008,178.178,-16.949,356.103
5.3439,128.180846,37.937595,7177.1365728,178.217,-17.125,356.097
5.3606,128.180842,37.937638,7176.4020048,178.255,-17.301,356.09
5.3774,128.180837,37.937682,7175.652196800001,178.291,-17.477,356.083
5.3941,128.180833,37.937725,7174.8874536,178.327,-17.653,356.076
5.4108,128.180829,37.937769,7174.1077752,178.362,-17.828,356.069
5.4275,128.180825,37.937812,7173.312856800001,178.396,-18.004,356.063
5.4441,128.180821,37.937855,7172.5030032,178.429,-18.18,356.056
5.4609,128.180817,37.937899,7171.678214400001,178.461,-18.355,356.049
5.4776,128.180812,37.937942,7170.8381856000005,178.493,-18.53,356.042
5.4943,128.180808,37.937985,7169.9829168,178.523,-18.706,356.035
5.511,128.180804,37.938029,7169.113017600001,178.553,-18.881,356.029
5.5277,128.1808,37.938072,7168.227878400001,178.582,-19.056,356.022
5.5443,128.180796,37.938115,7167.3278040000005,178.61,-19.231,356.015
5.5611,128.180792,37.938158,7166.4127944,178.638,-19.406,356.008
5.5778,128.180787,37.938202,7165.4825448,178.665,-19.58,356.001
5.5945,128.180783,37.938245,7164.53736,178.691,-19.755,355.995
5.6112,128.180779,37.938288,7163.5772400000005,178.717,-19.93,355.988
5.6278,128.180775,37.938331,7162.6021848,178.741,-20.104,355.981
5.6445,128.180771,37.938374,7161.6121944,178.766,-20.279,355.975
5.6613,128.180767,37.938417,7160.6072688,178.789,-20.453,355.968
5.678,128.180763,37.938461,7159.5871032000005,178.812,-20.627,355.962
5.6947,128.180759,37.938504,7158.5520024,178.834,-20.802,355.955
5.7114,128.180754,37.938547,7157.5022712,178.856,-20.976,355.948
5.728,128.18075,37.93859,7156.4373000000005,178.877,-21.15,355.942
5.7448,128.180746,37.938633,7155.3573936,178.897,-21.324,355.936
5.7615,128.180742,37.938676,7154.262856800001,178.917,-21.498,355.929
5.7782,128.180738,37.938719,7153.15308,178.936,-21.671,355.923
5.7949,128.180734,37.938762,7152.028368,178.955,-21.845,355.916
5.8115,128.18073,37.938804,7150.8890255999995,178.973,-22.019,355.91
5.8282,128.180726,37.938847,7149.7344432,178.99,-22.192,355.904
5.845,128.180722,37.93889,7148.5652304,179.007,-22.366,355.898
5.8617,128.180718,37.938933,7147.3810824,179.024,-22.539,355.892
5.8784,128.180714,37.938976,7146.1819992,179.039,-22.712,355.885
5.8951,128.18071,37.939019,7144.9679808,179.055,-22.885,355.879
5.9117,128.180706,37.939061,7143.739332,179.07,-23.058,355.873
5.9285,128.180702,37.939104,7142.495748,179.084,-23.231,355.867
5.9452,128.180698,37.939147,7141.237228800001,179.098,-23.404,355.862
5.9619,128.180694,37.939189,7139.963774400001,179.111,-23.577,355.856
5.9786,128.180689,37.939232,7138.6756896,179.124,-23.75,355.85
5.9952,128.180685,37.939275,7137.3726696,179.137,-23.922,355.844
6.0119,128.180681,37.939317,7136.055019200001,179.149,-24.095,355.839
6.0287,128.180677,37.93936,7134.722433600001,179.16,-24.267,355.833
6.0454,128.180673,37.939402,7133.3749128,179.172,-24.44,355.827
6.0621,128.180669,37.939445,7132.0127616,179.182,-24.612,355.822
6.0788,128.180665,37.939487,7130.63598,179.193,-24.784,355.817
6.0954,128.180661,37.939529,7129.2442632,179.203,-24.956,355.811
6.1121,128.180658,37.939572,7127.8379159999995,179.212,-25.128,355.806
6.1289,128.180654,37.939614,7126.416633600001,179.221,-25.3,355.801
6.1456,128.18065,37.939656,7124.9807208,179.23,-25.472,355.796
6.1623,128.180646,37.939699,7123.530177600001,179.238,-25.644,355.792
6.179,128.180642,37.939741,7122.0646992,179.246,-25.816,355.787
6.1956,128.180638,37.939783,7120.584895200001,179.253,-25.987,355.782
6.2124,128.180634,37.939825,7119.0898512,179.261,-26.159,355.778
6.2291,128.18063,37.939868,7117.5804816,179.267,-26.33,355.773
6.2458,128.180626,37.93991,7116.056481600001,179.274,-26.501,355.769
6.2625,128.180622,37.939952,7114.5175464,179.279,-26.673,355.765
6.2791,128.180618,37.939994,7112.9642856,179.285,-26.844,355.761
6.2958,128.180614,37.940036,7111.3960896,179.29,-27.015,355.757
6.3126,128.18061,37.940078,7109.8135680000005,179.295,-27.186,355.753
6.3293,128.180606,37.94012,7108.216111200001,179.299,-27.357,355.749
6.346,128.180602,37.940162,7106.604328800001,179.303,-27.527,355.745
6.3627,128.180598,37.940204,7104.977611200001,179.307,-27.698,355.741
6.3793,128.180594,37.940245,7103.336568000001,179.31,-27.869,355.738
6.3961,128.180591,37.940287,7101.6808944,179.313,-28.039,355.734
6.4128,128.180587,37.940329,7100.0105904,179.316,-28.21,355.731
6.4295,128.180583,37.940371,7098.325656000001,179.318,-28.38,355.727
6.4462,128.180579,37.940412,7096.626396000001,179.32,-28.55,355.724
6.4628,128.180575,37.940454,7094.9125056,179.322,-28.72,355.721
6.4795,128.180571,37.940496,7093.1839848,179.323,-28.891,355.717
6.4963,128.180567,37.940537,7091.4411384,179.325,-29.061,355.714
6.513,128.180563,37.940579,7089.6836616,179.325,-29.23,355.711
6.5297,128.180559,37.94062,7087.911554400001,179.326,-29.4,355.708
6.5464,128.180556,37.940662,7086.1251216,179.326,-29.57,355.705
6.5631,128.180552,37.940703,7084.3243632,179.326,-29.74,355.702
6.5798,128.180548,37.940744,7082.508974400001,179.325,-29.909,355.7
6.5965,128.180544,37.940786,7080.679260000001,179.325,-30.079,355.697
6.6132,128.18054,37.940827,7078.835220000001,179.324,-30.248,355.694
6.6299,128.180536,37.940868,7076.9765496,179.323,-30.417,355.691
6.6466,128.180533,37.940909,7075.1035536,179.321,-30.587,355.689
6.6633,128.180529,37.940951,7073.216232000001,179.319,-30.756,355.686
6.68,128.180525,37.940992,7071.3145848,179.317,-30.925,355.684
6.6967,128.180521,37.941033,7069.3983072,179.315,-31.094,355.681
6.7134,128.180517,37.941074,7067.467704000001,179.313,-31.263,355.679
6.7301,128.180514,37.941115,7065.52308,179.31,-31.432,355.677
6.7468,128.18051,37.941156,7063.5638256,179.307,-31.6,355.674
6.7635,128.180506,37.941197,7061.5905504,179.304,-31.769,355.672
6.7802,128.180502,37.941237,7059.6026448,179.3,-31.937,355.67
6.7969,128.180498,37.941278,7057.6007184,179.297,-32.106,355.668
6.8136,128.180495,37.941319,7055.5844664,179.293,-32.274,355.666
6.8303,128.180491,37.94136,7053.5538888,179.289,-32.442,355.664
6.847,128.180487,37.9414,7051.5089856,179.285,-32.611,355.662
6.8637,128.180483,37.941441,7049.4500616,179.28,-32.779,355.66
6.8804,128.18048,37.941482,7047.3768119999995,179.276,-32.947,355.658
6.8971,128.180476,37.941522,7045.2892368,179.271,-33.115,355.656
6.9138,128.180472,37.941563,7043.187640800001,179.266,-33.283,355.654
6.9305,128.180468,37.941603,7041.072024000001,179.26,-33.45,355.653
6.9472,128.180465,37.941643,7038.9417768,179.255,-33.618,355.651
6.9639,128.180461,37.941684,7036.7978136,179.249,-33.786,355.649
6.9806,128.180457,37.941724,7034.639524800001,179.244,-33.953,355.648
6.9973,128.180454,37.941764,7032.4672152,179.238,-34.12,355.646
7.014,128.18045,37.941804,7030.28058,179.231,-34.288,355.644
7.0307,128.180446,37.941845,7028.0802288,179.225,-34.455,355.643
7.0474,128.180442,37.941885,7025.865552000001,179.219,-34.622,355.641
7.0641,128.180439,37.941925,7023.636854400001,179.212,-34.789,355.64
7.0808,128.180435,37.941965,7021.394136,179.205,-34.956,355.638
7.0975,128.180431,37.942005,7019.137092000001,179.198,-35.123,355.637
7.1142,128.180428,37.942044,7016.8663320000005,179.191,-35.29,355.636
7.1309,128.180424,37.942084,7014.581551200001,179.183,-35.457,355.634
7.1476,128.18042,37.942124,7012.2827496,179.176,-35.623,355.633
7.1643,128.180417,37.942164,7009.970232000001,179.168,-35.79,355.632
7.181,128.180413,37.942204,7007.6433888,179.161,-35.956,355.631
7.1977,128.18041,37.942243,7005.3028296,179.153,-36.123,355.63
7.2144,128.180406,37.942283,7002.9482496,179.145,-36.289,355.629
7.2311,128.180402,37.942322,7000.5796488,179.137,-36.455,355.628
7.2478,128.180399,37.942362,6998.197332000001,179.128,-36.621,355.627
7.2645,128.180395,37.942401,6995.8009944000005,179.12,-36.787,355.626
7.2812,128.180391,37.94244,6993.3909408,179.111,-36.953,355.626
7.2979,128.180388,37.94248,6990.9668664,179.103,-37.119,355.625
7.3146,128.180384,37.942519,6988.529076,179.094,-37.285,355.625
7.3313,128.180381,37.942558,6986.077569600001,179.085,-37.451,355.624
7.348,128.180377,37.942597,6983.612042400001,179.076,-37.616,355.624
7.3647,128.180374,37.942636,6981.1331040000005,179.067,-37.782,355.624
7.3814,128.18037,37.942675,6978.640144800001,179.057,-37.947,355.624
7.3981,128.180366,37.942714,6976.1334696,179.048,-38.113,355.623
7.4148,128.180363,37.942753,6973.612773600001,179.038,-38.278,355.623
7.4315,128.180359,37.942792,6971.0786664,179.028,-38.443,355.624
7.4482,128.180356,37.942831,6968.5308432,179.018,-38.608,355.624
7.4649,128.180352,37.94287,6965.969304,179.008,-38.773,355.624
7.4816,128.180349,37.942908,6963.3940488,178.998,-38.938,355.624
7.4983,128.180345,37.942947,6960.805382400001,178.988,-39.103,355.625
7.515,128.180342,37.942986,6958.203,178.978,-39.268,355.625
7.5317,128.180338,37.943024,6955.586901600001,178.967,-39.432,355.626
7.5484,128.180335,37.943063,6952.9570872,178.957,-39.597,355.626
7.5651,128.180331,37.943101,6950.3138616,178.946,-39.761,355.627
7.5818,128.180328,37.943139,6947.65692,178.935,-39.926,355.628
7.5985,128.180324,37.943178,6944.9865672000005,178.924,-40.09,355.629
7.6152,128.180321,37.943216,6942.3028032,178.913,-40.254,355.63
7.6319,128.180317,37.943254,6939.6053232,178.902,-40.419,355.631
7.6486,128.180314,37.943292,6936.894432,178.891,-40.583,355.632
7.6653,128.180311,37.94333,6934.169824800001,178.88,-40.747,355.633
7.682,128.180307,37.943368,6931.432111200001,178.868,-40.911,355.634
7.6987,128.180304,37.943406,6928.6806816,178.857,-41.074,355.635
7.7154,128.1803,37.943444,6925.9161456,178.845,-41.238,355.637
7.7321,128.180297,37.943482,6923.1378936,178.834,-41.402,355.638
7.7488,128.180294,37.943519,6920.3465352,178.822,-41.565,355.64
7.7655,128.18029,37.943557,6917.541765600001,178.81,-41.729,355.642
7.7822,128.180287,37.943594,6914.7235848,178.798,-41.892,355.643
7.7989,128.180283,37.943632,6911.8919928000005,178.787,-42.056,355.645
7.8156,128.18028,37.943669,6909.0469896,178.775,-42.219,355.647
7.8323,128.180277,37.943707,6906.18888,178.763,-42.382,355.649
7.849,128.180273,37.943744,6903.317664,178.751,-42.545,355.651
7.8657,128.18027,37.943781,6900.432732,178.738,-42.707,355.653
7.8824,128.180267,37.943819,6897.5349984,178.726,-42.87,355.655
7.8991,128.180263,37.943856,6894.6238536,178.714,-43.033,355.658
7.9158,128.18026,37.943893,6891.6996024,178.702,-43.195,355.66
7.9325,128.180257,37.94393,6888.76194,178.689,-43.357,355.662
7.9492,128.180253,37.943967,6885.811476,178.677,-43.52,355.665
7.9659,128.18025,37.944004,6882.847600800001,178.665,-43.682,355.668
7.9826,128.180247,37.94404,6879.870924000001,178.652,-43.844,355.67
7.9993,128.180244,37.944077,6876.880836,178.64,-44.005,355.673
8.016,128.18024,37.944114,6873.8776416,178.627,-44.167,355.676
8.0327,128.180237,37.94415,6870.8616456,178.615,-44.329,355.679
8.0494,128.180234,37.944187,6867.8325432,178.602,-44.49,355.682
8.0661,128.180231,37.944223,6864.7903344,178.59,-44.652,355.685
8.0828,128.180227,37.94426,6861.735324,178.577,-44.813,355.688
8.0994,128.180224,37.944296,6858.6672072,178.564,-44.974,355.691
8.1161,128.180221,37.944332,6855.585984000001,178.552,-45.135,355.694
8.1329,128.180218,37.944369,6852.491959200001,178.539,-45.296,355.697
8.1496,128.180215,37.944405,6849.385132800001,178.526,-45.457,355.701
8.1663,128.180211,37.944441,6846.265504800001,178.514,-45.618,355.704
8.183,128.180208,37.944477,6843.1327704000005,178.501,-45.779,355.708
8.1997,128.180205,37.944513,6839.9872344,178.488,-45.94,355.712
8.2164,128.180202,37.944548,6836.828896800001,178.476,-46.1,355.715
8.2331,128.180199,37.944584,6833.6577576,178.463,-46.261,355.719
8.2498,128.180196,37.94462,6830.4738168,178.45,-46.421,355.723
8.2665,128.180193,37.944656,6827.277379200001,178.437,-46.581,355.727
8.2831,128.180189,37.944691,6824.0678352,178.425,-46.741,355.731
8.2998,128.180186,37.944727,6820.8457944,178.412,-46.901,355.735
8.3166,128.180183,37.944762,6817.610952000001,178.399,-47.061,355.739
8.3333,128.18018,37.944797,6814.363308,178.387,-47.221,355.743
8.35,128.180177,37.944833,6811.1031672,178.374,-47.381,355.748
8.3667,128.180174,37.944868,6807.8305296,178.361,-47.541,355.752
8.3834,128.180171,37.944903,6804.5450904,178.349,-47.701,355.756
8.4001,128.180168,37.944938,6801.2471544,178.336,-47.86,355.761
8.4168,128.180165,37.944973,6797.9367216,178.323,-48.02,355.765
8.4335,128.180162,37.945008,6794.6134872,178.311,-48.179,355.77
8.4502,128.180159,37.945042,6791.278060800001,178.298,-48.338,355.775
8.4668,128.180156,37.945077,6787.9298328,178.286,-48.497,355.78
8.4835,128.180153,37.945112,6784.5694128000005,178.273,-48.657,355.784
8.5003,128.18015,37.945146,6781.1964960000005,178.261,-48.816,355.789
8.517,128.180147,37.945181,6777.8110824000005,178.248,-48.975,355.794
8.5337,128.180144,37.945215,6774.4131720000005,178.236,-49.133,355.799
8.5504,128.180141,37.94525,6771.0030696,178.223,-49.292,355.805
8.5671,128.180138,37.945284,6767.580470400001,178.211,-49.451,355.81
8.5838,128.180135,37.945318,6764.145374400001,178.199,-49.61,355.815
8.6005,128.180132,37.945352,6760.6983912000005,178.186,-49.768,355.82
8.6172,128.180129,37.945386,6757.238606400001,178.174,-49.927,355.826
8.6339,128.180126,37.94542,6753.7669344,178.162,-50.085,355.831
8.6505,128.180123,37.945454,6750.283070400001,178.15,-50.243,355.837
8.6672,128.180121,37.945488,6746.786709600001,178.137,-50.402,355.843
8.684,128.180118,37.945522,6743.278156800001,178.125,-50.56,355.848
8.7007,128.180115,37.945555,6739.7577168,178.113,-50.718,355.854
8.7174,128.180112,37.945589,6736.22478,178.101,-50.876,355.86
8.7341,128.180109,37.945622,6732.679956000001,178.089,-51.034,355.866
8.7508,128.180106,37.945656,6729.12294,178.077,-51.191,355.872
8.7675,128.180104,37.945689,6725.5540368,178.065,-51.349,355.878
8.7842,128.180101,37.945722,6721.972941600001,178.053,-51.507,355.884
8.8009,128.180098,37.945755,6718.379654400001,178.041,-51.664,355.89
8.8176,128.180095,37.945789,6714.77448,178.03,-51.822,355.896
8.8342,128.180092,37.945822,6711.1574184,178.018,-51.979,355.903
8.8509,128.18009,37.945854,6707.528164800001,178.006,-52.137,355.909
8.8676,128.180087,37.945887,6703.8873288,177.994,-52.294,355.915
8.8844,128.180084,37.94592,6700.234300800001,177.983,-52.451,355.922
8.9011,128.180081,37.945953,6696.5693856,177.971,-52.608,355.929
8.9178,128.180079,37.945985,6692.892888,177.96,-52.765,355.935
8.9345,128.180076,37.946018,6689.2041984,177.948,-52.922,355.942
8.9512,128.180073,37.94605,6685.5039264,177.937,-53.079,355.949
8.9679,128.180071,37.946083,6681.7917672,177.925,-53.236,355.956
8.9846,128.180068,37.946115,6678.0680256,177.914,-53.392,355.963
9.0013,128.180065,37.946147,6674.3323968,177.903,-53.549,355.97
9.0179,128.180063,37.946179,6670.5848808,177.891,-53.706,355.977
9.0346,128.18006,37.946211,6666.826087200001,177.88,-53.862,355.984
9.0513,128.180058,37.946243,6663.055101600001,177.869,-54.018,355.991
9.0681,128.180055,37.946275,6659.272838400001,177.858,-54.175,355.998
9.0848,128.180052,37.946306,6655.478992800001,177.847,-54.331,356.006
9.1015,128.18005,37.946338,6651.6735648,177.836,-54.487,356.013
9.1182,128.180047,37.94637,6647.8562496,177.825,-54.643,356.02
9.1349,128.180045,37.946401,6644.027656800001,177.814,-54.799,356.028
9.1516,128.180042,37.946433,6640.1874816,177.803,-54.955,356.036
9.1683,128.18004,37.946464,6636.3360288,177.792,-55.111,356.043
9.185,128.180037,37.946495,6632.4729936,177.781,-55.267,356.051
9.2016,128.180034,37.946526,6628.598376,177.771,-55.423,356.059
9.2183,128.180032,37.946557,6624.7124808,177.76,-55.578,356.067
9.235,128.180029,37.946588,6620.8150032,177.749,-55.734,356.075
9.2518,128.180027,37.946619,6616.9065528,177.739,-55.89,356.083
9.2685,128.180025,37.94665,6612.98652,177.728,-56.045,356.091
9.2852,128.180022,37.946681,6609.0552096,177.717,-56.2,356.099
9.3019,128.18002,37.946711,6605.1126216,177.707,-56.356,356.107
9.3186,128.180017,37.946742,6601.158756000001,177.696,-56.511,356.115
9.3353,128.180015,37.946772,6597.1936128,177.686,-56.666,356.124
9.352,128.180012,37.946802,6593.217496800001,177.676,-56.821,356.132
9.3687,128.18001,37.946833,6589.2301032,177.665,-56.976,356.141
9.3854,128.180008,37.946863,6585.2314320000005,177.655,-57.131,356.149
9.402,128.180005,37.946893,6581.221788000001,177.645,-57.286,356.158
9.4187,128.180003,37.946923,6577.2008663999995,177.635,-57.441,356.167
9.4355,128.180001,37.946953,6573.168972,177.624,-57.596,356.175
9.4522,128.179998,37.946983,6569.126104800001,177.614,-57.751,356.184
9.4689,128.179996,37.947012,6565.072264800001,177.604,-57.906,356.193
9.4856,128.179994,37.947042,6561.007147200001,177.594,-58.062,356.202
9.5023,128.179991,37.947071,6556.9313616,177.584,-58.219,356.212
9.519,128.179989,37.947101,6552.8446032,177.574,-58.376,356.221
9.5357,128.179987,37.94713,6548.746872,177.563,-58.534,356.23
9.5524,128.179985,37.947159,6544.638168,177.553,-58.692,356.24
9.5691,128.179982,37.947188,6540.5184912,177.543,-58.851,356.25
9.5857,128.17998,37.947217,6536.388146400001,177.533,-59.01,356.259
9.6024,128.179978,37.947246,6532.246828800001,177.523,-59.17,356.269
9.6192,128.179976,37.947275,6528.0948432,177.513,-59.33,356.279
9.6359,128.179974,37.947304,6523.9321896,177.503,-59.491,356.29
9.6526,128.179971,37.947333,6519.7585632,177.493,-59.652,356.3
9.6693,128.179969,37.947361,6515.5742688,177.483,-59.813,356.31
9.686,128.179967,37.94739,6511.3790016,177.473,-59.974,356.321
9.7027,128.179965,37.947418,6507.1733712,177.463,-60.136,356.331
9.7194,128.179963,37.947446,6502.957072800001,177.453,-60.298,356.342
9.7361,128.179961,37.947475,6498.7298016,177.443,-60.461,356.353
9.7528,128.179959,37.947503,6494.4921672,177.433,-60.623,356.364
9.7694,128.179957,37.947531,6490.243864800001,177.423,-60.786,356.375
9.7861,128.179954,37.947559,6485.9848944000005,177.413,-60.949,356.386
9.8029,128.179952,37.947586,6481.715560800001,177.403,-61.112,356.398
9.8196,128.17995,37.947614,6477.4355592,177.393,-61.275,356.409
9.8363,128.179948,37.947642,6473.1451944,177.383,-61.439,356.421
9.853,128.179946,37.947669,6468.8441616,177.374,-61.602,356.432
9.8697,128.179944,37.947697,6464.532460800001,177.364,-61.766,356.444
9.8864,128.179942,37.947724,6460.210701600001,177.354,-61.929,356.456
9.9031,128.17994,37.947751,6455.878274400001,177.344,-62.093,356.468
9.9198,128.179938,37.947778,6451.535484000001,177.335,-62.257,356.48
9.9365,128.179936,37.947805,6447.1823304,177.325,-62.421,356.492
9.9531,128.179935,37.947832,6442.8188136,177.315,-62.585,356.504
9.9698,128.179933,37.947859,6438.444933600001,177.306,-62.749,356.517
9.9865,128.179931,37.947886,6434.0609952,177.296,-62.914,356.529
10.0033,128.179929,37.947912,6429.666388799999,177.286,-63.078,356.542
10.02,128.179927,37.947939,6425.262028800001,177.276,-63.242,356.555
10.0367,128.179925,37.947965,6420.8470008,177.267,-63.407,356.567
10.0534,128.179923,37.947991,6416.421914400001,177.257,-63.571,356.58
10.0701,128.179921,37.948018,6411.9864648,177.247,-63.736,356.594
10.0868,128.17992,37.948044,6407.541261599999,177.238,-63.9,356.607
10.1035,128.179918,37.94807,6403.0856952,177.228,-64.065,356.62
10.1202,128.179916,37.948096,6398.6197656,177.218,-64.23,356.634
10.1368,128.179914,37.948121,6394.1440824,177.208,-64.395,356.647
10.1535,128.179912,37.948147,6389.658340800001,177.199,-64.559,356.661
10.1702,128.179911,37.948173,6385.1625408,177.189,-64.724,356.675
10.187,128.179909,37.948198,6380.6566824,177.179,-64.889,356.689
10.2037,128.179907,37.948223,6376.140765600001,177.169,-65.054,356.703
10.2204,128.179906,37.948249,6371.6147904,177.159,-65.22,356.717
10.2371,128.179904,37.948274,6367.0793664,177.149,-65.385,356.732
10.2538,128.179902,37.948299,6362.5335792000005,177.139,-65.55,356.747
10.2705,128.1799,37.948324,6357.9780384000005,177.129,-65.715,356.761
10.2872,128.179899,37.948349,6353.412744,177.119,-65.881,356.776
10.3039,128.179897,37.948373,6348.8376960000005,177.109,-66.046,356.791
10.3205,128.179896,37.948398,6344.2525896,177.099,-66.212,356.806
10.3372,128.179894,37.948422,6339.658034399999,177.088,-66.377,356.822
10.3539,128.179892,37.948447,6335.0534208,177.078,-66.543,356.837
10.3707,128.179891,37.948471,6330.4393584,177.067,-66.709,356.853
10.3874,128.179889,37.948495,6325.815542400001,177.057,-66.874,356.869
10.4041,128.179888,37.948519,6321.1819728,177.046,-67.04,356.885
10.4208,128.179886,37.948543,6316.5389544,177.036,-67.206,356.901
10.4375,128.179885,37.948567,6311.8861824000005,177.025,-67.372,356.917
10.4542,128.179883,37.948591,6307.223656800001,177.014,-67.538,356.934
10.4709,128.179882,37.948614,6302.5519872,177.003,-67.704,356.951
10.4876,128.17988,37.948638,6297.870564000001,176.992,-67.87,356.968
10.5042,128.179879,37.948661,6293.179692000001,176.981,-68.036,356.985
10.5209,128.179877,37.948684,6288.4793712,176.969,-68.203,357.002
10.5376,128.179876,37.948708,6283.769601600001,176.958,-68.369,357.019
10.5544,128.179874,37.948731,6279.050688,176.946,-68.535,357.037
10.5711,128.179873,37.948754,6274.3220208,176.935,-68.702,357.055
10.5878,128.179872,37.948776,6269.584209600001,176.923,-68.868,357.073
10.6045,128.17987,37.948799,6264.8372544,176.911,-69.035,357.092
10.6212,128.179869,37.948822,6260.080850400001,176.898,-69.201,357.11
10.6379,128.179867,37.948844,6255.3149976,176.886,-69.368,357.129
10.6546,128.179866,37.948867,6250.5403056000005,176.874,-69.535,357.148
10.6713,128.179865,37.948889,6245.756164800001,176.861,-69.702,357.167
10.6879,128.179863,37.948911,6240.96288,176.848,-69.869,357.187
10.7046,128.179862,37.948933,6236.160756,176.835,-70.036,357.207
10.7213,128.179861,37.948955,6231.349183200001,176.822,-70.203,357.227
10.7381,128.17986,37.948977,6226.5287712,176.809,-70.37,357.247
10.7548,128.179858,37.948998,6221.6992152,176.795,-70.537,357.267
10.7715,128.179857,37.94902,6216.860820000001,176.781,-70.704,357.288
10.7882,128.179856,37.949041,6212.0132808,176.767,-70.872,357.309
10.8049,128.179855,37.949063,6207.1569024,176.753,-71.039,357.331
10.8216,128.179854,37.949084,6202.29138,176.738,-71.206,357.352
10.8383,128.179852,37.949105,6197.4173232,176.723,-71.374,357.374
10.855,128.179851,37.949126,6192.5341224,176.708,-71.541,357.397
10.8717,128.17985,37.949147,6187.6423872000005,176.693,-71.709,357.419
10.8883,128.179849,37.949167,6182.7418128,176.677,-71.877,357.442
10.905,128.179848,37.949188,6177.8323992000005,176.661,-72.044,357.466
10.9218,128.179847,37.949208,6172.9141464,176.645,-72.212,357.489
10.9385,128.179846,37.949229,6167.9873592,176.629,-72.38,357.513
10.9552,128.179845,37.949249,6163.0520376,176.612,-72.548,357.538
10.9719,128.179844,37.949269,6158.1081816000005,176.595,-72.716,357.563
10.9886,128.179842,37.949289,6153.1554864,176.577,-72.884,357.588
11.0053,128.179841,37.949309,6148.194561599999,176.559,-73.052,357.613
11.022,128.17984,37.949329,6143.224797600001,176.541,-73.221,357.639
11.0387,128.179839,37.949348,6138.246804,176.523,-73.389,357.666
11.0554,128.179839,37.949368,6133.260276,176.503,-73.557,357.693
11.072,128.179838,37.949387,6128.265213600001,176.484,-73.726,357.72
11.0887,128.179837,37.949407,6123.2619216,176.464,-73.894,357.748
11.1054,128.179836,37.949426,6118.2504,176.444,-74.063,357.776
11.1222,128.179835,37.949445,6113.230344,176.423,-74.232,357.805
11.1389,128.179834,37.949464,6108.2020584,176.402,-74.4,357.834
11.1556,128.179833,37.949482,6103.165848,176.38,-74.569,357.864
11.1723,128.179832,37.949501,6098.1211032,176.358,-74.738,357.895
11.189,128.179831,37.949519,6093.0684336,176.335,-74.907,357.926
11.2057,128.17983,37.949538,6088.0075344,176.312,-75.076,357.957
11.2224,128.17983,37.949556,6082.938405600001,176.288,-75.245,357.989
11.2391,128.179829,37.949574,6077.861352000001,176.263,-75.414,358.022
11.2557,128.179828,37.949592,6072.776373600001,176.238,-75.583,358.056
11.2724,128.179827,37.94961,6067.683470400001,176.212,-75.752,358.09
11.2891,128.179826,37.949628,6062.582337600001,176.186,-75.922,358.125
11.3059,128.179826,37.949645,6057.4735848,176.159,-76.091,358.161
11.3226,128.179825,37.949663,6052.3569072,176.131,-76.261,358.197
11.3393,128.179824,37.94968,6047.232304800001,176.102,-76.43,358.234
11.356,128.179824,37.949698,6042.1000824,176.073,-76.6,358.272
11.3727,128.179823,37.949715,6036.9599352000005,176.042,-76.769,358.311
11.3894,128.179822,37.949732,6031.812168,176.011,-76.939,358.351
11.4061,128.179822,37.949748,6026.6567808,175.979,-77.109,358.391
11.4228,128.179821,37.949765,6021.4934688,175.946,-77.279,358.433
11.4394,128.17982,37.949782,6016.3228416,175.912,-77.449,358.476
11.4561,128.17982,37.949798,6011.1445944,175.878,-77.619,358.519
11.4728,128.179819,37.949815,6005.9587272,175.842,-77.789,358.564
11.4896,128.179818,37.949831,6000.7655448000005,175.805,-77.959,358.61
11.5063,128.179818,37.949847,5995.564742400001,175.766,-78.129,358.657
11.523,128.179817,37.949863,5990.356624800001,175.727,-78.299,358.705
11.5397,128.179817,37.949878,5985.141192000001,175.687,-78.47,358.755
11.5564,128.179816,37.949894,5979.918444,175.645,-78.64,358.805
11.5731,128.179816,37.94991,5974.6883808,175.601,-78.811,358.858
11.5898,128.179815,37.949925,5969.4510024,175.557,-78.981,358.912
11.6065,128.179815,37.94994,5964.2063088,175.51,-79.152,358.967
11.6231,128.179814,37.949955,5958.9546048,175.462,-79.322,359.024
11.6398,128.179814,37.94997,5953.6958904,175.413,-79.493,359.083
11.6565,128.179813,37.949985,5948.429860800001,175.361,-79.664,359.143
11.6733,128.179813,37.95,5943.1568208,175.308,-79.835,359.205
11.69,128.179813,37.950015,5937.8770752,175.253,-80.006,359.27
11.7067,128.179812,37.950029,5932.590014400001,175.196,-80.177,359.336
11.7234,128.179812,37.950043,5927.296248,175.136,-80.348,359.405
11.7401,128.179812,37.950058,5921.9954712,175.075,-80.519,359.476
11.7568,128.179811,37.950072,5916.687988799999,175.01,-80.69,359.549
11.7735,128.179811,37.950085,5911.373800800001,174.944,-80.861,359.625
11.7902,128.179811,37.950099,5906.0526024,174.874,-81.033,359.703
11.8068,128.17981,37.950113,5900.7246984,174.802,-81.204,359.785
11.8235,128.17981,37.950126,5895.3903936,174.727,-81.376,359.869
11.8402,128.17981,37.95014,5890.0490784,174.649,-81.547,359.957
11.857,128.17981,37.950153,5884.7016672,174.567,-81.719,0.048
11.8737,128.179809,37.950166,5879.3472456,174.481,-81.89,0.143
11.8904,128.179809,37.950179,5873.986728000001,174.392,-82.062,0.242
11.9071,128.179809,37.950192,5868.6195048,174.299,-82.234,0.345
11.9238,128.179809,37.950204,5863.2458808,174.201,-82.405,0.452
11.9405,128.179809,37.950217,5857.866160800001,174.098,-82.577,0.565
11.9572,128.179808,37.950229,5852.4797352,173.99,-82.749,0.682
11.9739,128.179808,37.950242,5847.087213600001,173.877,-82.921,0.805
11.9905,128.179808,37.950254,5841.688596000001,173.758,-83.093,0.933
12.0072,128.179808,37.950266,5836.2835776,173.633,-83.265,1.068
12.0239,128.179808,37.950277,5830.8724632,173.501,-83.437,1.21
12.0407,128.179808,37.950289,5825.4555576,173.361,-83.609,1.36
12.0574,128.179808,37.950301,5820.0322512,173.214,-83.781,1.517
12.0741,128.179808,37.950312,5814.6031536,173.057,-83.953,1.683
12.0908,128.179808,37.950323,5809.167960000001,172.892,-84.126,1.858
12.1075,128.179808,37.950334,5803.726670400001,172.716,-84.298,2.044
12.1242,128.179808,37.950345,5798.2798944,172.528,-84.47,2.241
12.1409,128.179808,37.950356,5792.8270224,172.329,-84.642,2.451
12.1576,128.179808,37.950367,5787.3686640000005,172.115,-84.815,2.674
12.1743,128.179808,37.950377,5781.9042096,171.887,-84.987,2.913
12.1909,128.179808,37.950388,5776.434268800001,171.642,-85.159,3.168
12.2076,128.179808,37.950398,5770.958841600001,171.379,-85.331,3.441
12.2243,128.179808,37.950408,5765.4776232,171.095,-85.503,3.735
12.2411,128.179808,37.950418,5759.990918400001,170.787,-85.676,4.052
12.2578,128.179808,37.950428,5754.4987272,170.454,-85.848,4.395
12.2745,128.179808,37.950437,5749.0010496,170.092,-86.02,4.768
12.2912,128.179809,37.950447,5743.4978856,169.696,-86.191,5.174
12.3079,128.179809,37.950456,5737.9895400000005,169.262,-86.363,5.618
12.3246,128.179809,37.950466,5732.475708,168.785,-86.535,6.105
12.3413,128.179809,37.950475,5726.9569992,168.257,-86.706,6.643
12.358,128.179809,37.950484,5721.432804,167.671,-86.877,7.24
12.3746,128.17981,37.950492,5715.9034272,167.016,-87.048,7.905
12.3913,128.17981,37.950501,5710.3688688,166.279,-87.219,8.652
12.408,128.17981,37.950509,5704.829433600001,165.446,-87.389,9.496
12.4248,128.17981,37.950518,5699.2851216,164.495,-87.558,10.457
12.4415,128.179811,37.950526,5693.735628,163.402,-87.727,11.561
12.4582,128.179811,37.950534,5688.1812576,162.132,-87.895,12.841
12.4749,128.179811,37.950542,5682.6220104,160.642,-88.062,14.341
12.4916,128.179812,37.95055,5677.0578864,158.87,-88.227,16.123
12.5083,128.179812,37.950557,5671.489190400001,156.735,-88.391,18.269
12.525,128.179812,37.950565,5665.915617600001,154.12,-88.551,20.895
12.5417,128.179813,37.950572,5660.3374728,150.858,-88.708,24.167
12.5583,128.179813,37.950579,5654.754756,146.708,-88.86,28.327
12.575,128.179814,37.950586,5649.1674672,141.319,-89.004,33.727
12.5917,128.179814,37.950593,5643.575606400001,134.195,-89.136,40.862
12.6085,128.179814,37.9506,5637.9794784000005,124.7,-89.25,50.367
12.6252,128.179815,37.950606,5632.378778400001,112.27,-89.337,62.808
12.6419,128.179815,37.950613,5626.773811200001,97.041,-89.385,78.047
12.6586,128.179816,37.950619,5621.164272,80.595,-89.385,94.503
12.6753,128.179816,37.950625,5615.550770400001,65.386,-89.336,109.723
12.692,128.179817,37.950631,5609.9330016,52.974,-89.249,122.145
12.7087,128.179817,37.950637,5604.3112704000005,43.483,-89.134,131.646
12.7254,128.179818,37.950642,5598.685272,36.347,-89.001,138.791
12.742,128.179819,37.950648,5593.055006400001,30.937,-88.857,144.211
12.7587,128.179819,37.950653,5587.421083200001,26.757,-88.704,148.4
12.7754,128.17982,37.950658,5581.783197600001,23.458,-88.547,151.708
12.7922,128.17982,37.950663,5576.1413496000005,20.799,-88.385,154.375
12.8089,128.179821,37.950668,5570.4955392,18.616,-88.221,156.567
12.8256,128.179822,37.950673,5564.8460712,16.792,-88.054,158.4
12.8423,128.179822,37.950677,5559.192945600001,15.243,-87.886,159.957
12.859,128.179823,37.950682,5553.5361624,13.909,-87.717,161.298
12.8757,128.179824,37.950686,5547.8757216,12.745,-87.547,162.469
12.8924,128.179824,37.95069,5542.211928000001,11.717,-87.376,163.503
12.9091,128.179825,37.950694,5536.5444768,10.801,-87.204,164.426
12.9257,128.179826,37.950698,5530.8733680000005,9.977,-87.031,165.255
12.9424,128.179826,37.950701,5525.199211200001,9.23,-86.859,166.008
12.9591,128.179827,37.950705,5519.521396800001,8.547,-86.685,166.695
12.9759,128.179828,37.950708,5513.8405344,7.918,-86.512,167.328
12.9926,128.179829,37.950711,5508.1563192,7.335,-86.337,167.915
13.0093,128.17983,37.950714,5502.469056000001,6.794,-86.163,168.459
13.026,128.17983,37.950717,5496.77844,6.289,-85.988,168.967
13.0427,128.179831,37.95072,5491.084776,5.818,-85.813,169.441
13.0594,128.179832,37.950722,5485.3883688000005,5.376,-85.638,169.885
13.0761,128.179833,37.950725,5479.6889136,4.963,-85.462,170.301
13.0928,128.179834,37.950727,5473.986410400001,4.576,-85.287,170.69
13.1095,128.179835,37.950729,5468.281164,4.212,-85.111,171.056
13.1262,128.179836,37.950731,5462.5731744,3.872,-84.934,171.399
13.1429,128.179837,37.950733,5456.8624416,3.552,-84.758,171.721
13.1596,128.179837,37.950734,5451.149270400001,3.253,-84.581,172.022
13.1763,128.179838,37.950735,5445.433051200001,2.973,-84.404,172.305
13.193,128.179839,37.950737,5439.7146984,2.711,-84.227,172.569
13.2097,128.17984,37.950738,5433.9936024,2.467,-84.049,172.815
13.2264,128.179841,37.950739,5428.270068,2.239,-83.872,173.045
13.2431,128.179842,37.95074,5422.5440952,2.028,-83.694,173.258
13.2598,128.179843,37.95074,5416.8159888,1.832,-83.516,173.456
13.2765,128.179844,37.950741,5411.085444,1.651,-83.338,173.639
13.2932,128.179845,37.950741,5405.352765600001,1.484,-83.16,173.808
13.3099,128.179846,37.950741,5399.6179536,1.332,-82.981,173.962
13.3266,128.179847,37.950741,5393.881008,1.192,-82.803,174.103
13.3433,128.179849,37.950741,5388.1422336000005,1.066,-82.624,174.231
13.36,128.17985,37.950741,5382.4013256,0.951,-82.445,174.347
13.3767,128.179851,37.95074,5376.6585888,0.849,-82.266,174.451
13.3934,128.179852,37.950739,5370.9140232,0.757,-82.087,174.543
13.4101,128.179853,37.950738,5365.167628800001,0.677,-81.908,174.625
13.4268,128.179854,37.950737,5359.419405600001,0.606,-81.728,174.697
13.4435,128.179855,37.950736,5353.6696584,0.546,-81.549,174.758
13.4602,128.179856,37.950735,5347.9180824000005,0.494,-81.369,174.81
13.4769,128.179858,37.950734,5342.164982400001,0.452,-81.19,174.854
13.4936,128.179859,37.950732,5336.4106632,0.417,-81.01,174.889
13.5103,128.17986,37.95073,5330.654820000001,0.39,-80.83,174.917
13.527,128.179861,37.950728,5324.8974528,0.371,-80.65,174.937
13.5437,128.179862,37.950726,5319.1388664,0.358,-80.47,174.95
13.5604,128.179864,37.950724,5313.379060800001,0.351,-80.29,174.957
13.5771,128.179865,37.950721,5307.618036,0.349,-80.11,174.959
13.5938,128.179866,37.950719,5301.8560968,0.353,-79.93,174.955
13.6105,128.179868,37.950716,5296.092938400001,0.362,-79.75,174.947
13.6272,128.179869,37.950713,5290.328560800001,0.375,-79.57,174.935
13.6439,128.17987,37.95071,5284.5635736,0.391,-79.389,174.919
13.6606,128.179871,37.950706,5278.797672,0.41,-79.209,174.9
13.6773,128.179873,37.950703,5273.030856,0.433,-79.028,174.879
13.694,128.179874,37.950699,5267.2631255999995,0.457,-78.848,174.855
13.7107,128.179875,37.950696,5261.4950904,0.484,-78.667,174.83
13.7274,128.179877,37.950692,5255.7261408,0.511,-78.486,174.804
13.7441,128.179878,37.950688,5249.9568864,0.539,-78.306,174.777
13.7608,128.17988,37.950683,5244.1867176000005,0.567,-78.125,174.751
13.7775,128.179881,37.950679,5238.4165488,0.594,-77.944,174.725
13.7942,128.179882,37.950674,5232.6457704,0.618,-77.763,174.702
13.8109,128.179884,37.95067,5226.8746872,0.64,-77.582,174.681
13.8276,128.179885,37.950665,5221.1032992,0.659,-77.401,174.664
13.8443,128.179887,37.95066,5215.331911200001,0.673,-77.219,174.651
13.861,128.179888,37.950654,5209.5602184,0.683,-77.038,174.642
13.8777,128.17989,37.950649,5203.7885256,0.688,-76.857,174.638
13.8944,128.179891,37.950643,5198.016832800001,0.689,-76.675,174.639
13.9111,128.179893,37.950638,5192.24514,0.686,-76.494,174.644
13.9278,128.179894,37.950632,5186.473752000001,0.68,-76.313,174.652
13.9445,128.179896,37.950626,5180.702364000001,0.672,-76.131,174.663
13.9612,128.179898,37.950619,5174.9312808,0.664,-75.95,174.676
13.9779,128.179899,37.950613,5169.1608072,0.657,-75.768,174.689
13.9946,128.179901,37.950606,5163.3903336,0.651,-75.586,174.704
14.0113,128.179902,37.9506,5157.6204696,0.647,-75.405,174.717
14.028,128.179904,37.950593,5151.8512152,0.645,-75.223,174.731
14.0447,128.179906,37.950586,5146.082265600001,0.645,-75.041,174.744
14.0614,128.179907,37.950578,5140.3142304,0.646,-74.859,174.756
14.0781,128.179909,37.950571,5134.5468048,0.648,-74.677,174.768
14.0948,128.179911,37.950563,5128.7802936,0.651,-74.495,174.78
14.1115,128.179912,37.950556,5123.014392000001,0.654,-74.313,174.793
14.1282,128.179914,37.950548,5117.249709600001,0.658,-74.131,174.805
14.1449,128.179916,37.95054,5111.4856368,0.662,-73.949,174.818
14.1616,128.179918,37.950531,5105.722783200001,0.666,-73.767,174.831
14.1783,128.179919,37.950523,5099.9611488,0.671,-73.584,174.843
14.195,128.179921,37.950514,5094.200733600001,0.676,-73.402,174.856
14.2117,128.179923,37.950506,5088.441537600001,0.681,-73.219,174.869
14.2284,128.179925,37.950497,5082.683560800001,0.687,-73.037,174.883
14.2451,128.179926,37.950488,5076.927108,0.693,-72.854,174.896
14.2618,128.179928,37.950478,5071.171874400001,0.699,-72.671,174.909
14.2785,128.17993,37.950469,5065.4184696,0.705,-72.488,174.922
14.2952,128.179932,37.950459,5059.6665888,0.712,-72.305,174.936
14.3119,128.179934,37.950449,5053.9162320000005,0.719,-72.122,174.95
14.3286,128.179936,37.95044,5048.167704,0.726,-71.939,174.964
14.3453,128.179938,37.950429,5042.420700000001,0.734,-71.756,174.977
14.362,128.179939,37.950419,5036.6758296,0.742,-71.573,174.991
14.3787,128.179941,37.950409,5030.932788000001,0.75,-71.39,175.005
14.3954,128.179943,37.950398,5025.191879999999,0.758,-71.206,175.02
14.4121,128.179945,37.950387,5019.4531056000005,0.767,-71.023,175.034
14.4288,128.179947,37.950376,5013.716160000001,0.775,-70.839,175.048
14.4455,128.179949,37.950365,5007.9816528,0.784,-70.656,175.063
14.4622,128.179951,37.950354,5002.2492792,0.794,-70.472,175.077
14.4789,128.179953,37.950343,4996.519344,0.803,-70.288,175.092
14.4956,128.179955,37.950331,4990.7915424,0.813,-70.104,175.107
14.5123,128.179957,37.950319,4985.066484,0.823,-69.92,175.122
14.529,128.179959,37.950307,4979.343864,0.833,-69.736,175.137
14.5457,128.179961,37.950295,4973.623987200001,0.843,-69.552,175.152
14.5624,128.179963,37.950283,4967.9068536,0.854,-69.368,175.167
14.5791,128.179965,37.95027,4962.1921584,0.865,-69.184,175.182
14.5958,128.179967,37.950258,4956.4805112,0.876,-69.0,175.198
14.6125,128.17997,37.950245,4950.7716072,0.887,-68.815,175.213
14.6292,128.179972,37.950232,4945.0657512,0.899,-68.631,175.229
14.6459,128.179974,37.950219,4939.362943200001,0.91,-68.446,175.244
14.6626,128.179976,37.950205,4933.6631832,0.922,-68.262,175.26
14.6793,128.179978,37.950192,4927.9664712,0.934,-68.077,175.276
14.696,128.17998,37.950178,4922.273112000001,0.947,-67.893,175.292
14.7127,128.179982,37.950164,4916.583105600001,0.959,-67.708,175.308
14.7294,128.179985,37.95015,4910.896452,0.972,-67.524,175.324
14.7461,128.179987,37.950136,4905.2131512,0.985,-67.339,175.341
14.7628,128.179989,37.950122,4899.5335079999995,0.998,-67.154,175.357
14.7795,128.179991,37.950107,4893.857522400001,1.011,-66.969,175.373
14.7962,128.179993,37.950093,4888.1848896,1.025,-66.784,175.39
14.8129,128.179996,37.950078,4882.516219200001,1.038,-66.599,175.406
14.8296,128.179998,37.950063,4876.851206400001,1.052,-66.414,175.423
14.8463,128.18,37.950048,4871.1898512,1.066,-66.229,175.44
14.863,128.180002,37.950032,4865.5327632,1.081,-66.044,175.457
14.8797,128.180005,37.950017,4859.8796376,1.095,-65.859,175.474
14.8964,128.180007,37.950001,4854.2304744,1.11,-65.674,175.491
14.9131,128.180009,37.949985,4848.585273600001,1.124,-65.489,175.508
14.9298,128.180011,37.949969,4842.9446448,1.139,-65.303,175.525
14.9465,128.180014,37.949953,4837.3079784,1.155,-65.118,175.543
14.9632,128.180016,37.949937,4831.675884,1.17,-64.932,175.56
14.9799,128.180018,37.94992,4826.0480568,1.186,-64.747,175.578
14.9966,128.180021,37.949904,4820.4248016,1.202,-64.561,175.596
15.0133,128.180023,37.949887,4814.8058136,1.218,-64.376,175.613
15.03,128.180025,37.94987,4809.1917024,1.234,-64.19,175.631
15.0467,128.180028,37.949852,4803.5824680000005,1.251,-64.004,175.649
15.0634,128.18003,37.949835,4797.9778056000005,1.267,-63.818,175.667
15.0801,128.180033,37.949818,4792.3777152,1.285,-63.632,175.686
15.0968,128.180035,37.9498,4786.7828064000005,1.302,-63.446,175.704
15.1135,128.180037,37.949782,4781.1930792,1.319,-63.26,175.722
15.1302,128.18004,37.949764,4775.607924,1.337,-63.074,175.741
15.1469,128.180042,37.949746,4770.028255200001,1.355,-62.888,175.759
15.1636,128.180045,37.949727,4764.4534632,1.373,-62.702,175.778
15.1803,128.180047,37.949709,4758.8841576,1.391,-62.516,175.797
15.197,128.180049,37.94969,4753.3200336,1.41,-62.329,175.815
15.2137,128.180052,37.949671,4747.761396000001,1.428,-62.143,175.834
