Time,Longitude,Latitude,Altitude,Roll (deg),Pitch (deg),Yaw (deg)
0.0,128.181881,37.923646,7000.146528,0.0,-0.003,0.0
0.0167,128.181881,37.923691,7000.1605488000005,0.0,-0.012,0.0
0.0334,128.181881,37.923736,7000.1733504,0.087,-0.013,0.011
0.0501,128.181881,37.923781,7000.1843232,0.258,0.007,0.034
0.0668,128.181881,37.923826,7000.1962104,0.342,0.063,0.041
0.0834,128.181881,37.92387,7000.2087071999995,0.347,0.167,0.03
0.1002,128.181881,37.923915,7000.222728000001,0.266,0.33,0.006
0.1169,128.181881,37.92396,7000.239492000001,0.095,0.56,359.975
0.1336,128.181881,37.924005,7000.2596088,-0.169,0.865,359.94
0.1503,128.181881,37.92405,7000.284297600001,-0.527,1.245,359.902
0.1669,128.181881,37.924095,7000.311424800001,-0.801,1.689,359.886
0.1837,128.181881,37.92414,7000.3425144,-0.994,2.184,359.891
0.2004,128.181881,37.924185,7000.3775663999995,-1.097,2.716,359.909
0.2171,128.181881,37.92423,7000.416276,-1.104,3.267,359.934
0.2338,128.181881,37.924275,7000.4592528,-1.012,3.821,359.962
0.2505,128.181881,37.92432,7000.506192000001,-0.821,4.361,359.991
0.2672,128.181881,37.924365,7000.5573984,-0.535,4.87,0.022
0.2839,128.181881,37.92441,7000.615005600001,-0.329,5.346,0.031
0.3006,128.181881,37.924455,7000.6790136,-0.199,5.789,0.019
0.3172,128.181881,37.9245,7000.750336800001,-0.156,6.204,359.993
0.3339,128.181881,37.924545,7000.8295848,-0.203,6.592,359.96
0.3507,128.181881,37.92459,7000.9179768,-0.342,6.955,359.923
0.3674,128.181881,37.924634,7001.015512800001,-0.573,7.297,359.884
0.3841,128.181881,37.924679,7001.1231072,-0.892,7.618,359.844
0.4008,128.181881,37.924724,7001.2386264,-1.134,7.906,359.825
0.4175,128.181881,37.924769,7001.362375199999,-1.301,8.145,359.828
0.4342,128.181881,37.924814,7001.493744,-1.385,8.32,359.846
0.4509,128.181881,37.924859,7001.6321232,-1.382,8.418,359.874
0.4676,128.181881,37.924904,7001.7762936,-1.29,8.425,359.907
0.4843,128.181881,37.924949,7001.926255200001,-1.11,8.342,359.944
0.501,128.181881,37.924994,7002.083227200001,-1.001,8.184,359.962
0.5176,128.181881,37.925039,7002.2466,-0.964,7.969,359.96
0.5344,128.181881,37.925084,7002.416678400001,-1.004,7.714,359.945
0.5511,128.181881,37.925128,7002.5934624,-1.127,7.433,359.921
0.5678,128.181881,37.925173,7002.776952000001,-1.337,7.144,359.893
0.5845,128.181881,37.925218,7002.967147200001,-1.635,6.863,359.864
0.6012,128.18188,37.925263,7003.1643527999995,-2.022,6.605,359.833
0.6179,128.18188,37.925308,7003.3688736,-2.495,6.384,359.802
0.6345,128.18188,37.925353,7003.580709600001,-3.053,6.212,359.769
0.6513,128.18188,37.925398,7003.800775199999,-3.694,6.1,359.735
0.6679,128.18188,37.925442,7004.029070400001,-4.416,6.059,359.697
0.6847,128.18188,37.925487,7004.2655952000005,-5.217,6.098,359.654
0.7014,128.18188,37.925532,7004.5103496,-6.093,6.217,359.603
0.7181,128.18188,37.925577,7004.763638400001,-7.043,6.411,359.544
0.7348,128.18188,37.925621,7005.0254616,-8.064,6.669,359.475
0.7514,128.18188,37.925666,7005.2964288,-9.152,6.98,359.395
0.7682,128.18188,37.925711,7005.5762352,-10.305,7.33,359.305
0.7848,128.18188,37.925756,7005.8654904,-11.519,7.708,359.203
0.8016,128.181879,37.9258,7006.1638896,-12.793,8.099,359.092
0.8183,128.181879,37.925845,7006.472042400001,-14.122,8.488,358.974
0.835,128.181879,37.92589,7006.7902536,-15.504,8.861,358.849
0.8517,128.181879,37.925934,7007.118218400001,-16.937,9.216,358.72
0.8684,128.181878,37.925979,7007.456241600001,-18.417,9.552,358.586
0.8851,128.181878,37.926023,7007.804932800001,-19.945,9.87,358.447
0.9018,128.181877,37.926068,7008.163682400001,-21.517,10.17,358.303
0.9185,128.181877,37.926113,7008.532795200001,-23.133,10.452,358.153
0.9352,128.181876,37.926157,7008.912576,-24.791,10.718,357.998
0.9519,128.181876,37.926202,7009.302415200001,-26.492,10.968,357.838
0.9686,128.181875,37.926246,7009.702922400001,-28.234,11.204,357.672
0.9853,128.181874,37.926291,7010.113488000001,-30.016,11.426,357.501
1.002,128.181874,37.926335,7010.5344168,-31.839,11.635,357.324
1.0187,128.181873,37.92638,7010.9650992,-33.702,11.831,357.142
1.0353,128.181872,37.926424,7011.4055352000005,-35.605,12.015,356.953
1.0521,128.181871,37.926469,7011.855724800001,-37.547,12.187,356.758
1.0688,128.18187,37.926513,7012.3150584,-39.529,12.349,356.558
1.0855,128.181868,37.926557,7012.783536,-41.55,12.499,356.35
1.1022,128.181867,37.926602,7013.2608528,-43.61,12.639,356.136
1.1189,128.181865,37.926646,7013.746704,-45.71,12.768,355.916
1.1356,128.181864,37.92669,7014.2407848,-47.849,12.886,355.688
1.1522,128.181862,37.926735,7014.7424856,-50.028,12.995,355.454
1.169,128.18186,37.926779,7015.251501600001,-52.247,13.092,355.213
1.1857,128.181858,37.926823,7015.7678328,-54.505,13.179,354.965
1.2024,128.181856,37.926867,7016.2905648000005,-56.803,13.255,354.709
1.2191,128.181854,37.926912,7016.819392800001,-59.142,13.32,354.447
1.2358,128.181852,37.926956,7017.354012,-61.521,13.374,354.178
1.2525,128.181849,37.927,7017.893508,-63.941,13.415,353.901
1.2691,128.181847,37.927044,7018.4378808,-66.401,13.445,353.618
1.2859,128.181844,37.927088,7018.9865208,-68.903,13.462,353.329
1.3026,128.181841,37.927132,7019.5385136,-71.446,13.465,353.032
1.3193,128.181838,37.927176,7020.0938592,-74.031,13.455,352.73
1.3359,128.181835,37.92722,7020.6516432,-76.659,13.43,352.422
1.3527,128.181832,37.927264,7021.2115608,-79.329,13.39,352.108
1.3694,128.181828,37.927308,7021.772697600001,-82.042,13.334,351.79
1.386,128.181825,37.927352,7022.3347488,-84.797,13.261,351.467
1.4028,128.181821,37.927396,7022.8971048,-87.594,13.169,351.141
1.4195,128.181817,37.92744,7023.459156000001,-90.432,13.058,350.811
1.4362,128.181813,37.927484,7024.020292800001,-93.31,12.926,350.48
1.4528,128.181809,37.927528,7024.5802104,-96.228,12.772,350.148
1.4696,128.181805,37.927572,7025.1379944,-99.185,12.595,349.817
1.4863,128.1818,37.927616,7025.69334,-102.181,12.395,349.488
1.5029,128.181796,37.92766,7026.2453328,-105.211,12.173,349.174
1.5197,128.181791,37.927704,7026.7939728,-108.274,11.935,348.89
1.5364,128.181786,37.927748,7027.338955200001,-111.366,11.685,348.647
1.5531,128.181781,37.927792,7027.879060800001,-114.485,11.431,348.457
1.5697,128.181776,37.927835,7028.4148992,-117.626,11.181,348.331
1.5865,128.181771,37.927879,7028.9458608,-120.786,10.946,348.277
1.6032,128.181766,37.927923,7029.4722504,-123.959,10.736,348.302
1.6198,128.18176,37.927967,7029.9937632,-127.149,10.552,348.395
1.6366,128.181755,37.928011,7030.5103992,-130.355,10.387,348.538
1.6533,128.18175,37.928055,7031.0218536,-133.581,10.237,348.719
1.67,128.181744,37.928098,7031.528736,-136.828,10.092,348.921
1.6867,128.181738,37.928142,7032.0307416000005,-140.095,9.946,349.138
1.7034,128.181733,37.928186,7032.52848,-143.383,9.798,349.363
1.7201,128.181727,37.92823,7033.0216464000005,-146.691,9.647,349.594
1.7368,128.181721,37.928274,7033.5105456,-150.019,9.494,349.83
1.7535,128.181716,37.928317,7033.995482400001,-153.368,9.34,350.07
1.7702,128.18171,37.928361,7034.4767616,-156.739,9.186,350.313
1.7869,128.181704,37.928405,7034.954688000001,-160.129,9.036,350.556
1.8036,128.181698,37.928449,7035.428956800001,-163.538,8.889,350.799
1.8203,128.181692,37.928493,7035.9001776000005,-166.963,8.737,351.037
1.837,128.181687,37.928537,7036.3677408,-170.402,8.574,351.268
1.8537,128.181681,37.92858,7036.832256000001,-173.85,8.396,351.491
1.8704,128.181675,37.928624,7037.293113600001,-177.305,8.199,351.704
1.8871,128.181669,37.928668,7037.7506184,179.236,7.981,351.909
1.9038,128.181663,37.928712,7038.204770400001,175.778,7.741,352.105
1.9205,128.181657,37.928756,7038.654655200001,172.324,7.482,352.292
1.9372,128.181652,37.9288,7039.1008824,168.877,7.206,352.472
1.9539,128.181646,37.928844,7039.5425376,165.44,6.915,352.642
1.9706,128.18164,37.928887,7039.9799256,162.014,6.612,352.804
1.9873,128.181634,37.928931,7040.4118272000005,158.601,6.292,352.958
2.004,128.181628,37.928975,7040.838547200001,155.219,5.958,353.113
2.0207,128.181622,37.929019,7041.259476,151.881,5.618,353.277
2.0374,128.181617,37.929063,7041.674004,148.597,5.28,353.453
2.0541,128.181611,37.929107,7042.0833504,145.428,4.947,353.64
2.0707,128.181605,37.929151,7042.486905600001,142.426,4.621,353.833
2.0875,128.181599,37.929195,7042.885279200001,139.632,4.305,354.031
2.1042,128.181594,37.929239,7043.2778616,137.05,4.002,354.233
2.1208,128.181588,37.929283,7043.6652624,134.677,3.716,354.438
2.1376,128.181582,37.929327,7044.0477864,132.507,3.449,354.645
2.1543,128.181576,37.929371,7044.424824000001,130.532,3.205,354.85
2.171,128.181571,37.929415,7044.7975944,128.745,2.984,355.051
2.1877,128.181565,37.929459,7045.165488000001,127.136,2.786,355.244
2.2044,128.181559,37.929503,7045.5291144,125.697,2.614,355.424
2.2211,128.181554,37.929547,7045.888778400001,124.416,2.471,355.581
2.2378,128.181548,37.929591,7046.2447848,123.285,2.355,355.71
2.2544,128.181543,37.929635,7046.597438400001,122.296,2.267,355.808
2.2712,128.181537,37.929679,7046.9467392,121.44,2.202,355.875
2.2879,128.181531,37.929723,7047.292992000001,120.705,2.155,355.911
2.3045,128.181526,37.929767,7047.635892,120.085,2.12,355.919
2.3213,128.18152,37.929811,7047.975744,119.578,2.097,355.906
2.338,128.181515,37.929855,7048.3122432,119.18,2.082,355.876
2.3546,128.181509,37.929899,7048.6453896,118.889,2.072,355.835
2.3714,128.181503,37.929944,7048.975488000001,118.702,2.066,355.788
2.3881,128.181498,37.929988,7049.3022336,118.614,2.061,355.737
2.4048,128.181492,37.930032,7049.6259312,118.623,2.054,355.689
2.4215,128.181487,37.930076,7049.9465808,118.725,2.046,355.646
2.4382,128.181481,37.93012,7050.2638776,118.918,2.033,355.609
2.4549,128.181476,37.930165,7050.5784312000005,119.198,2.017,355.58
2.4716,128.18147,37.930209,7050.8893272000005,119.563,1.996,355.559
2.4882,128.181464,37.930253,7051.19748,120.009,1.971,355.548
2.505,128.181459,37.930298,7051.50228,120.534,1.941,355.545
2.5217,128.181453,37.930342,7051.804032,121.136,1.905,355.551
2.5383,128.181448,37.930386,7052.1024312,121.811,1.864,355.566
2.5551,128.181442,37.930431,7052.3977824,122.557,1.817,355.59
2.5718,128.181437,37.930475,7052.6900856,123.372,1.764,355.623
2.5884,128.181431,37.930519,7052.9787312,124.253,1.705,355.664
2.6052,128.181426,37.930564,7053.264328800001,125.198,1.639,355.712
2.6219,128.18142,37.930608,7053.546268800001,126.205,1.567,355.769
2.6386,128.181415,37.930652,7053.824856000001,127.272,1.488,355.833
2.6553,128.181409,37.930697,7054.0997856,128.396,1.401,355.904
2.6719,128.181404,37.930741,7054.3713624,129.577,1.306,355.981
2.6887,128.181398,37.930786,7054.638672,130.811,1.203,356.065
2.7054,128.181393,37.93083,7054.902324000001,132.097,1.091,356.155
2.722,128.181388,37.930875,7055.1620136,133.434,0.97,356.251
2.7388,128.181382,37.930919,7055.417436000001,134.82,0.839,356.351
2.7555,128.181377,37.930964,7055.6679816000005,136.247,0.699,356.455
2.7721,128.181371,37.931008,7055.9133456,137.699,0.55,356.565
2.7889,128.181366,37.931053,7056.1529184,139.159,0.391,356.679
2.8056,128.181361,37.931097,7056.3863952,140.614,0.223,356.798
2.8222,128.181356,37.931142,7056.6131663999995,142.047,0.045,356.922
2.839,128.18135,37.931187,7056.8326224,143.449,-0.14,357.048
2.8557,128.181345,37.931231,7057.044458400001,144.81,-0.337,357.177
2.8724,128.18134,37.931276,7057.248064800001,146.12,-0.542,357.308
2.8891,128.181335,37.93132,7057.442832000001,147.374,-0.755,357.438
2.9057,128.18133,37.931365,7057.628150400001,148.568,-0.977,357.568
2.9225,128.181325,37.93141,7057.803715200001,149.698,-1.205,357.696
2.9392,128.18132,37.931454,7057.9692216,150.761,-1.439,357.821
2.9558,128.181315,37.931499,7058.124060000001,151.757,-1.677,357.942
2.9726,128.181311,37.931544,7058.2679256,152.685,-1.918,358.058
2.9893,128.181306,37.931588,7058.4011232,153.547,-2.161,358.169
3.0059,128.181301,37.931633,7058.523348,154.344,-2.403,358.275
3.0227,128.181297,37.931678,7058.6336856,155.075,-2.645,358.374
3.0394,128.181292,37.931722,7058.733660000001,155.807,-2.886,358.463
3.056,128.181287,37.931767,7058.8229664,156.528,-3.125,358.542
3.0728,128.181283,37.931812,7058.9016048,157.219,-3.361,358.614
3.0895,128.181279,37.931856,7058.9680512,157.866,-3.592,358.683
3.1062,128.181274,37.931901,7059.022000800001,158.459,-3.818,358.748
3.1229,128.18127,37.931946,7059.063758400001,158.99,-4.039,358.811
3.1395,128.181265,37.931991,7059.0918,159.459,-4.257,358.873
3.1563,128.181261,37.932035,7059.1076496000005,159.869,-4.468,358.931
3.173,128.181257,37.93208,7059.110392800001,160.22,-4.666,358.984
3.1896,128.181253,37.932125,7059.099115200001,160.503,-4.844,359.034
3.2064,128.181249,37.93217,7059.0741216,160.703,-4.997,359.084
3.2231,128.181245,37.932214,7059.0348023999995,160.82,-5.125,359.131
3.2397,128.181241,37.932259,7058.9817672,160.854,-5.229,359.172
3.2565,128.181237,37.932304,7058.915016,160.806,-5.31,359.208
3.2732,128.181233,37.932348,7058.8345488,160.678,-5.373,359.238
3.2899,128.181229,37.932393,7058.7406704,160.471,-5.418,359.264
3.3066,128.181225,37.932438,7058.6333808,160.189,-5.451,359.285
3.3233,128.181221,37.932483,7058.5129848,159.833,-5.474,359.304
3.34,128.181218,37.932527,7058.380092,159.406,-5.474,359.315
3.3567,128.181214,37.932572,7058.235312,158.912,-5.441,359.314
3.3734,128.18121,37.932617,7058.07834,158.352,-5.368,359.298
3.3901,128.181207,37.932662,7057.9097856,157.729,-5.264,359.27
3.4068,128.181203,37.932706,7057.7296488,157.043,-5.142,359.234
3.4235,128.1812,37.932751,7057.5385392,156.297,-5.011,359.193
3.4402,128.181196,37.932796,7057.336456800001,155.491,-4.876,359.15
3.4569,128.181193,37.93284,7057.1240112000005,154.627,-4.742,359.107
3.4736,128.181189,37.932885,7056.901202399999,153.707,-4.612,359.063
3.4903,128.181186,37.93293,7056.66864,152.732,-4.488,359.021
3.507,128.181183,37.932975,7056.426324000001,151.705,-4.37,358.979
3.5237,128.181179,37.933019,7056.174559200001,150.625,-4.258,358.939
3.5404,128.181176,37.933064,7055.913650400001,149.496,-4.154,358.901
3.5571,128.181173,37.933109,7055.6442072,148.319,-4.056,358.865
3.5738,128.18117,37.933153,7055.3662296,147.095,-3.966,358.83
3.5905,128.181167,37.933198,7055.079717600001,145.827,-3.882,358.797
3.6072,128.181164,37.933243,7054.7852808,144.516,-3.804,358.765
3.6239,128.181161,37.933288,7054.482919200001,143.163,-3.733,358.735
3.6406,128.181158,37.933332,7054.1729376,141.771,-3.666,358.707
3.6573,128.181155,37.933377,7053.8556408,140.341,-3.606,358.68
3.674,128.181153,37.933422,7053.531028800001,138.875,-3.55,358.655
3.6907,128.18115,37.933466,7053.199406400001,137.374,-3.499,358.631
3.7074,128.181147,37.933511,7052.8610784,135.84,-3.452,358.608
3.7241,128.181144,37.933556,7052.516044800001,134.275,-3.409,358.587
3.7408,128.181142,37.933601,7052.164915200001,132.681,-3.37,358.567
3.7575,128.181139,37.933645,7051.8073848,131.058,-3.334,358.548
3.7742,128.181137,37.93369,7051.4437584,129.408,-3.302,358.53
3.7909,128.181134,37.933735,7051.074036,127.733,-3.272,358.513
3.8076,128.181132,37.933779,7050.699132000001,126.035,-3.246,358.497
3.8243,128.181129,37.933824,7050.318132,124.314,-3.223,358.484
3.841,128.181127,37.933869,7049.9322552,122.572,-3.206,358.476
3.8577,128.181125,37.933914,7049.5405872,120.81,-3.195,358.476
3.8744,128.181123,37.933958,7049.144042400001,119.029,-3.19,358.485
3.8911,128.18112,37.934003,7048.7426208,117.23,-3.193,358.505
3.9078,128.181118,37.934048,7048.3363224,115.414,-3.201,358.536
3.9245,128.181116,37.934092,7047.9251472000005,113.583,-3.215,358.576
3.9412,128.181114,37.934137,7047.5094,111.738,-3.233,358.628
3.9579,128.181112,37.934182,7047.0893856,109.879,-3.254,358.689
3.9746,128.18111,37.934227,7046.6647992,108.01,-3.277,358.758
3.9913,128.181109,37.934271,7046.2362504,106.131,-3.302,358.836
4.008,128.181107,37.934316,7045.8037392,104.242,-3.327,358.921
4.0247,128.181105,37.934361,7045.367265600001,102.346,-3.351,359.01
4.0414,128.181104,37.934406,7044.9268296,100.443,-3.374,359.104
4.058,128.181102,37.93445,7044.483345600001,98.534,-3.394,359.201
4.0748,128.1811,37.934495,7044.036204,96.618,-3.413,359.299
4.0915,128.181099,37.93454,7043.586014400001,94.698,-3.428,359.397
4.1082,128.181098,37.934585,7043.1330816,92.773,-3.44,359.495
4.1249,128.181096,37.93463,7042.6771008000005,90.843,-3.449,359.592
4.1415,128.181095,37.934674,7042.2186816,88.908,-3.455,359.688
4.1583,128.181094,37.934719,7041.758128800001,86.969,-3.458,359.782
4.175,128.181093,37.934764,7041.295442400001,85.025,-3.457,359.875
4.1917,128.181092,37.934809,7040.830927200001,83.077,-3.453,359.966
4.2084,128.181091,37.934853,7040.364888000001,81.125,-3.446,0.055
4.2251,128.181091,37.934898,7039.897324800001,79.167,-3.436,0.144
4.2417,128.18109,37.934943,7039.428847200001,77.204,-3.423,0.23
4.2585,128.181089,37.934988,7038.959455200001,75.236,-3.407,0.315
4.2752,128.181089,37.935033,7038.4894536,73.263,-3.388,0.398
4.2919,128.181088,37.935077,7038.019147200001,71.284,-3.366,0.479
4.3086,128.181088,37.935122,7037.5488408,69.299,-3.341,0.557
4.3252,128.181087,37.935167,7037.0788391999995,67.308,-3.313,0.634
4.342,128.181087,37.935212,7036.609142400001,65.311,-3.283,0.708
4.3587,128.181087,37.935257,7036.14036,63.306,-3.25,0.78
4.3754,128.181087,37.935301,7035.672492000001,61.295,-3.215,0.85
4.3921,128.181087,37.935346,7035.206148,59.276,-3.177,0.917
4.4088,128.181087,37.935391,7034.7410232,57.25,-3.136,0.982
4.4254,128.181087,37.935436,7034.278032,55.216,-3.093,1.045
4.4422,128.181087,37.935481,7033.816869600001,53.174,-3.047,1.105
4.4589,128.181088,37.935526,7033.3581456,51.122,-2.998,1.164
4.4756,128.181088,37.935571,7032.901860000001,49.062,-2.947,1.22
4.4923,128.181089,37.935615,7032.4486224,46.993,-2.893,1.275
4.5089,128.181089,37.93566,7031.998737600001,44.914,-2.836,1.327
4.5256,128.18109,37.935705,7031.5519008,42.825,-2.777,1.376
4.5424,128.18109,37.93575,7031.1087216,40.726,-2.715,1.423
4.5591,128.181091,37.935795,7030.6695048,38.617,-2.652,1.467
4.5758,128.181092,37.93584,7030.2339456,36.496,-2.586,1.507
4.5925,128.181093,37.935885,7029.8032632,34.365,-2.519,1.544
4.6091,128.181093,37.93593,7029.3765432,32.221,-2.45,1.577
4.6259,128.181094,37.935975,7028.9550048,30.066,-2.38,1.607
4.6426,128.181095,37.936019,7028.538038400001,27.899,-2.308,1.634
4.6593,128.181096,37.936064,7028.1262536,25.719,-2.235,1.656
4.676,128.181097,37.936109,7027.7196504,23.526,-2.161,1.675
4.6927,128.181099,37.936154,7027.318533600001,21.32,-2.086,1.69
4.7093,128.1811,37.936199,7026.923208,19.1,-2.01,1.701
4.7261,128.181101,37.936244,7026.5324544000005,16.887,-1.935,1.712
4.7428,128.181102,37.936289,7026.146272800001,14.693,-1.861,1.722
4.7595,128.181103,37.936334,7025.764968,12.548,-1.788,1.733
4.7762,128.181105,37.936379,7025.3879304,10.48,-1.717,1.746
4.7928,128.181106,37.936424,7025.014855200001,8.511,-1.648,1.76
4.8096,128.181107,37.936469,7024.645437600001,6.657,-1.579,1.775
4.8263,128.181108,37.936514,7024.279068000001,4.927,-1.511,1.791
4.843,128.18111,37.936559,7023.916051200001,3.326,-1.444,1.806
4.8597,128.181111,37.936604,7023.555472800001,1.855,-1.378,1.819
4.8764,128.181112,37.936649,7023.1973328,0.512,-1.314,1.83
4.893,128.181114,37.936694,7022.8410216,-0.706,-1.253,1.839
4.9098,128.181115,37.936739,7022.4859295999995,-1.807,-1.208,1.846
4.9265,128.181116,37.936784,7022.132056800001,-2.798,-1.18,1.85
4.9432,128.181117,37.936829,7021.7787935999995,-3.687,-1.166,1.852
4.9599,128.181119,37.936874,7021.427664000001,-4.498,-1.164,1.852
4.9765,128.18112,37.936919,7021.0774488,-5.234,-1.168,1.849
4.9932,128.181121,37.936965,7020.7275384,-5.888,-1.176,1.846
5.01,128.181123,37.93701,7020.378847200001,-6.463,-1.184,1.843
5.0267,128.181124,37.937055,7020.0307656,-6.965,-1.191,1.841
5.0434,128.181125,37.9371,7019.684208,-7.401,-1.194,1.839
5.0601,128.181127,37.937145,7019.338869600001,-7.779,-1.194,1.836
5.0767,128.181128,37.93719,7018.995055200001,-8.106,-1.19,1.832
5.0935,128.181129,37.937236,7018.652764800001,-8.389,-1.185,1.829
5.1102,128.18113,37.937281,7018.3116936,-8.63,-1.179,1.825
5.1269,128.181132,37.937326,7017.9718416000005,-8.83,-1.175,1.821
5.1436,128.181133,37.937371,7017.632904,-8.987,-1.171,1.819
5.1602,128.181134,37.937417,7017.2964048,-9.111,-1.168,1.817
5.1769,128.181136,37.937462,7016.9605152,-9.199,-1.166,1.815
5.1937,128.181137,37.937507,7016.62554,-9.249,-1.165,1.814
5.2104,128.181138,37.937552,7016.291479200001,-9.258,-1.165,1.814
5.2271,128.181139,37.937598,7015.958028000001,-9.224,-1.166,1.815
5.2438,128.181141,37.937643,7015.624881600001,-9.145,-1.183,1.82
5.2604,128.181142,37.937688,7015.293259200001,-9.041,-1.215,1.827
5.2772,128.181143,37.937734,7014.963160800001,-8.916,-1.259,1.834
5.2939,128.181144,37.937779,7014.634281600001,-8.771,-1.31,1.841
5.3106,128.181146,37.937825,7014.3066216,-8.61,-1.363,1.848
5.3273,128.181147,37.93787,7013.9801808,-8.435,-1.416,1.854
5.3439,128.181148,37.937915,7013.6546544,-8.248,-1.466,1.86
5.3606,128.181149,37.937961,7013.3315664,-8.065,-1.511,1.864
5.3774,128.181151,37.938006,7013.010002399999,-7.885,-1.549,1.865
5.3941,128.181152,37.938052,7012.6899624,-7.709,-1.581,1.865
5.4108,128.181153,37.938097,7012.371141600001,-7.535,-1.606,1.864
5.4275,128.181154,37.938143,7012.05354,-7.361,-1.625,1.862
5.4441,128.181156,37.938188,7011.7383768,-7.197,-1.637,1.859
5.4609,128.181157,37.938234,7011.4244328,-7.04,-1.645,1.855
5.4776,128.181158,37.938279,7011.1114032,-6.885,-1.648,1.851
5.4943,128.181159,37.938324,7010.799592800001,-6.73,-1.647,1.848
5.511,128.18116,37.93837,7010.488696800001,-6.569,-1.644,1.844
5.5277,128.181162,37.938416,7010.178715200001,-6.398,-1.639,1.842
5.5443,128.181163,37.938461,7009.8693432,-6.212,-1.634,1.84
5.5611,128.181164,37.938507,7009.5618,-6.022,-1.627,1.839
5.5778,128.181165,37.938552,7009.2545616,-5.824,-1.62,1.837
5.5945,128.181166,37.938598,7008.9497616,-5.63,-1.612,1.834
5.6112,128.181168,37.938643,7008.6455712,-5.437,-1.603,1.832
5.6278,128.181169,37.938689,7008.3422952,-5.24,-1.595,1.829
5.6445,128.18117,37.938735,7008.040238400001,-5.037,-1.587,1.827
5.6613,128.181171,37.93878,7007.7384864000005,-4.822,-1.58,1.825
5.678,128.181172,37.938826,7007.4376488,-4.592,-1.575,1.825
5.6947,128.181174,37.938871,7007.13864,-4.36,-1.569,1.824
5.7114,128.181175,37.938917,7006.8402408,-4.122,-1.564,1.824
5.728,128.181176,37.938963,7006.542451200001,-3.877,-1.559,1.823
5.7448,128.181177,37.939008,7006.2458808,-3.621,-1.555,1.823
5.7615,128.181178,37.939054,7005.949615200001,-3.351,-1.552,1.824
5.7782,128.18118,37.9391,7005.6551784,-3.083,-1.549,1.824
5.7949,128.181181,37.939146,7005.361351200001,-2.807,-1.547,1.824
5.8115,128.181182,37.939191,7005.067828800001,-2.521,-1.547,1.825
5.8282,128.181183,37.939237,7004.7752208,-2.221,-1.548,1.826
5.845,128.181184,37.939283,7004.4829176,-1.904,-1.551,1.829
5.8617,128.181186,37.939329,7004.1909192,-1.567,-1.554,1.831
5.8784,128.181187,37.939374,7003.9007496,-1.236,-1.558,1.833
5.8951,128.181188,37.93942,7003.6117992,-0.91,-1.561,1.834
5.9117,128.181189,37.939466,7003.3237632,-0.587,-1.564,1.834
5.9285,128.18119,37.939512,7003.0369464000005,-0.264,-1.567,1.834
5.9452,128.181192,37.939558,7002.7504344,0.062,-1.57,1.835
5.9619,128.181193,37.939603,7002.464836800001,0.396,-1.573,1.836
5.9786,128.181194,37.939649,7002.181068,0.717,-1.575,1.836
5.9952,128.181195,37.939695,7001.899128000001,1.006,-1.575,1.834
6.0119,128.181196,37.939741,7001.6193216,1.269,-1.574,1.831
6.0287,128.181198,37.939787,7001.3407344,1.51,-1.571,1.827
6.0454,128.181199,37.939833,7001.065195200001,1.721,-1.566,1.822
6.0621,128.1812,37.939879,7000.790570400001,1.907,-1.56,1.816
6.0788,128.181201,37.939925,7000.5174696,2.076,-1.554,1.812
6.0954,128.181203,37.939971,7000.245283200001,2.237,-1.548,1.809
6.1121,128.181204,37.940016,6999.974011200001,2.398,-1.542,1.808
6.1289,128.181205,37.940062,6999.7048728,2.548,-1.537,1.807
6.1456,128.181206,37.940108,6999.4366488000005,2.693,-1.531,1.807
6.1623,128.181207,37.940154,6999.1690344,2.838,-1.526,1.808
6.179,128.181209,37.9402,6998.9023344,2.992,-1.522,1.81
6.1956,128.18121,37.940246,6998.637463200001,3.125,-1.517,1.809
6.2124,128.181211,37.940292,6998.3744208,3.24,-1.511,1.806
6.2291,128.181212,37.940338,6998.1132072,3.34,-1.504,1.801
6.2458,128.181214,37.940384,6997.852908,3.429,-1.497,1.797
6.2625,128.181215,37.94043,6997.5947424000005,3.5,-1.49,1.792
6.2791,128.181216,37.940477,6997.337796000001,3.56,-1.484,1.788
6.2958,128.181218,37.940523,6997.0820688,3.611,-1.477,1.783
6.3126,128.181219,37.940569,6996.8272560000005,3.661,-1.473,1.781
6.3293,128.18122,37.940615,6996.574576800001,3.703,-1.468,1.778
6.346,128.181221,37.940661,6996.3225072,3.74,-1.464,1.776
6.3627,128.181223,37.940707,6996.071656800001,3.778,-1.461,1.774
6.3793,128.181224,37.940753,6995.821111200001,3.824,-1.459,1.774
6.3961,128.181225,37.940799,6995.5726992,3.865,-1.458,1.774
6.4128,128.181227,37.940845,6995.325811200001,3.898,-1.455,1.771
6.4295,128.181228,37.940892,6995.080142400001,3.924,-1.451,1.767
6.4462,128.181229,37.940938,6994.835692800001,3.944,-1.448,1.763
6.4628,128.181231,37.940984,6994.593072000001,3.956,-1.444,1.758
6.4795,128.181232,37.94103,6994.3513656000005,3.961,-1.44,1.752
6.4963,128.181233,37.941076,6994.110878400001,3.961,-1.436,1.747
6.513,128.181235,37.941122,6993.8716104000005,3.955,-1.433,1.741
6.5297,128.181236,37.941169,6993.6335616,3.945,-1.43,1.736
6.5464,128.181237,37.941215,6993.396732,3.931,-1.428,1.731
6.5631,128.181239,37.941261,6993.1614264,3.912,-1.426,1.725
6.5798,128.18124,37.941307,6992.9267304,3.891,-1.424,1.719
6.5965,128.181241,37.941354,6992.6938632,3.865,-1.422,1.713
6.6132,128.181243,37.9414,6992.4616056,3.836,-1.418,1.707
6.6299,128.181244,37.941446,6992.231786400001,3.795,-1.413,1.699
6.6466,128.181246,37.941492,6992.002272,3.749,-1.409,1.691
6.6633,128.181247,37.941539,6991.7739768,3.7,-1.403,1.683
6.68,128.181248,37.941585,6991.5478152000005,3.639,-1.398,1.675
6.6967,128.18125,37.941631,6991.322263200001,3.571,-1.394,1.666
6.7134,128.181251,37.941678,6991.0973208,3.505,-1.389,1.659
6.7301,128.181253,37.941724,6990.874512,3.413,-1.392,1.649
6.7468,128.181254,37.94177,6990.653532,3.24,-1.403,1.634
6.7635,128.181255,37.941817,6990.4343808,3.014,-1.419,1.614
6.7802,128.181257,37.941863,6990.2179728,2.692,-1.44,1.59
6.7969,128.181258,37.941909,6990.0043080000005,2.275,-1.462,1.563
6.8136,128.18126,37.941956,6989.7936912000005,1.765,-1.485,1.535
6.8303,128.181261,37.942002,6989.5861224,1.178,-1.507,1.508
6.847,128.181263,37.942048,6989.382516,0.502,-1.526,1.482
6.8637,128.181264,37.942095,6989.1810432,-0.238,-1.542,1.457
6.8804,128.181265,37.942141,6988.982008800001,-0.981,-1.555,1.437
6.8971,128.181267,37.942187,6988.7848032,-1.679,-1.563,1.425
6.9138,128.181268,37.942234,6988.5888168,-2.379,-1.567,1.416
6.9305,128.18127,37.94228,6988.3943544,-3.043,-1.569,1.409
6.9472,128.181271,37.942326,6988.2026352,-3.74,-1.568,1.399
6.9639,128.181272,37.942373,6988.0130496,-4.511,-1.566,1.383
6.9806,128.181274,37.942419,6987.8262072,-5.356,-1.564,1.363
6.9973,128.181275,37.942466,6987.6408888,-6.236,-1.56,1.342
7.014,128.181277,37.942512,6987.4570944,-7.1,-1.554,1.325
7.0307,128.181278,37.942558,6987.276347999999,-8.019,-1.546,1.308
7.0474,128.18128,37.942605,6987.095906400001,-8.936,-1.537,1.293
7.0641,128.181281,37.942651,6986.9169888,-9.806,-1.525,1.281
7.0808,128.181282,37.942698,6986.7408144,-10.7,-1.512,1.269
7.0975,128.181284,37.942744,6986.5646400000005,-11.577,-1.498,1.257
7.1142,128.181285,37.94279,6986.3896848,-12.399,-1.483,1.247
7.1309,128.181286,37.942837,6986.214729599999,-13.139,-1.465,1.241
7.1476,128.181288,37.942883,6986.041908,-13.952,-1.449,1.229
7.1643,128.181289,37.94293,6985.870915200001,-14.833,-1.434,1.209
7.181,128.18129,37.942976,6985.7017512,-15.761,-1.42,1.186
7.1977,128.181292,37.943022,6985.532892,-16.686,-1.405,1.164
7.2144,128.181293,37.943069,6985.366776,-17.685,-1.39,1.14
7.2311,128.181294,37.943115,6985.201879200001,-18.701,-1.374,1.117
7.2478,128.181296,37.943162,6985.037592000001,-19.676,-1.356,1.097
7.2645,128.181297,37.943208,6984.874219200001,-20.566,-1.335,1.084
7.2812,128.181298,37.943254,6984.7108464,-21.439,-1.314,1.072
7.2979,128.181299,37.943301,6984.547473600001,-22.261,-1.292,1.059
7.3146,128.181301,37.943347,6984.383796,-23.002,-1.269,1.048
7.3313,128.181302,37.943394,6984.221642400001,-23.749,-1.247,1.034
7.348,128.181303,37.94344,6984.0604032,-24.565,-1.228,1.012
7.3647,128.181304,37.943487,6983.900383200001,-25.452,-1.212,0.983
7.3814,128.181305,37.943533,6983.741582400001,-26.368,-1.197,0.953
7.3981,128.181307,37.943579,6983.5830864,-27.261,-1.181,0.927
7.4148,128.181308,37.943626,6983.4245904,-28.082,-1.162,0.907
7.4315,128.181309,37.943672,6983.268228000001,-28.907,-1.142,0.887
7.4482,128.18131,37.943719,6983.111256000001,-29.694,-1.122,0.867
7.4649,128.181311,37.943765,6982.954284000001,-30.411,-1.102,0.85
7.4816,128.181312,37.943812,6982.7970072,-31.041,-1.079,0.836
7.4983,128.181313,37.943858,6982.6391208,-31.58,-1.056,0.826
7.515,128.181314,37.943905,6982.4821488,-32.091,-1.033,0.813
7.5317,128.181315,37.943951,6982.3236528,-32.559,-1.014,0.798
7.5484,128.181316,37.943998,6982.1654616,-32.987,-0.994,0.78
7.5651,128.181317,37.944044,6982.006051200001,-33.37,-0.974,0.76
7.5818,128.181318,37.944091,6981.8457264,-33.706,-0.953,0.742
7.5985,128.181319,37.944137,6981.686011200001,-34.058,-0.935,0.72
7.6152,128.18132,37.944184,6981.526296000001,-34.41,-0.918,0.695
7.6319,128.181321,37.94423,6981.3665808000005,-34.744,-0.902,0.67
7.6486,128.181322,37.944277,6981.205646400001,-35.048,-0.886,0.647
7.6653,128.181323,37.944323,6981.0441024,-35.315,-0.869,0.628
7.682,128.181324,37.94437,6980.8834728,-35.605,-0.854,0.606
7.6987,128.181324,37.944416,6980.7228432,-35.899,-0.841,0.581
7.7154,128.181325,37.944463,6980.5625184,-36.181,-0.828,0.556
7.7321,128.181326,37.944509,6980.4009744,-36.441,-0.816,0.533
7.7488,128.181327,37.944556,6980.2391256,-36.672,-0.802,0.513
7.7655,128.181328,37.944602,6980.076972,-36.877,-0.787,0.496
7.7822,128.181328,37.944649,6979.913904,-37.052,-0.774,0.483
7.7989,128.181329,37.944695,6979.751750400001,-37.246,-0.762,0.466
7.8156,128.18133,37.944742,6979.590511200001,-37.533,-0.753,0.438
7.8323,128.18133,37.944789,6979.4295768,-37.913,-0.745,0.4
7.849,128.181331,37.944835,6979.2698616,-38.388,-0.738,0.356
7.8657,128.181332,37.944882,6979.111365600001,-38.943,-0.73,0.31
7.8824,128.181332,37.944928,6978.9540888,-39.546,-0.72,0.265
7.8991,128.181333,37.944975,6978.7989456000005,-40.241,-0.706,0.215
7.9158,128.181333,37.945021,6978.6453264,-41.023,-0.689,0.16
7.9325,128.181334,37.945068,6978.494145600001,-41.892,-0.669,0.101
7.9492,128.181334,37.945114,6978.3450984,-42.839,-0.659,0.047
7.9659,128.181335,37.945161,6978.1981848,-43.864,-0.668,0.008
7.9826,128.181335,37.945208,6978.053404800001,-44.965,-0.699,359.988
7.9993,128.181335,37.945254,6977.9101488,-46.139,-0.746,359.984
8.016,128.181335,37.945301,6977.7687216,-47.384,-0.803,359.989
8.0327,128.181336,37.945347,6977.628513600001,-48.698,-0.864,0.0
8.0494,128.181336,37.945394,6977.4898296,-50.08,-0.927,0.015
8.0661,128.181336,37.94544,6977.352364800001,-51.527,-0.99,0.03
8.0828,128.181336,37.945487,6977.2158144,-53.036,-1.05,0.046
8.0994,128.181336,37.945533,6977.0801784000005,-54.606,-1.108,0.06
8.1161,128.181336,37.94558,6976.9448472,-56.235,-1.163,0.073
8.1329,128.181336,37.945626,6976.8101256,-57.919,-1.215,0.085
8.1496,128.181336,37.945673,6976.6754040000005,-59.658,-1.264,0.095
8.1663,128.181335,37.94572,6976.540987200001,-61.447,-1.311,0.103
8.183,128.181335,37.945766,6976.406570400001,-63.287,-1.347,0.096
8.1997,128.181335,37.945813,6976.2721536,-65.173,-1.368,0.06
8.2164,128.181334,37.945859,6976.137432,-67.095,-1.369,359.981
8.2331,128.181334,37.945906,6976.0021008,-69.015,-1.344,359.846
8.2498,128.181334,37.945952,6975.8661600000005,-70.895,-1.293,359.647
8.2665,128.181333,37.945999,6975.7293048,-72.703,-1.215,359.375
8.2831,128.181332,37.946045,6975.5921448,-74.413,-1.113,359.019
8.2998,128.181332,37.946092,6975.453765600001,-76.006,-0.995,358.592
8.3166,128.181331,37.946139,6975.3147768,-77.47,-0.868,358.107
8.3333,128.18133,37.946185,6975.174873600001,-78.798,-0.741,357.576
8.35,128.181329,37.946232,6975.034056,-79.991,-0.619,357.018
8.3667,128.181328,37.946278,6974.8920192000005,-81.052,-0.508,356.452
8.3834,128.181327,37.946325,6974.749068,-81.988,-0.411,355.896
8.4001,128.181326,37.946371,6974.604592800001,-82.81,-0.331,355.37
8.4168,128.181325,37.946418,6974.4592032,-83.528,-0.268,354.881
8.4335,128.181324,37.946465,6974.3119848,-84.154,-0.219,354.429
8.4502,128.181323,37.946511,6974.163852000001,-84.7,-0.184,354.01
8.4668,128.181321,37.946558,6974.0138904000005,-85.177,-0.16,353.62
8.4835,128.18132,37.946604,6973.862709600001,-85.595,-0.146,353.257
8.5003,128.181318,37.946651,6973.7100048,-85.963,-0.139,352.917
8.517,128.181316,37.946698,6973.5554712,-86.288,-0.139,352.598
8.5337,128.181314,37.946744,6973.3994136,-86.58,-0.143,352.298
8.5504,128.181312,37.946791,6973.241832000001,-86.843,-0.15,352.016
8.5671,128.18131,37.946838,6973.0821168,-87.082,-0.16,351.749
8.5838,128.181308,37.946884,6972.9208776000005,-87.3,-0.173,351.496
8.6005,128.181306,37.946931,6972.7581144000005,-87.5,-0.188,351.255
8.6172,128.181303,37.946977,6972.593217600001,-87.683,-0.205,351.025
8.6339,128.1813,37.947024,6972.4264920000005,-87.853,-0.224,350.805
8.6505,128.181298,37.947071,6972.2579376,-88.011,-0.245,350.593
8.6672,128.181295,37.947117,6972.0875544,-88.159,-0.268,350.389
8.684,128.181292,37.947164,6971.915342400001,-88.299,-0.292,350.192
8.7007,128.181289,37.94721,6971.740996800001,-88.432,-0.316,350.001
8.7174,128.181285,37.947257,6971.564822400001,-88.558,-0.342,349.816
8.7341,128.181282,37.947304,6971.3865144,-88.679,-0.369,349.635
8.7508,128.181278,37.94735,6971.2063776,-88.796,-0.397,349.459
8.7675,128.181275,37.947397,6971.0241072,-88.908,-0.425,349.286
8.7842,128.181271,37.947443,6970.8397032,-89.018,-0.454,349.118
8.8009,128.181267,37.94749,6970.653165600001,-89.126,-0.483,348.953
8.8176,128.181263,37.947536,6970.4644944,-89.231,-0.512,348.791
8.8342,128.181258,37.947583,6970.2736896,-89.335,-0.541,348.632
8.8509,128.181254,37.947629,6970.080751200001,-89.438,-0.571,348.475
8.8676,128.181249,37.947676,6969.885679200001,-89.539,-0.6,348.321
8.8844,128.181245,37.947722,6969.6884736,-89.639,-0.63,348.168
8.9011,128.18124,37.947769,6969.4891344,-89.738,-0.661,348.017
8.9178,128.181235,37.947815,6969.2873568,-89.835,-0.692,347.867
8.9345,128.18123,37.947862,6969.0834456,-89.932,-0.724,347.719
8.9512,128.181225,37.947908,6968.877096,-90.027,-0.757,347.572
8.9679,128.181219,37.947954,6968.6689176,-90.124,-0.791,347.425
8.9846,128.181214,37.948001,6968.458300800001,-90.237,-0.827,347.279
9.0013,128.181208,37.948047,6968.245855200001,-90.445,-0.872,347.134
9.0179,128.181202,37.948094,6968.0309712,-90.747,-0.922,346.989
9.0346,128.181196,37.94814,6967.813344,-91.097,-0.973,346.844
9.0513,128.18119,37.948186,6967.592973600001,-91.467,-1.02,346.699
9.0681,128.181184,37.948232,6967.370164800001,-91.846,-1.065,346.553
9.0848,128.181177,37.948279,6967.1446128,-92.232,-1.109,346.407
9.1015,128.18117,37.948325,6966.9160128,-92.625,-1.153,346.26
9.1182,128.181164,37.948371,6966.684974400001,-93.03,-1.198,346.113
9.1349,128.181157,37.948418,6966.450888,-93.45,-1.245,345.966
9.1516,128.18115,37.948464,6966.2137536,-93.892,-1.295,345.818
9.1683,128.181143,37.94851,6965.9735712,-94.36,-1.347,345.669
9.185,128.181135,37.948556,6965.730340800001,-94.86,-1.402,345.52
9.2016,128.181128,37.948602,6965.4834528,-95.396,-1.46,345.37
9.2183,128.18112,37.948648,6965.2335168,-95.974,-1.521,345.22
9.235,128.181112,37.948694,6964.979618400001,-96.599,-1.586,345.068
9.2518,128.181104,37.948741,6964.7223672,-97.276,-1.655,344.916
9.2685,128.181096,37.948787,6964.4608488,-98.011,-1.727,344.763
9.2852,128.181088,37.948833,6964.195368000001,-98.809,-1.803,344.61
9.3019,128.181079,37.948879,6963.925620000001,-99.677,-1.884,344.455
9.3186,128.181071,37.948924,6963.650995200001,-100.621,-1.97,344.299
9.3353,128.181062,37.94897,6963.3717983999995,-101.644,-2.061,344.142
9.352,128.181053,37.949016,6963.087420000001,-102.745,-2.158,343.984
9.3687,128.181044,37.949062,6962.797860000001,-103.922,-2.26,343.826
9.3854,128.181034,37.949108,6962.5025088,-105.173,-2.367,343.666
9.402,128.181025,37.949154,6962.2016712,-106.497,-2.48,343.505
9.4187,128.181015,37.9492,6961.894432800001,-107.89,-2.599,343.344
9.4355,128.181005,37.949245,6961.579269600001,-109.181,-2.708,343.176
9.4522,128.180995,37.949291,6961.257705600001,-110.372,-2.807,343.002
9.4689,128.180985,37.949337,6960.9297408,-111.46,-2.896,342.836
9.4856,128.180975,37.949382,6960.5953752,-112.444,-2.974,342.692
9.5023,128.180965,37.949428,6960.2546088,-113.322,-3.039,342.584
9.519,128.180954,37.949474,6959.9077464,-114.099,-3.087,342.525
9.5357,128.180944,37.949519,6959.554788,-114.778,-3.11,342.527
9.5524,128.180933,37.949565,6959.1963432,-115.364,-3.103,342.601
9.5691,128.180922,37.94961,6958.832412,-115.861,-3.067,342.743
9.5857,128.180912,37.949656,6958.4632992,-116.273,-3.007,342.936
9.6024,128.180901,37.949701,6958.0890048,-116.603,-2.931,343.163
9.6192,128.18089,37.949747,6957.710138400001,-116.855,-2.847,343.408
9.6359,128.180879,37.949792,6957.3267000000005,-117.033,-2.761,343.655
9.6526,128.180868,37.949838,6956.9392992,-117.139,-2.681,343.889
9.6693,128.180856,37.949884,6956.547936,-117.177,-2.608,344.108
9.686,128.180845,37.949929,6956.1529152,-117.149,-2.541,344.31
9.7027,128.180834,37.949975,6955.7548464,-117.06,-2.482,344.499
9.7194,128.180823,37.95002,6955.3534248000005,-116.911,-2.428,344.675
9.7361,128.180812,37.950066,6954.94926,-116.704,-2.379,344.84
9.7528,128.1808,37.950111,6954.5420472000005,-116.442,-2.336,344.995
9.7694,128.180789,37.950157,6954.1317864,-116.127,-2.297,345.14
9.7861,128.180778,37.950202,6953.7190872,-115.759,-2.262,345.277
9.8029,128.180766,37.950248,6953.3036448,-115.343,-2.231,345.407
9.8196,128.180755,37.950293,6952.885764000001,-114.878,-2.203,345.53
9.8363,128.180743,37.950339,6952.4654448,-114.367,-2.179,345.647
9.853,128.180732,37.950384,6952.042382400001,-113.811,-2.158,345.758
9.8697,128.18072,37.95043,6951.617186400001,-113.212,-2.14,345.865
9.8864,128.180709,37.950476,6951.189552000001,-112.571,-2.125,345.967
9.9031,128.180698,37.950521,6950.759479200001,-111.89,-2.112,346.065
9.9198,128.180686,37.950567,6950.3272728,-111.17,-2.101,346.159
9.9365,128.180675,37.950612,6949.8929328,-110.412,-2.093,346.25
9.9531,128.180663,37.950658,6949.457678400001,-109.809,-2.104,346.344
9.9698,128.180651,37.950704,6949.0199856,-109.353,-2.135,346.442
9.9865,128.18064,37.950749,6948.5798544,-109.05,-2.18,346.541
10.0033,128.180628,37.950795,6948.1372848,-108.901,-2.233,346.639
10.02,128.180617,37.95084,6947.6916672,-108.908,-2.29,346.734
10.0367,128.180605,37.950886,6947.2436112000005,-109.067,-2.348,346.826
10.0534,128.180593,37.950932,6946.7925072,-109.375,-2.407,346.913
10.0701,128.180582,37.950977,6946.33866,-109.825,-2.466,346.995
10.0868,128.18057,37.951023,6945.8817648,-110.413,-2.524,347.073
10.1035,128.180558,37.951069,6945.4215168,-111.132,-2.582,347.146
10.1202,128.180546,37.951114,6944.9582208,-111.978,-2.639,347.214
10.1368,128.180534,37.95116,6944.491572,-112.945,-2.696,347.276
10.1535,128.180522,37.951205,6944.021265600001,-114.029,-2.753,347.334
10.1702,128.18051,37.951251,6943.5476064,-115.223,-2.81,347.387
10.187,128.180498,37.951297,6943.0702896,-116.524,-2.867,347.435
10.2037,128.180486,37.951342,6942.589010400001,-117.928,-2.924,347.478
10.2204,128.180474,37.951388,6942.103768800001,-119.431,-2.981,347.517
10.2371,128.180462,37.951433,6941.61426,-121.028,-3.039,347.552
10.2538,128.18045,37.951479,6941.1210936,-122.715,-3.097,347.583
10.2705,128.180438,37.951524,6940.6233552,-124.49,-3.156,347.61
10.2872,128.180426,37.95157,6940.1216544,-126.349,-3.216,347.633
10.3039,128.180413,37.951615,6939.6159912,-128.287,-3.276,347.654
10.3205,128.180401,37.951661,6939.106060800001,-130.303,-3.338,347.671
10.3372,128.180389,37.951706,6938.5918632,-132.391,-3.4,347.686
10.3539,128.180376,37.951752,6938.072484000001,-134.348,-3.449,347.684
10.3707,128.180364,37.951798,6937.549752000001,-136.179,-3.484,347.666
10.3874,128.180351,37.951843,6937.0236672,-137.876,-3.511,347.635
10.4041,128.180339,37.951888,6936.4942296,-139.433,-3.534,347.598
10.4208,128.180327,37.951934,6935.9620488,-140.848,-3.558,347.558
10.4375,128.180314,37.951979,6935.427429599999,-142.121,-3.584,347.516
10.4542,128.180302,37.952025,6934.8900672,-143.256,-3.612,347.475
10.4709,128.180289,37.95207,6934.350876,-144.257,-3.643,347.434
10.4876,128.180277,37.952116,6933.810160800001,-145.13,-3.676,347.393
10.5042,128.180264,37.952162,6933.2676168,-145.879,-3.711,347.353
10.5209,128.180252,37.952207,6932.7235488,-146.508,-3.747,347.313
10.5376,128.18024,37.952253,6932.1785664,-147.023,-3.784,347.274
10.5544,128.180227,37.952298,6931.6329744,-147.428,-3.822,347.236
10.5711,128.180215,37.952344,6931.086468,-147.726,-3.86,347.2
10.5878,128.180202,37.952389,6930.539656800001,-147.923,-3.898,347.164
10.6045,128.18019,37.952435,6929.992845600001,-148.022,-3.935,347.13
10.6212,128.180177,37.95248,6929.4457296,-148.026,-3.972,347.097
10.6379,128.180165,37.952526,6928.8992232,-147.941,-4.007,347.066
10.6546,128.180153,37.952572,6928.3521072,-147.769,-4.042,347.036
10.6713,128.18014,37.952617,6927.804991200001,-147.514,-4.075,347.008
10.6879,128.180128,37.952663,6927.2578752,-147.18,-4.106,346.982
10.7046,128.180116,37.952709,6926.7101496000005,-146.77,-4.136,346.957
10.7213,128.180103,37.952754,6926.1621192,-146.287,-4.165,346.933
10.7381,128.180091,37.9528,6925.613784000001,-145.734,-4.192,346.912
10.7548,128.180079,37.952846,6925.0648392,-145.115,-4.217,346.892
10.7715,128.180066,37.952891,6924.5152848,-144.433,-4.24,346.873
10.7882,128.180054,37.952937,6923.9651208,-143.69,-4.262,346.857
10.8049,128.180042,37.952983,6923.414042400001,-142.888,-4.282,346.842
10.8216,128.180029,37.953029,6922.8623544,-142.032,-4.3,346.828
10.8383,128.180017,37.953074,6922.309447200001,-141.123,-4.316,346.817
10.855,128.180005,37.95312,6921.7559304,-140.163,-4.331,346.807
10.8717,128.179992,37.953166,6921.2011944000005,-139.155,-4.344,346.798
10.8883,128.17998,37.953212,6920.645544,-138.102,-4.356,346.792
10.905,128.179968,37.953258,6920.088674400001,-137.005,-4.366,346.787
10.9218,128.179956,37.953304,6919.5302808,-135.867,-4.374,346.784
10.9385,128.179943,37.953349,6918.970972800001,-134.689,-4.381,346.783
10.9552,128.179931,37.953395,6918.410140800001,-133.473,-4.387,346.783
10.9719,128.179919,37.953441,6917.8477848,-132.222,-4.392,346.785
10.9886,128.179907,37.953487,6917.284819200001,-131.138,-4.411,346.803
11.0053,128.179894,37.953533,6916.719720000001,-130.212,-4.446,346.837
11.022,128.179882,37.953579,6916.152487200001,-129.452,-4.49,346.88
11.0387,128.17987,37.953625,6915.582511200001,-128.86,-4.538,346.928
11.0554,128.179857,37.953671,6915.009792000001,-128.436,-4.589,346.978
11.072,128.179845,37.953717,6914.433720000001,-128.176,-4.638,347.027
11.0887,128.179833,37.953763,6913.8549048,-128.076,-4.688,347.075
11.1054,128.17982,37.953809,6913.272432000001,-128.128,-4.736,347.121
11.1222,128.179808,37.953855,6912.6866064000005,-128.326,-4.784,347.165
11.1389,128.179796,37.953901,6912.0971232,-128.663,-4.832,347.207
11.1556,128.179783,37.953947,6911.503677600001,-129.133,-4.879,347.247
11.1723,128.179771,37.953992,6910.906269600001,-129.731,-4.927,347.285
11.189,128.179758,37.954038,6910.3045944000005,-130.451,-4.975,347.32
11.2057,128.179746,37.954084,6909.698652000001,-131.287,-5.023,347.353
11.2224,128.179733,37.95413,6909.088137600001,-132.235,-5.071,347.384
11.2391,128.179721,37.954176,6908.472746400001,-133.29,-5.12,347.412
11.2557,128.179708,37.954222,6907.852478400001,-134.447,-5.17,347.439
11.2724,128.179696,37.954268,6907.227028800001,-135.702,-5.22,347.463
11.2891,128.179683,37.954314,6906.5967024,-137.05,-5.271,347.485
11.3059,128.17967,37.95436,6905.9614992,-138.488,-5.323,347.505
11.3226,128.179658,37.954406,6905.3214192000005,-140.011,-5.376,347.524
11.3393,128.179645,37.954451,6904.6761576,-141.616,-5.429,347.541
11.356,128.179632,37.954497,6904.0260192000005,-143.298,-5.483,347.557
11.3727,128.179619,37.954543,6903.3710040000005,-145.055,-5.538,347.571
11.3894,128.179606,37.954589,6902.7108072,-146.882,-5.594,347.585
11.4061,128.179594,37.954635,6902.045733600001,-148.775,-5.651,347.598
11.4228,128.179581,37.954681,6901.375783200001,-150.732,-5.708,347.61
11.4394,128.179568,37.954726,6900.700651200001,-152.542,-5.754,347.602
11.4561,128.179555,37.954772,6900.020947200001,-154.21,-5.792,347.573
11.4728,128.179542,37.954818,6899.3378904,-155.728,-5.823,347.532
11.4896,128.179529,37.954864,6898.6508711999995,-157.089,-5.853,347.484
11.5063,128.179516,37.95491,6897.9604992,-158.292,-5.882,347.435
11.523,128.179504,37.954955,6897.267384000001,-159.338,-5.914,347.386
11.5397,128.179491,37.955001,6896.5715256,-160.232,-5.946,347.34
11.5564,128.179478,37.955047,6895.873228800001,-160.98,-5.981,347.295
11.5731,128.179465,37.955093,6895.1727984,-161.588,-6.017,347.251
11.5898,128.179452,37.955139,6894.4705392,-162.062,-6.054,347.209
11.6065,128.179439,37.955184,6893.766756000001,-162.408,-6.091,347.169
11.6231,128.179426,37.95523,6893.0617536,-162.63,-6.129,347.129
11.6398,128.179413,37.955276,6892.3558368,-162.734,-6.167,347.091
11.6565,128.1794,37.955322,6891.6490056,-162.725,-6.204,347.054
11.6733,128.179387,37.955368,6890.9418696,-162.608,-6.24,347.018
11.69,128.179375,37.955414,6890.2344288,-162.387,-6.276,346.984
11.7067,128.179362,37.955459,6889.5269880000005,-162.067,-6.31,346.951
11.7234,128.179349,37.955505,6888.819547200001,-161.653,-6.343,346.919
11.7401,128.179336,37.955551,6888.112106400001,-161.148,-6.374,346.888
11.7568,128.179323,37.955597,6887.404360800001,-160.557,-6.403,346.859
11.7735,128.17931,37.955643,6886.696310400001,-159.884,-6.431,346.831
11.7902,128.179297,37.955689,6885.988260000001,-159.132,-6.457,346.804
11.8068,128.179284,37.955735,6885.2792952,-158.306,-6.481,346.778
11.8235,128.179271,37.955781,6884.5703304,-157.408,-6.503,346.754
11.8402,128.179259,37.955827,6883.860451200001,-156.443,-6.523,346.73
11.857,128.179246,37.955873,6883.1502672,-155.413,-6.541,346.709
11.8737,128.179233,37.955919,6882.4391688000005,-154.323,-6.557,346.688
11.8904,128.17922,37.955965,6881.727156000001,-153.174,-6.571,346.669
11.9071,128.179207,37.956011,6881.0145336000005,-151.97,-6.584,346.651
11.9238,128.179194,37.956057,6880.300996800001,-150.713,-6.594,346.635
11.9405,128.179181,37.956103,6879.5865456,-149.407,-6.603,346.619
11.9572,128.179169,37.95615,6878.8708752,-148.053,-6.61,346.606
11.9739,128.179156,37.956196,6878.1542904,-146.655,-6.615,346.594
11.9905,128.179143,37.956242,6877.4364864,-145.215,-6.619,346.583
12.0072,128.17913,37.956288,6876.7171584,-143.734,-6.621,346.575
12.0239,128.179117,37.956334,6875.9972208,-142.423,-6.635,346.585
12.0407,128.179104,37.95638,6875.2748448,-141.274,-6.662,346.615
12.0574,128.179092,37.956426,6874.5503352,-140.294,-6.697,346.657
12.0741,128.179079,37.956473,6873.8230824,-139.486,-6.736,346.705
12.0908,128.179066,37.956519,6873.0927816,-138.852,-6.776,346.755
12.1075,128.179053,37.956565,6872.359432800001,-138.388,-6.815,346.803
12.1242,128.17904,37.956611,6871.6224264,-138.086,-6.854,346.85
12.1409,128.179027,37.956657,6870.8817624,-137.941,-6.892,346.895
12.1576,128.179014,37.956704,6870.1374408,-137.946,-6.93,346.937
12.1743,128.179001,37.95675,6869.388852000001,-138.093,-6.968,346.978
12.1909,128.178988,37.956796,6868.6356912,-138.376,-7.007,347.017
12.2076,128.178975,37.956842,6867.878568,-138.79,-7.045,347.053
12.2243,128.178962,37.956888,6867.1162632000005,-139.328,-7.085,347.088
12.2411,128.178949,37.956935,6866.3493864,-139.985,-7.124,347.121
12.2578,128.178936,37.956981,6865.577328,-140.757,-7.165,347.152
12.2745,128.178923,37.957027,6864.799783200001,-141.638,-7.206,347.181
12.2912,128.17891,37.957073,6864.016752,-142.623,-7.248,347.208
12.3079,128.178897,37.957119,6863.2279296,-143.708,-7.292,347.233
12.3246,128.178884,37.957166,6862.4336207999995,-144.888,-7.336,347.257
12.3413,128.178871,37.957212,6861.6338256,-146.16,-7.38,347.279
12.358,128.178857,37.957258,6860.828544,-147.519,-7.426,347.3
12.3746,128.178844,37.957304,6860.017776,-148.961,-7.472,347.319
12.3913,128.178831,37.95735,6859.2015216,-150.483,-7.52,347.338
12.408,128.178818,37.957396,6858.3797808,-152.08,-7.568,347.355
12.4248,128.178804,37.957442,6857.5525536000005,-153.748,-7.616,347.372
12.4415,128.178791,37.957488,6856.71984,-155.486,-7.665,347.388
12.4582,128.178778,37.957535,6855.8816400000005,-157.287,-7.715,347.404
12.4749,128.178764,37.957581,6855.0379536,-159.15,-7.765,347.42
12.4916,128.178751,37.957627,6854.1887808,-161.071,-7.816,347.435
12.5083,128.178737,37.957673,6853.333512,-162.835,-7.873,347.421
12.525,128.178724,37.957719,6852.4733664,-164.443,-7.953,347.375
12.5417,128.178711,37.957765,6851.6077344,-165.887,-8.067,347.306
12.5583,128.178697,37.957811,6850.73814,-167.16,-8.205,347.225
12.575,128.178684,37.957857,6849.863668800001,-168.261,-8.353,347.144
12.5917,128.178671,37.957903,6848.98554,-169.194,-8.501,347.067
12.6085,128.178657,37.957949,6848.1034488000005,-169.963,-8.64,346.995
12.6252,128.178644,37.957995,6847.2173952,-170.577,-8.769,346.93
12.6419,128.17863,37.958042,6846.3282936,-171.041,-8.886,346.871
12.6586,128.178617,37.958088,6845.4358392,-171.364,-8.991,346.817
12.6753,128.178603,37.958134,6844.540032000001,-171.552,-9.085,346.767
12.692,128.17859,37.95818,6843.6417864000005,-171.612,-9.169,346.72
12.7087,128.178577,37.958226,6842.7411024,-171.549,-9.245,346.676
12.7254,128.178563,37.958272,6841.83798,-171.37,-9.314,346.635
12.742,128.17855,37.958318,6840.932724,-171.08,-9.377,346.595
12.7587,128.178536,37.958365,6840.025944,-170.685,-9.437,346.557
12.7754,128.178523,37.958411,6839.11764,-170.189,-9.493,346.52
12.7922,128.178509,37.958457,6838.207812,-169.597,-9.548,346.484
12.8089,128.178496,37.958503,6837.296155200001,-168.913,-9.602,346.448
12.8256,128.178482,37.958549,6836.382364800001,-168.143,-9.658,346.413
12.8423,128.178469,37.958596,6835.4670504000005,-167.289,-9.715,346.377
12.859,128.178455,37.958642,6834.5496023999995,-166.357,-9.776,346.34
12.8757,128.178442,37.958688,6833.6300208,-165.349,-9.84,346.302
12.8924,128.178429,37.958735,6832.7080008,-164.27,-9.908,346.263
12.9091,128.178415,37.958781,6831.7835424,-163.122,-9.981,346.221
12.9257,128.178402,37.958827,6830.856645600001,-161.91,-10.059,346.178
12.9424,128.178388,37.958874,6829.9270056000005,-160.636,-10.143,346.131
12.9591,128.178374,37.95892,6828.993708,-159.515,-10.256,346.098
12.9759,128.178361,37.958966,6828.0561431999995,-158.538,-10.41,346.074
12.9926,128.178347,37.959013,6827.1130920000005,-157.713,-10.618,346.043
13.0093,128.178334,37.959059,6826.1639448000005,-157.042,-10.885,345.991
13.026,128.17832,37.959105,6825.2074824,-156.525,-11.218,345.908
13.0427,128.178307,37.959152,6824.242790400001,-156.158,-11.62,345.791
13.0594,128.178293,37.959198,6823.271088,-155.736,-12.065,345.621
13.0761,128.178279,37.959244,6822.291156000001,-155.247,-12.539,345.403
13.0928,128.178266,37.959291,6821.3039088000005,-154.687,-13.027,345.156
13.1095,128.178252,37.959337,6820.308432000001,-154.06,-13.514,344.895
13.1262,128.178238,37.959383,6819.303811200001,-153.38,-13.985,344.637
13.1429,128.178225,37.95943,6818.289436800001,-152.667,-14.421,344.393
13.1596,128.178211,37.959476,6817.2646992,-151.937,-14.822,344.166
13.1763,128.178197,37.959522,6816.2289888,-151.204,-15.19,343.953
13.193,128.178183,37.959569,6815.181696000001,-150.48,-15.529,343.752
13.2097,128.178169,37.959615,6814.121906400001,-149.773,-15.844,343.561
13.2264,128.178155,37.959661,6813.049924800001,-149.091,-16.137,343.377
13.2431,128.178141,37.959707,6811.9654464000005,-148.436,-16.411,343.2
13.2598,128.178127,37.959753,6810.8681664,-147.811,-16.668,343.029
13.2765,128.178113,37.959799,6809.7580848,-147.217,-16.911,342.862
13.2932,128.178098,37.959846,6808.634896800001,-146.654,-17.141,342.699
13.3099,128.178084,37.959892,6807.498297600001,-146.122,-17.359,342.54
13.3266,128.17807,37.959938,6806.348896800001,-145.619,-17.567,342.384
13.3433,128.178055,37.959984,6805.1860848,-145.144,-17.766,342.23
13.36,128.178041,37.96003,6804.010776,-144.616,-17.954,342.074
13.3767,128.178026,37.960075,6802.8229704000005,-144.039,-18.131,341.916
13.3934,128.178011,37.960121,6801.623277600001,-143.427,-18.3,341.758
13.4101,128.177996,37.960167,6800.411392800001,-142.791,-18.463,341.602
13.4268,128.177982,37.960213,6799.186706400001,-142.143,-18.621,341.449
13.4435,128.177967,37.960259,6797.949523200001,-141.495,-18.775,341.298
13.4602,128.177952,37.960304,6796.699233600001,-140.856,-18.924,341.149
13.4769,128.177937,37.96035,6795.435837600001,-140.235,-19.07,341.003
13.4936,128.177921,37.960396,6794.15964,-139.638,-19.212,340.858
13.5103,128.177906,37.960441,6792.8700312,-139.07,-19.351,340.714
13.527,128.177891,37.960487,6791.567316,-138.533,-19.486,340.57
13.5437,128.177875,37.960532,6790.2517992,-138.029,-19.618,340.427
13.5604,128.17786,37.960578,6788.9228712,-137.559,-19.747,340.283
13.5771,128.177844,37.960623,6787.581141600001,-137.122,-19.874,340.139
13.5938,128.177829,37.960669,6786.226610400001,-136.716,-19.999,339.996
13.6105,128.177813,37.960714,6784.858972800001,-136.341,-20.121,339.852
13.6272,128.177797,37.960759,6783.478838400001,-135.993,-20.243,339.709
13.6439,128.177781,37.960804,6782.0859024,-135.669,-20.364,339.566
13.6606,128.177765,37.960849,6780.680469600001,-135.369,-20.484,339.425
13.6773,128.177749,37.960894,6779.2622352,-135.092,-20.603,339.283
13.694,128.177732,37.960939,6777.831504,-134.835,-20.721,339.142
13.7107,128.177716,37.960984,6776.3885808,-134.598,-20.838,339.0
13.7274,128.1777,37.961029,6774.932856,-134.379,-20.954,338.858
13.7441,128.177683,37.961074,6773.4649392,-134.175,-21.069,338.715
13.7608,128.177666,37.961119,6771.9848304,-133.986,-21.183,338.573
13.7775,128.17765,37.961164,6770.4925296,-133.809,-21.296,338.43
13.7942,128.177633,37.961209,6768.9877320000005,-133.644,-21.409,338.287
13.8109,128.177616,37.961253,6767.471047200001,-133.489,-21.521,338.145
13.8276,128.177599,37.961298,6765.942170400001,-133.342,-21.632,338.002
13.8443,128.177582,37.961342,6764.4011016,-133.204,-21.743,337.859
13.861,128.177565,37.961387,6762.8481456,-133.074,-21.853,337.716
13.8777,128.177547,37.961431,6761.282997600001,-132.949,-21.963,337.574
13.8944,128.17753,37.961476,6759.7059624,-132.831,-22.072,337.431
13.9111,128.177512,37.96152,6758.11704,-132.718,-22.182,337.289
13.9278,128.177495,37.961564,6756.5162304,-132.609,-22.29,337.146
13.9445,128.177477,37.961609,6754.903533600001,-132.505,-22.399,337.004
13.9612,128.177459,37.961653,6753.2789496000005,-132.405,-22.507,336.862
13.9779,128.177441,37.961697,6751.642478400001,-132.309,-22.616,336.72
13.9946,128.177423,37.961741,6749.994120000001,-132.216,-22.724,336.578
14.0113,128.177405,37.961785,6748.334179200001,-132.126,-22.832,336.437
14.028,128.177387,37.961829,6746.662351200001,-132.039,-22.939,336.295
14.0447,128.177369,37.961873,6744.978636,-131.955,-23.047,336.154
14.0614,128.17735,37.961916,6743.2833384000005,-131.873,-23.154,336.013
14.0781,128.177332,37.96196,6741.5764584,-131.794,-23.262,335.871
14.0948,128.177313,37.962004,6739.857996000001,-131.716,-23.369,335.73
14.1115,128.177295,37.962048,6738.1276464,-131.641,-23.477,335.589
14.1282,128.177276,37.962091,6736.3857144,-131.568,-23.584,335.448
14.1449,128.177257,37.962135,6734.6322,-131.497,-23.691,335.308
14.1616,128.177238,37.962178,6732.8671032,-131.427,-23.799,335.167
14.1783,128.177219,37.962221,6731.090424000001,-131.36,-23.906,335.026
14.195,128.1772,37.962265,6729.3021624,-131.293,-24.013,334.886
14.2117,128.17718,37.962308,6727.5026232,-131.229,-24.121,334.745
14.2284,128.177161,37.962351,6725.6911968,-131.166,-24.228,334.605
14.2451,128.177142,37.962394,6723.868492800001,-131.104,-24.336,334.464
14.2618,128.177122,37.962438,6722.034206400001,-131.044,-24.443,334.324
14.2785,128.177103,37.962481,6720.1886424,-130.985,-24.551,334.184
14.2952,128.177083,37.962524,6718.331496000001,-130.927,-24.658,334.044
14.3119,128.177063,37.962566,6716.4630720000005,-130.871,-24.766,333.903
14.3286,128.177043,37.962609,6714.583065600001,-130.816,-24.874,333.763
14.3453,128.177023,37.962652,6712.6917816000005,-130.762,-24.982,333.623
14.362,128.177003,37.962695,6710.788915200001,-130.709,-25.089,333.483
14.3787,128.176983,37.962737,6708.875076,-130.657,-25.197,333.343
14.3954,128.176962,37.96278,6706.9496544,-130.607,-25.305,333.203
14.4121,128.176942,37.962822,6705.012955200001,-130.557,-25.414,333.062
14.4288,128.176922,37.962865,6703.064978400001,-130.508,-25.522,332.922
14.4455,128.176901,37.962907,6701.105724000001,-130.46,-25.63,332.782
14.4622,128.17688,37.96295,6699.134887200001,-130.414,-25.739,332.642
14.4789,128.17686,37.962992,6697.153077600001,-130.368,-25.847,332.502
14.4956,128.176839,37.963034,6695.1599904,-130.322,-25.956,332.362
14.5123,128.176818,37.963076,6693.1559304,-130.278,-26.065,332.222
14.529,128.176797,37.963118,6691.1402880000005,-130.234,-26.174,332.082
14.5457,128.176775,37.96316,6689.1136728,-130.192,-26.284,331.942
14.5624,128.176754,37.963202,6687.07578,-130.15,-26.393,331.803
14.5791,128.176733,37.963244,6685.0266096000005,-130.108,-26.503,331.663
14.5958,128.176711,37.963286,6682.9664664,-130.068,-26.612,331.523
14.6125,128.17669,37.963327,6680.8950456,-130.028,-26.722,331.383
14.6292,128.176668,37.963369,6678.8126520000005,-129.989,-26.832,331.243
14.6459,128.176647,37.963411,6676.7189808,-129.951,-26.942,331.103
14.6626,128.176625,37.963452,6674.6143368,-129.913,-27.053,330.963
14.6793,128.176603,37.963493,6672.498415200001,-129.877,-27.163,330.823
14.696,128.176581,37.963535,6670.371520799999,-129.84,-27.274,330.683
14.7127,128.176559,37.963576,6668.2336536,-129.805,-27.384,330.543
14.7294,128.176537,37.963617,6666.084508800001,-129.77,-27.495,330.403
14.7461,128.176514,37.963658,6663.924696,-129.735,-27.606,330.263
14.7628,128.176492,37.963699,6661.753605600001,-129.702,-27.717,330.123
14.7795,128.17647,37.96374,6659.571237600001,-129.668,-27.828,329.983
14.7962,128.176447,37.963781,6657.3782016000005,-129.636,-27.939,329.842
14.8129,128.176425,37.963822,6655.174192800001,-129.604,-28.05,329.702
14.8296,128.176402,37.963863,6652.959211200001,-129.572,-28.162,329.561
14.8463,128.176379,37.963904,6650.732952000001,-129.541,-28.273,329.421
14.863,128.176356,37.963944,6648.496024800001,-129.51,-28.385,329.28
14.8797,128.176333,37.963985,6646.248124800001,-129.48,-28.496,329.139
14.8964,128.17631,37.964025,6643.989252000001,-129.45,-28.608,328.999
14.9131,128.176287,37.964066,6641.7194064000005,-129.42,-28.72,328.858
14.9298,128.176264,37.964106,6639.438588000001,-129.391,-28.832,328.716
14.9465,128.17624,37.964146,6637.1471016000005,-129.362,-28.944,328.575
14.9632,128.176217,37.964186,6634.8446424,-129.334,-29.056,328.434
14.9799,128.176193,37.964227,6632.5312104,-129.306,-29.168,328.292
14.9966,128.17617,37.964267,6630.207110400001,-129.278,-29.28,328.151
15.0133,128.176146,37.964307,6627.8717328,-129.25,-29.393,328.009
15.03,128.176122,37.964346,6625.525992000001,-129.223,-29.505,327.867
15.0467,128.176098,37.964386,6623.168973600001,-129.196,-29.617,327.725
15.0634,128.176074,37.964426,6620.801287200001,-129.17,-29.73,327.583
15.0801,128.17605,37.964465,6618.4229328,-129.143,-29.842,327.441
15.0968,128.176026,37.964505,6616.033605600001,-129.117,-29.955,327.298
15.1135,128.176002,37.964545,6613.633610400001,-129.091,-30.067,327.156
15.1302,128.175978,37.964584,6611.222947200001,-129.065,-30.18,327.013
15.1469,128.175953,37.964623,6608.801311200001,-129.04,-30.293,326.87
15.1636,128.175929,37.964662,6606.3687024,-129.014,-30.406,326.727
15.1803,128.175904,37.964702,6603.9257304,-128.989,-30.518,326.583
15.197,128.17588,37.964741,6601.4717856,-128.964,-30.631,326.44
15.2137,128.175855,37.96478,6599.0071728,-128.938,-30.744,326.296
15.2304,128.17583,37.964819,6596.531892000001,-128.914,-30.857,326.153
15.2471,128.175805,37.964857,6594.0459432,-128.889,-30.97,326.008
15.2638,128.17578,37.964896,6591.5490216,-128.864,-31.083,325.864
