Time,Longitude,Latitude,Altitude,Roll (deg),Pitch (deg),Yaw (deg)
0.0,128.181881,37.968463,7002.830292000001,0.0,-0.003,179.999
0.0167,128.181881,37.968418,7002.8116992000005,0.0,-0.012,180.0
0.0334,128.181881,37.968374,7002.792496800001,0.0,-0.025,180.0
0.0501,128.181881,37.968329,7002.7720752,0.0,-0.041,180.0
0.0668,128.181881,37.968284,7002.751044,0.0,-0.059,180.0
0.0834,128.181881,37.968239,7002.7287936,0.0,-0.077,180.0
0.1002,128.181881,37.968194,7002.705933600001,0.0,-0.095,180.0
0.1169,128.181881,37.968149,7002.682159200001,0.0,-0.112,180.0
0.1336,128.181881,37.968104,7002.657470400001,0.0,-0.127,180.0
0.1503,128.181881,37.968059,7002.6321720000005,0.0,-0.14,180.0
0.1669,128.181881,37.968014,7002.6056544,0.0,-0.151,180.0
0.1837,128.181881,37.967969,7002.5782224,0.0,-0.16,180.0
0.2004,128.181881,37.967924,7002.5501808,0.0,-0.167,180.0
0.2171,128.181881,37.967879,7002.521224800001,0.0,-0.172,180.0
0.2338,128.181881,37.967834,7002.4913544,0.0,-0.175,180.0
0.2505,128.181881,37.967789,7002.460569600001,0.0,-0.178,180.0
0.2672,128.181881,37.967744,7002.4291752,0.0,-0.179,180.0
0.2839,128.181881,37.967699,7002.3965616,0.0,-0.18,180.0
0.3006,128.181881,37.967654,7002.363643199999,0.0,-0.18,180.0
0.3172,128.181881,37.967609,7002.329505600001,0.0,-0.179,180.0
0.3339,128.181881,37.967564,7002.2947584,0.0,-0.179,180.0
0.3507,128.181881,37.967519,7002.259401600001,0.0,-0.179,180.0
0.3674,128.181881,37.967474,7002.2231304,0.0,-0.179,180.0
0.3841,128.181881,37.967429,7002.1859448000005,0.0,-0.179,180.0
0.4008,128.181881,37.967384,7002.148149600001,0.001,-0.179,180.0
0.4175,128.181881,37.967339,7002.1097448,0.001,-0.18,180.0
0.4342,128.181881,37.967294,7002.0704256,0.001,-0.18,180.0
0.4509,128.181881,37.967249,7002.030496800001,0.001,-0.182,180.0
0.4676,128.181881,37.967204,7001.9899584,0.001,-0.183,180.0
0.4843,128.181881,37.967159,7001.9485056,0.001,-0.184,180.0
0.501,128.181881,37.967114,7001.9064432,0.001,-0.186,180.0
0.5176,128.181881,37.967069,7001.8637712,0.002,-0.188,180.0
0.5344,128.181881,37.967024,7001.8201848,0.002,-0.19,180.0
0.5511,128.181881,37.966979,7001.7762936,0.002,-0.191,180.0
0.5678,128.181881,37.966934,7001.731488,0.002,-0.193,180.0
0.5845,128.181881,37.966889,7001.6860728,0.002,-0.195,180.0
0.6012,128.181881,37.966844,7001.640048,0.002,-0.197,180.0
0.6179,128.181881,37.966798,7001.5934136000005,0.003,-0.198,180.0
0.6345,128.181881,37.966753,7001.546169600001,0.003,-0.2,180.0
0.6513,128.181881,37.966708,7001.498011200001,0.003,-0.201,180.0
0.6679,128.181881,37.966663,7001.449548,0.003,-0.203,180.0
0.6847,128.181881,37.966618,7001.4004752,0.003,-0.204,180.0
0.7014,128.181881,37.966573,7001.350792800001,0.004,-0.206,180.0
0.7181,128.181881,37.966528,7001.300500800001,0.004,-0.207,180.0
0.7348,128.181881,37.966483,7001.2495992,0.004,-0.208,180.0
0.7514,128.181881,37.966438,7001.198088000001,0.004,-0.209,180.0
0.7682,128.181881,37.966393,7001.1459672,0.004,-0.21,180.0
0.7848,128.181881,37.966348,7001.0935416,0.005,-0.211,180.0
0.8016,128.181881,37.966302,7001.040201600001,0.005,-0.213,180.001
0.8183,128.181881,37.966257,7000.9865568000005,0.005,-0.214,180.001
0.835,128.181881,37.966212,7000.9323024,0.005,-0.215,180.001
0.8517,128.181881,37.966167,7000.877438400001,0.006,-0.216,180.001
0.8684,128.181881,37.966122,7000.8222696,0.006,-0.217,180.001
0.8851,128.181881,37.966077,7000.7664912,0.006,-0.218,180.001
0.9018,128.181881,37.966032,7000.7101032,0.006,-0.219,180.001
0.9185,128.181881,37.965987,7000.6531056,0.007,-0.22,180.001
0.9352,128.181881,37.965941,7000.5958032,0.007,-0.221,180.001
0.9519,128.181881,37.965896,7000.537891200001,0.007,-0.222,180.001
0.9686,128.181881,37.965851,7000.4796744000005,0.008,-0.223,180.001
0.9853,128.181881,37.965806,7000.420848,0.008,-0.224,180.001
1.002,128.181881,37.965761,7000.361412,0.008,-0.225,180.001
1.0187,128.181881,37.965716,7000.3016712,0.009,-0.226,180.001
1.0353,128.181881,37.96567,7000.2416256,0.009,-0.227,180.001
1.0521,128.181881,37.965625,7000.180970400001,0.009,-0.228,180.001
1.0688,128.181881,37.96558,7000.119705600001,0.009,-0.229,180.001
1.0855,128.181881,37.965535,7000.058136000001,0.01,-0.23,180.001
1.1022,128.181881,37.96549,6999.995956800001,0.01,-0.231,180.001
1.1189,128.181881,37.965445,6999.9337776,0.01,-0.232,180.001
1.1356,128.181881,37.965399,6999.870684,0.011,-0.232,180.001
1.1522,128.181881,37.965354,6999.807590400001,0.011,-0.233,180.001
1.169,128.181881,37.965309,6999.7435824,0.011,-0.234,180.001
1.1857,128.181881,37.965264,6999.679574400001,0.012,-0.235,180.001
1.2024,128.181881,37.965219,6999.614956800001,0.012,-0.236,180.001
1.2191,128.181881,37.965173,6999.5500344,0.012,-0.236,180.001
1.2358,128.181881,37.965128,6999.4848071999995,0.013,-0.237,180.001
1.2525,128.181881,37.965083,6999.418970400001,0.013,-0.238,180.001
1.2691,128.181881,37.965038,6999.352828800001,0.014,-0.238,180.001
1.2859,128.181881,37.964992,6999.286382400001,0.014,-0.239,180.001
1.3026,128.181881,37.964947,6999.2193264,0.014,-0.24,180.001
1.3193,128.181881,37.964902,6999.152270400001,0.015,-0.24,180.001
1.3359,128.181881,37.964857,6999.0846048,0.015,-0.241,180.001
1.3527,128.18188,37.964811,6999.0166344,0.015,-0.242,180.001
1.3694,128.18188,37.964766,6998.948359200001,0.016,-0.242,180.001
1.386,128.18188,37.964721,6998.879474400001,0.016,-0.243,180.001
1.4028,128.18188,37.964676,6998.8105896,0.017,-0.244,180.001
1.4195,128.18188,37.96463,6998.7410952,0.017,-0.244,180.001
1.4362,128.18188,37.964585,6998.671296,0.018,-0.245,180.001
1.4528,128.18188,37.96454,6998.601496800001,0.018,-0.245,180.001
1.4696,128.18188,37.964494,6998.531088000001,0.018,-0.246,180.001
1.4863,128.18188,37.964449,6998.460374400001,0.019,-0.246,180.001
1.5029,128.18188,37.964404,6998.389356000001,0.019,-0.247,180.001
1.5197,128.18188,37.964359,6998.318032800001,0.02,-0.247,180.001
1.5364,128.18188,37.964313,6998.2464048,0.02,-0.248,180.001
1.5531,128.18188,37.964268,6998.174472000001,0.021,-0.248,180.001
1.5697,128.18188,37.964223,6998.1022344,0.021,-0.249,180.001
1.5865,128.18188,37.964177,6998.029692000001,0.022,-0.249,180.002
1.6032,128.18188,37.964132,6997.9568448,0.022,-0.25,180.002
1.6198,128.18188,37.964087,6997.883692800001,0.022,-0.25,180.002
1.6366,128.18188,37.964041,6997.810236,0.023,-0.251,180.002
1.6533,128.18188,37.963996,6997.736474400001,0.023,-0.251,180.002
1.67,128.18188,37.963951,6997.662408,0.024,-0.251,180.002
1.6867,128.18188,37.963905,6997.588341600001,0.024,-0.252,180.002
1.7034,128.18188,37.96386,6997.5136656,0.025,-0.252,180.002
1.7201,128.18188,37.963815,6997.4389896,0.025,-0.253,180.002
1.7368,128.18188,37.963769,6997.3640088,0.026,-0.253,180.002
1.7535,128.18188,37.963724,6997.2887232,0.026,-0.253,180.002
1.7702,128.18188,37.963679,6997.2131328000005,0.027,-0.254,180.002
1.7869,128.18188,37.963633,6997.137237600001,0.027,-0.254,180.002
1.8036,128.18188,37.963588,6997.0613424,0.028,-0.254,180.002
1.8203,128.18188,37.963542,6996.985142400001,0.029,-0.255,180.002
1.837,128.18188,37.963497,6996.908332800001,0.029,-0.255,180.002
1.8537,128.18188,37.963452,6996.831828,0.03,-0.255,180.002
1.8704,128.18188,37.963406,6996.7547136,0.03,-0.255,180.002
1.8871,128.18188,37.963361,6996.6775992,0.031,-0.256,180.002
1.9038,128.18188,37.963315,6996.600179999999,0.031,-0.256,180.002
1.9205,128.18188,37.96327,6996.522456000001,0.032,-0.256,180.002
1.9372,128.18188,37.963225,6996.4444272,0.032,-0.256,180.002
1.9539,128.18188,37.963179,6996.3663983999995,0.033,-0.256,180.002
1.9706,128.18188,37.963134,6996.288064800001,0.033,-0.257,180.002
1.9873,128.18188,37.963088,6996.2097312000005,0.034,-0.257,180.002
2.004,128.18188,37.963043,6996.130788,0.034,-0.257,180.002
2.0207,128.18188,37.962997,6996.0521496,0.035,-0.257,180.002
2.0374,128.18188,37.962952,6995.972901600001,0.036,-0.257,180.002
2.0541,128.18188,37.962906,6995.8936536,0.036,-0.257,180.002
2.0707,128.18188,37.962861,6995.8141008,0.037,-0.257,180.002
2.0875,128.18188,37.962816,6995.734547999999,0.037,-0.258,180.002
2.1042,128.18188,37.96277,6995.654690400001,0.038,-0.258,180.002
2.1208,128.18188,37.962725,6995.574528,0.039,-0.258,180.002
2.1376,128.18188,37.962679,6995.4943656000005,0.039,-0.258,180.002
2.1543,128.18188,37.962634,6995.4138984,0.04,-0.258,180.002
2.171,128.18188,37.962588,6995.333431200001,0.04,-0.258,180.002
2.1877,128.18188,37.962543,6995.2526592,0.041,-0.258,180.002
2.2044,128.18188,37.962497,6995.1715824,0.042,-0.258,180.002
2.2211,128.18188,37.962452,6995.090505600001,0.042,-0.258,180.002
2.2378,128.18188,37.962406,6995.009428800001,0.043,-0.258,180.002
2.2544,128.18188,37.962361,6994.928047200001,0.044,-0.258,180.002
2.2712,128.18188,37.962315,6994.846360800001,0.044,-0.258,180.002
2.2879,128.18188,37.96227,6994.7646744,0.045,-0.258,180.002
2.3045,128.18188,37.962224,6994.682683200001,0.046,-0.258,180.002
2.3213,128.18188,37.962179,6994.600692000001,0.046,-0.258,180.002
2.338,128.18188,37.962133,6994.5187008,0.047,-0.258,180.002
2.3546,128.18188,37.962088,6994.436404800001,0.048,-0.258,180.002
2.3714,128.18188,37.962042,6994.353804,0.048,-0.258,180.002
2.3881,128.18188,37.961996,6994.271508,0.049,-0.258,180.002
2.4048,128.18188,37.961951,6994.1886024,0.05,-0.258,180.002
2.4215,128.18188,37.961905,6994.106001600001,0.05,-0.258,180.002
2.4382,128.18188,37.96186,6994.0227912,0.051,-0.258,180.003
2.4549,128.18188,37.961814,6993.9398856,0.052,-0.258,180.003
2.4716,128.18188,37.961769,6993.8566752,0.053,-0.258,180.003
2.4882,128.18188,37.961723,6993.773160000001,0.053,-0.258,180.003
2.505,128.18188,37.961677,6993.689949600001,0.054,-0.258,180.003
2.5217,128.18188,37.961632,6993.6061296,0.055,-0.258,180.003
2.5383,128.18188,37.961586,6993.522614400001,0.056,-0.258,180.003
2.5551,128.18188,37.961541,6993.4387944,0.056,-0.257,180.003
2.5718,128.18188,37.961495,6993.354974400001,0.057,-0.257,180.003
2.5884,128.18188,37.961449,6993.2708496000005,0.058,-0.257,180.003
2.6052,128.18188,37.961404,6993.186724800001,0.059,-0.257,180.003
2.6219,128.18188,37.961358,6993.1026,0.059,-0.257,180.003
2.6386,128.18188,37.961312,6993.018170400001,0.06,-0.257,180.003
2.6553,128.18188,37.961267,6992.9340456,0.061,-0.256,180.003
2.6719,128.18188,37.961221,6992.849311200001,0.062,-0.256,180.003
2.6887,128.18188,37.961176,6992.7648816,0.062,-0.256,180.003
2.7054,128.18188,37.96113,6992.680147200001,0.063,-0.256,180.003
2.722,128.18188,37.961084,6992.5954128,0.064,-0.256,180.003
2.7388,128.18188,37.961039,6992.510373600001,0.065,-0.255,180.003
2.7555,128.18188,37.960993,6992.4256392,0.065,-0.255,180.003
2.7721,128.18188,37.960947,6992.3406,0.066,-0.255,180.003
2.7889,128.18188,37.960902,6992.255560800001,0.067,-0.255,180.003
2.8056,128.18188,37.960856,6992.1702168,0.068,-0.254,180.003
2.8222,128.18188,37.96081,6992.0848728,0.068,-0.254,180.003
2.839,128.18188,37.960764,6991.999528800001,0.069,-0.254,180.003
2.8557,128.18188,37.960719,6991.9141848,0.07,-0.254,180.003
2.8724,128.18188,37.960673,6991.828840800001,0.071,-0.253,180.003
2.8891,128.18188,37.960627,6991.743192000001,0.072,-0.253,180.003
2.9057,128.18188,37.960582,6991.6575432,0.072,-0.253,180.003
2.9225,128.18188,37.960536,6991.5718944,0.073,-0.252,180.003
2.9392,128.18188,37.96049,6991.4862456,0.074,-0.252,180.003
2.9558,128.181879,37.960444,6991.400292,0.075,-0.252,180.003
2.9726,128.181879,37.960399,6991.314643199999,0.076,-0.251,180.003
2.9893,128.181879,37.960353,6991.2286896,0.077,-0.251,180.003
3.0059,128.181879,37.960307,6991.142736000001,0.078,-0.251,180.003
3.0227,128.181879,37.960261,6991.056782400001,0.078,-0.25,180.003
3.0394,128.181879,37.960216,6990.970524,0.079,-0.25,180.003
3.056,128.181879,37.96017,6990.8845704000005,0.08,-0.25,180.003
3.0728,128.181879,37.960124,6990.798312,0.081,-0.249,180.003
3.0895,128.181879,37.960078,6990.7120536,0.082,-0.249,180.003
3.1062,128.181879,37.960033,6990.6257952000005,0.083,-0.249,180.003
3.1229,128.181879,37.959987,6990.539536800001,0.084,-0.248,180.003
3.1395,128.181879,37.959941,6990.4532784,0.085,-0.248,180.003
3.1563,128.181879,37.959895,6990.367020000001,0.086,-0.247,180.003
3.173,128.181879,37.959849,6990.280456800001,0.086,-0.247,180.003
3.1896,128.181879,37.959804,6990.1941984,0.087,-0.247,180.004
3.2064,128.181879,37.959758,6990.1076352,0.088,-0.246,180.004
3.2231,128.181879,37.959712,6990.0210720000005,0.089,-0.246,180.004
3.2397,128.181879,37.959666,6989.9345088,0.09,-0.245,180.004
3.2565,128.181879,37.95962,6989.8479456000005,0.091,-0.245,180.004
3.2732,128.181879,37.959574,6989.761382400001,0.092,-0.244,180.004
3.2899,128.181879,37.959529,6989.6748192000005,0.093,-0.244,180.004
3.3066,128.181879,37.959483,6989.588256000001,0.094,-0.243,180.004
3.3233,128.181879,37.959437,6989.5016928000005,0.095,-0.243,180.004
3.34,128.181879,37.959391,6989.414824800001,0.096,-0.242,180.004
3.3567,128.181879,37.959345,6989.3282616,0.097,-0.242,180.004
3.3734,128.181879,37.959299,6989.2413936,0.098,-0.241,180.004
3.3901,128.181879,37.959253,6989.1548304,0.099,-0.241,180.004
3.4068,128.181879,37.959207,6989.0679624,0.1,-0.241,180.004
3.4235,128.181879,37.959162,6988.9813992,0.101,-0.24,180.004
3.4402,128.181879,37.959116,6988.8945312000005,0.102,-0.24,180.004
3.4569,128.181879,37.95907,6988.8076632,0.103,-0.239,180.004
3.4736,128.181879,37.959024,6988.721100000001,0.104,-0.238,180.004
3.4903,128.181879,37.958978,6988.634232,0.105,-0.238,180.004
3.507,128.181879,37.958932,6988.547364,0.106,-0.237,180.004
3.5237,128.181879,37.958886,6988.460496000001,0.107,-0.237,180.004
3.5404,128.181879,37.95884,6988.3739328,0.108,-0.236,180.004
3.5571,128.181879,37.958794,6988.287064800001,0.109,-0.236,180.004
3.5738,128.181879,37.958748,6988.2001968,0.11,-0.235,180.004
3.5905,128.181879,37.958702,6988.113633600001,0.111,-0.234,180.004
3.6072,128.181879,37.958656,6988.0267656000005,0.112,-0.234,180.004
3.6239,128.181879,37.95861,6987.939897600001,0.113,-0.233,180.004
3.6406,128.181879,37.958564,6987.8530296,0.114,-0.233,180.004
3.6573,128.181879,37.958518,6987.7664664,0.115,-0.232,180.004
3.674,128.181879,37.958472,6987.6795984,0.116,-0.231,180.004
3.6907,128.181879,37.958426,6987.5930352000005,0.117,-0.231,180.004
3.7074,128.181879,37.95838,6987.5061672,0.118,-0.23,180.004
3.7241,128.181879,37.958334,6987.419604000001,0.119,-0.229,180.004
3.7408,128.181879,37.958288,6987.332736,0.12,-0.231,180.004
3.7575,128.181879,37.958242,6987.245868,0.121,-0.234,180.004
3.7742,128.181879,37.958196,6987.1593048,0.122,-0.238,180.004
3.7909,128.181879,37.95815,6987.0724368,0.123,-0.243,180.004
3.8076,128.181879,37.958104,6986.985568800001,0.124,-0.248,180.004
3.8243,128.181879,37.958058,6986.8987008,0.125,-0.252,180.004
3.841,128.181879,37.958012,6986.811832800001,0.126,-0.257,180.004
3.8577,128.181879,37.957966,6986.724964800001,0.127,-0.26,180.004
3.8744,128.181879,37.95792,6986.6380968,0.128,-0.263,180.004
3.8911,128.181879,37.957874,6986.551228800001,0.129,-0.266,180.004
3.9078,128.181879,37.957828,6986.464360800001,0.13,-0.267,180.004
3.9245,128.181878,37.957782,6986.377492800001,0.131,-0.268,180.004
3.9412,128.181878,37.957736,6986.290624800001,0.133,-0.268,180.004
3.9579,128.181878,37.95769,6986.203452000001,0.134,-0.268,180.004
3.9746,128.181878,37.957644,6986.116584000001,0.135,-0.267,180.004
3.9913,128.181878,37.957597,6986.029411200001,0.136,-0.266,180.004
4.008,128.181878,37.957551,6985.9425432,0.137,-0.265,180.004
4.0247,128.181878,37.957505,6985.8553704000005,0.138,-0.264,180.004
4.0414,128.181878,37.957459,6985.768197600001,0.139,-0.262,180.004
4.058,128.181878,37.957413,6985.6813296,0.14,-0.261,180.004
4.0748,128.181878,37.957367,6985.594156800001,0.141,-0.259,180.004
4.0915,128.181878,37.957321,6985.506984000001,0.142,-0.258,180.004
4.1082,128.181878,37.957275,6985.420116,0.143,-0.257,180.004
4.1249,128.181878,37.957228,6985.3329432,0.144,-0.256,180.004
4.1415,128.181878,37.957182,6985.245770400001,0.146,-0.255,180.004
4.1583,128.181878,37.957136,6985.1589023999995,0.147,-0.254,180.004
4.175,128.181878,37.95709,6985.0717296,0.148,-0.253,180.004
4.1917,128.181878,37.957044,6984.984556800001,0.149,-0.252,180.004
4.2084,128.181878,37.956998,6984.8976888,0.15,-0.251,180.004
4.2251,128.181878,37.956951,6984.810516,0.151,-0.251,180.004
4.2417,128.181878,37.956905,6984.723648,0.152,-0.25,180.004
4.2585,128.181878,37.956859,6984.6364752,0.154,-0.249,180.004
4.2752,128.181878,37.956813,6984.5496072,0.155,-0.249,180.004
4.2919,128.181878,37.956766,6984.462434399999,0.156,-0.248,180.004
4.3086,128.181878,37.95672,6984.3755664,0.157,-0.247,180.004
4.3252,128.181878,37.956674,6984.2886984,0.159,-0.247,180.004
4.342,128.181878,37.956628,6984.2015255999995,0.16,-0.246,180.004
4.3587,128.181878,37.956582,6984.1146576,0.161,-0.245,180.004
4.3754,128.181878,37.956535,6984.0277896,0.162,-0.244,180.004
4.3921,128.181878,37.956489,6983.9409216,0.163,-0.243,180.004
4.4088,128.181878,37.956443,6983.8543584,0.165,-0.243,180.004
4.4254,128.181878,37.956396,6983.7674904000005,0.166,-0.242,180.005
4.4422,128.181878,37.95635,6983.6806224,0.167,-0.241,180.005
4.4589,128.181878,37.956304,6983.594059200001,0.169,-0.24,180.005
4.4756,128.181878,37.956258,6983.5071912,0.17,-0.239,180.005
4.4923,128.181878,37.956211,6983.420628000001,0.171,-0.238,180.005
4.5089,128.181878,37.956165,6983.3340648,0.173,-0.237,180.005
4.5256,128.181878,37.956119,6983.247196800001,0.174,-0.236,180.005
4.5424,128.181878,37.956072,6983.160938400001,0.175,-0.235,180.005
4.5591,128.181878,37.956026,6983.0743752,0.176,-0.235,180.005
4.5758,128.181878,37.95598,6982.987812,0.178,-0.234,180.005
4.5925,128.181878,37.955933,6982.9012488,0.179,-0.233,180.005
4.6091,128.181878,37.955887,6982.8149904,0.18,-0.232,180.005
4.6259,128.181878,37.955841,6982.7287320000005,0.181,-0.231,180.005
4.6426,128.181877,37.955794,6982.642473600001,0.183,-0.23,180.005
4.6593,128.181877,37.955748,6982.556215200001,0.184,-0.229,180.005
4.676,128.181877,37.955702,6982.469956800001,0.185,-0.228,180.005
4.6927,128.181877,37.955655,6982.3840032,0.184,-0.227,180.004
4.7093,128.181877,37.955609,6982.2983544,0.181,-0.227,180.003
4.7261,128.181877,37.955562,6982.212705600001,0.175,-0.227,180.001
4.7428,128.181877,37.955516,6982.127056800001,0.166,-0.228,179.999
4.7595,128.181877,37.95547,6982.041408,0.156,-0.228,179.998
4.7762,128.181877,37.955423,6981.956064000001,0.145,-0.228,179.996
4.7928,128.181877,37.955377,6981.870720000001,0.132,-0.228,179.994
4.8096,128.181877,37.95533,6981.785376,0.118,-0.228,179.993
4.8263,128.181877,37.955284,6981.7003368000005,0.105,-0.227,179.992
4.843,128.181877,37.955237,6981.6149928,0.091,-0.226,179.991
4.8597,128.181877,37.955191,6981.5299536,0.078,-0.225,179.99
4.8764,128.181877,37.955145,6981.444914400001,0.066,-0.224,179.989
4.893,128.181877,37.955098,6981.3598752,0.054,-0.223,179.988
4.9098,128.181877,37.955052,6981.2748360000005,0.042,-0.221,179.988
4.9265,128.181877,37.955005,6981.190101600001,0.032,-0.219,179.987
4.9432,128.181877,37.954959,6981.1050624,0.022,-0.218,179.987
4.9599,128.181877,37.954912,6981.0203280000005,0.013,-0.216,179.986
4.9765,128.181877,37.954866,6980.9355936,0.004,-0.214,179.986
4.9932,128.181877,37.954819,6980.850859200001,-0.003,-0.212,179.985
5.01,128.181877,37.954773,6980.7664296,-0.01,-0.211,179.985
5.0267,128.181877,37.954726,6980.6816952,-0.017,-0.209,179.984
5.0434,128.181877,37.95468,6980.597265600001,-0.023,-0.208,179.984
5.0601,128.181877,37.954633,6980.512836,-0.029,-0.206,179.983
5.0767,128.181877,37.954587,6980.428711200001,-0.035,-0.205,179.983
5.0935,128.181877,37.95454,6980.344281600001,-0.04,-0.203,179.983
5.1102,128.181877,37.954493,6980.260156800001,-0.045,-0.202,179.982
5.1269,128.181877,37.954447,6980.176032,-0.049,-0.2,179.982
5.1436,128.181877,37.9544,6980.092212,-0.054,-0.199,179.982
5.1602,128.181877,37.954354,6980.008087200001,-0.058,-0.197,179.981
5.1769,128.181877,37.954307,6979.924572,-0.061,-0.196,179.981
5.1937,128.181877,37.954261,6979.840752000001,-0.065,-0.194,179.981
5.2104,128.181877,37.954214,6979.756932,-0.068,-0.193,179.98
5.2271,128.181877,37.954167,6979.6734168,-0.071,-0.192,179.98
5.2438,128.181877,37.954121,6979.590206400001,-0.074,-0.19,179.98
5.2604,128.181877,37.954074,6979.5066912,-0.077,-0.189,179.979
5.2772,128.181876,37.954028,6979.4234808,-0.08,-0.187,179.979
5.2939,128.181876,37.953981,6979.340270400001,-0.082,-0.186,179.979
5.3106,128.181876,37.953934,6979.257364800001,-0.085,-0.184,179.978
5.3273,128.181876,37.953888,6979.1744592000005,-0.087,-0.183,179.978
5.3439,128.181876,37.953841,6979.0915536,-0.089,-0.181,179.978
5.3606,128.181876,37.953794,6979.0089528,-0.091,-0.179,179.978
5.3774,128.181876,37.953748,6978.926352,-0.093,-0.178,179.977
5.3941,128.181876,37.953701,6978.843751200001,-0.095,-0.176,179.977
5.4108,128.181876,37.953654,6978.761150400001,-0.096,-0.174,179.977
5.4275,128.181876,37.953608,6978.6791592,-0.098,-0.173,179.977
5.4441,128.181876,37.953561,6978.5968632,-0.1,-0.171,179.976
5.4609,128.181876,37.953514,6978.514872,-0.101,-0.17,179.976
5.4776,128.181876,37.953468,6978.4328808,-0.103,-0.168,179.976
5.4943,128.181876,37.953421,6978.3508896,-0.104,-0.166,179.976
5.511,128.181876,37.953374,6978.2692032,-0.105,-0.164,179.975
5.5277,128.181876,37.953327,6978.1878216000005,-0.107,-0.163,179.975
5.5443,128.181876,37.953281,6978.1061352,-0.108,-0.161,179.975
5.5611,128.181876,37.953234,6978.0250584000005,-0.109,-0.159,179.975
5.5778,128.181876,37.953187,6977.9436768000005,-0.11,-0.158,179.975
5.5945,128.181876,37.95314,6977.8626,-0.112,-0.156,179.974
5.6112,128.181876,37.953094,6977.781828,-0.113,-0.154,179.974
5.6278,128.181876,37.953047,6977.700751200001,-0.114,-0.152,179.974
5.6445,128.181876,37.953,6977.6202840000005,-0.115,-0.15,179.974
5.6613,128.181876,37.952953,6977.539512,-0.116,-0.149,179.973
5.678,128.181876,37.952907,6977.459349600001,-0.118,-0.147,179.973
5.6947,128.181876,37.95286,6977.3788824,-0.119,-0.145,179.973
5.7114,128.181876,37.952813,6977.298720000001,-0.12,-0.143,179.973
5.728,128.181876,37.952766,6977.2188624,-0.121,-0.141,179.972
5.7448,128.181876,37.952719,6977.1390048,-0.122,-0.139,179.972
5.7615,128.181876,37.952672,6977.059147200001,-0.124,-0.139,179.972
5.7782,128.181876,37.952626,6976.9795944,-0.127,-0.142,179.971
5.7949,128.181876,37.952579,6976.900041600001,-0.13,-0.146,179.971
5.8115,128.181876,37.952532,6976.8207936,-0.134,-0.152,179.97
5.8282,128.181876,37.952485,6976.741545600001,-0.139,-0.157,179.969
5.845,128.181876,37.952438,6976.662297600001,-0.144,-0.162,179.969
5.8617,128.181876,37.952391,6976.583354400001,-0.149,-0.167,179.968
5.8784,128.181876,37.952344,6976.5044112000005,-0.155,-0.17,179.968
5.8951,128.181876,37.952297,6976.425468,-0.16,-0.173,179.967
5.9117,128.181876,37.95225,6976.346524800001,-0.166,-0.175,179.967
5.9285,128.181876,37.952203,6976.2678864,-0.171,-0.176,179.966
5.9452,128.181876,37.952157,6976.189248,-0.177,-0.176,179.966
5.9619,128.181876,37.95211,6976.1109144,-0.182,-0.175,179.965
5.9786,128.181875,37.952063,6976.0325808,-0.187,-0.173,179.965
5.9952,128.181875,37.952016,6975.954247200001,-0.192,-0.171,179.965
6.0119,128.181875,37.951969,6975.875913600001,-0.197,-0.169,179.964
6.0287,128.181875,37.951922,6975.7978848,-0.201,-0.167,179.964
6.0454,128.181875,37.951874,6975.719856000001,-0.206,-0.164,179.963
6.0621,128.181875,37.951827,6975.6418272,-0.21,-0.161,179.963
6.0788,128.181875,37.95178,6975.5641032,-0.214,-0.158,179.963
6.0954,128.181875,37.951733,6975.486379200001,-0.219,-0.155,179.962
6.1121,128.181875,37.951686,6975.408655200001,-0.223,-0.152,179.962
6.1289,128.181875,37.951639,6975.331236,-0.227,-0.149,179.961
6.1456,128.181875,37.951592,6975.2541216,-0.231,-0.146,179.961
6.1623,128.181875,37.951545,6975.1767024,-0.235,-0.144,179.96
6.179,128.181875,37.951498,6975.099588000001,-0.239,-0.141,179.96
6.1956,128.181875,37.951451,6975.022778400001,-0.243,-0.138,179.96
6.2124,128.181875,37.951403,6974.945968800001,-0.247,-0.136,179.959
6.2291,128.181875,37.951356,6974.8691592000005,-0.252,-0.133,179.959
6.2458,128.181875,37.951309,6974.7926544,-0.256,-0.131,179.958
6.2625,128.181875,37.951262,6974.716454400001,-0.26,-0.128,179.958
6.2791,128.181875,37.951215,6974.6402544,-0.264,-0.126,179.958
6.2958,128.181875,37.951168,6974.564054400001,-0.268,-0.123,179.957
6.3126,128.181875,37.95112,6974.4881592,-0.273,-0.12,179.957
6.3293,128.181875,37.951073,6974.4125688,-0.277,-0.118,179.956
6.346,128.181875,37.951026,6974.336978400001,-0.282,-0.115,179.956
6.3627,128.181875,37.950979,6974.261388000001,-0.286,-0.113,179.955
6.3793,128.181875,37.950931,6974.1861024,-0.291,-0.11,179.955
6.3961,128.181875,37.950884,6974.1111216,-0.296,-0.107,179.954
6.4128,128.181875,37.950837,6974.0361408,-0.301,-0.104,179.954
6.4295,128.181875,37.950789,6973.961464800001,-0.306,-0.101,179.953
6.4462,128.181875,37.950742,6973.8867887999995,-0.311,-0.098,179.953
6.4628,128.181875,37.950695,6973.8124176,-0.316,-0.095,179.952
6.4795,128.181875,37.950647,6973.738351200001,-0.321,-0.092,179.952
6.4963,128.181875,37.9506,6973.6642848,-0.327,-0.089,179.951
6.513,128.181875,37.950553,6973.5905232000005,-0.332,-0.086,179.951
6.5297,128.181875,37.950505,6973.5167616,-0.338,-0.083,179.95
6.5464,128.181875,37.950458,6973.4433048,-0.343,-0.08,179.949
6.5631,128.181875,37.95041,6973.3701528,-0.349,-0.077,179.949
6.5798,128.181875,37.950363,6973.2970008,-0.355,-0.073,179.948
6.5965,128.181875,37.950316,6973.2241536,-0.361,-0.07,179.948
6.6132,128.181875,37.950268,6973.151611200001,-0.367,-0.067,179.947
6.6299,128.181875,37.950221,6973.0793736000005,-0.374,-0.063,179.947
6.6466,128.181875,37.950173,6973.007136,-0.38,-0.06,179.946
6.6633,128.181875,37.950126,6972.9352032,-0.387,-0.056,179.945
6.68,128.181875,37.950078,6972.863270400001,-0.394,-0.052,179.945
6.6967,128.181875,37.950031,6972.791947200001,-0.401,-0.049,179.944
6.7134,128.181875,37.949983,6972.7206240000005,-0.408,-0.045,179.943
6.7301,128.181875,37.949936,6972.6496056000005,-0.416,-0.041,179.943
6.7468,128.181875,37.949888,6972.578892,-0.424,-0.037,179.942
6.7635,128.181875,37.949841,6972.5081784,-0.431,-0.033,179.941
6.7802,128.181875,37.949793,6972.438074400001,-0.44,-0.029,179.94
6.7969,128.181875,37.949746,6972.367970400001,-0.448,-0.025,179.94
6.8136,128.181875,37.949698,6972.2981712,-0.457,-0.021,179.939
6.8303,128.181875,37.94965,6972.2286768,-0.466,-0.017,179.938
6.847,128.181875,37.949603,6972.1594872000005,-0.475,-0.013,179.937
6.8637,128.181875,37.949555,6972.090297600001,-0.484,-0.008,179.937
6.8804,128.181875,37.949508,6972.021717600001,-0.494,-0.004,179.936
6.8971,128.181875,37.94946,6971.9531376,-0.504,0.0,179.935
6.9138,128.181875,37.949412,6971.8851672,-0.514,0.004,179.934
6.9305,128.181875,37.949365,6971.817196800001,-0.525,0.009,179.933
6.9472,128.181875,37.949317,6971.7495312,-0.536,0.014,179.932
6.9639,128.181875,37.949269,6971.6824752,-0.547,0.019,179.931
6.9806,128.181875,37.949222,6971.6154192,-0.559,0.024,179.93
6.9973,128.181875,37.949174,6971.548668,-0.571,0.029,179.929
7.014,128.181875,37.949126,6971.4825264,-0.584,0.034,179.928
7.0307,128.181875,37.949079,6971.4163848,-0.597,0.04,179.927
7.0474,128.181875,37.949031,6971.350547999999,-0.61,0.045,179.926
7.0641,128.181875,37.948983,6971.2853208,-0.624,0.051,179.925
7.0808,128.181875,37.948935,6971.2200936,-0.638,0.056,179.924
7.0975,128.181875,37.948887,6971.155476,-0.653,0.062,179.923
7.1142,128.181875,37.94884,6971.091163200001,-0.668,0.068,179.921
7.1309,128.181875,37.948792,6971.0271552,-0.684,0.074,179.92
7.1476,128.181875,37.948744,6970.963452000001,-0.701,0.081,179.919
7.1643,128.181875,37.948696,6970.9003584,-0.718,0.087,179.918
7.181,128.181875,37.948648,6970.8375696,-0.736,0.093,179.916
7.1977,128.181875,37.948601,6970.7750856,-0.755,0.1,179.915
7.2144,128.181875,37.948553,6970.712906400001,-0.774,0.107,179.913
7.2311,128.181875,37.948505,6970.6513368000005,-0.795,0.114,179.912
7.2478,128.181875,37.948457,6970.590072,-0.816,0.121,179.91
7.2645,128.181875,37.948409,6970.529112,-0.838,0.129,179.909
7.2812,128.181875,37.948361,6970.4687616,-0.86,0.136,179.907
7.2979,128.181875,37.948313,6970.408716,-0.884,0.144,179.905
7.3146,128.181875,37.948265,6970.3489752,-0.909,0.152,179.904
7.3313,128.181875,37.948217,6970.2901488,-0.935,0.16,179.902
7.348,128.181875,37.94817,6970.2313224,-0.962,0.169,179.9
7.3647,128.181875,37.948122,6970.173105600001,-0.99,0.178,179.898
7.3814,128.181875,37.948074,6970.1154983999995,-1.02,0.187,179.896
7.3981,128.181875,37.948026,6970.058500800001,-1.051,0.196,179.894
7.4148,128.181875,37.947978,6970.001808,-1.084,0.206,179.891
7.4315,128.181875,37.94793,6969.945724800001,-1.118,0.216,179.889
7.4482,128.181875,37.947882,6969.8902512,-1.154,0.226,179.887
7.4649,128.181875,37.947834,6969.835387200001,-1.192,0.237,179.884
7.4816,128.181875,37.947786,6969.780828000001,-1.232,0.248,179.882
7.4983,128.181875,37.947738,6969.727183200001,-1.273,0.26,179.879
7.515,128.181875,37.94769,6969.6738432,-1.317,0.272,179.876
7.5317,128.181875,37.947641,6969.6214176,-1.364,0.285,179.873
7.5484,128.181875,37.947593,6969.569601600001,-1.413,0.298,179.87
7.5651,128.181875,37.947545,6969.518395200001,-1.464,0.312,179.866
7.5818,128.181875,37.947497,6969.4677984,-1.519,0.326,179.863
7.5985,128.181875,37.947449,6969.418116,-1.577,0.341,179.859
7.6152,128.181875,37.947401,6969.369043199999,-1.639,0.357,179.855
7.6319,128.181875,37.947353,6969.3208848,-1.704,0.374,179.851
7.6486,128.181875,37.947305,6969.2736408,-1.773,0.392,179.847
7.6653,128.181875,37.947257,6969.2270064,-1.846,0.41,179.842
7.682,128.181875,37.947208,6969.1812864,-1.925,0.43,179.837
7.6987,128.181875,37.94716,6969.1367856,-2.008,0.451,179.832
7.7154,128.181875,37.947112,6969.0931992000005,-2.097,0.474,179.826
7.7321,128.181875,37.947064,6969.0505272,-2.193,0.498,179.82
7.7488,128.181875,37.947016,6969.008769600001,-2.295,0.523,179.813
7.7655,128.181875,37.946967,6968.968536,-2.404,0.551,179.806
7.7822,128.181875,37.946919,6968.9292168,-2.522,0.581,179.799
7.7989,128.181875,37.946871,6968.8914216,-2.648,0.613,179.79
7.8156,128.181875,37.946823,6968.854845600001,-2.783,0.648,179.782
7.8323,128.181875,37.946775,6968.8197936,-2.927,0.686,179.772
7.849,128.181876,37.946726,6968.785960800001,-3.079,0.727,179.762
7.8657,128.181876,37.946678,6968.753652000001,-3.24,0.772,179.751
7.8824,128.181876,37.94663,6968.723172,-3.41,0.821,179.74
7.8991,128.181876,37.946581,6968.693606400001,-3.498,0.89,179.741
7.9158,128.181876,37.946533,6968.6655648000005,-3.5,0.995,179.752
7.9325,128.181876,37.946485,6968.6387424,-3.421,1.149,179.769
7.9492,128.181876,37.946437,6968.6140536,-3.258,1.364,179.785
7.9659,128.181876,37.946388,6968.5911936,-3.01,1.646,179.799
7.9826,128.181876,37.94634,6968.5710768,-2.673,2.005,179.81
7.9993,128.181876,37.946292,6968.5527888,-2.245,2.424,179.821
8.016,128.181876,37.946243,6968.5369392,-1.722,2.889,179.833
8.0327,128.181876,37.946195,6968.5241376,-1.105,3.381,179.849
8.0494,128.181877,37.946147,6968.5137744,-0.397,3.881,179.869
8.0661,128.181877,37.946098,6968.5073736,0.396,4.368,179.894
8.0828,128.181877,37.94605,6968.5058496,1.258,4.822,179.923
8.0994,128.181877,37.946001,6968.5101168,2.164,5.239,179.955
8.1161,128.181877,37.945953,6968.52048,3.092,5.621,179.99
8.1329,128.181877,37.945904,6968.5378536,3.899,5.973,180.006
8.1496,128.181877,37.945856,6968.562847200001,4.588,6.3,180.006
8.1663,128.181877,37.945808,6968.59668,5.155,6.604,179.998
8.183,128.181877,37.945759,6968.639352000001,5.595,6.888,179.986
8.1997,128.181877,37.945711,6968.6914728,5.91,7.154,179.976
8.2164,128.181877,37.945662,6968.753956800001,6.104,7.405,179.967
8.2331,128.181877,37.945614,6968.8271088,6.183,7.642,179.961
8.2498,128.181877,37.945566,6968.911233600001,6.151,7.867,179.956
8.2665,128.181877,37.945517,6969.0069408,6.014,8.083,179.952
8.2831,128.181877,37.945469,6969.11484,5.778,8.289,179.949
8.2998,128.181877,37.945421,6969.235236,5.448,8.488,179.945
8.3166,128.181877,37.945372,6969.368433600001,5.027,8.679,179.94
8.3333,128.181877,37.945324,6969.5150424,4.52,8.865,179.933
8.35,128.181877,37.945276,6969.6753672,3.929,9.046,179.925
8.3667,128.181877,37.945228,6969.8497128,3.26,9.222,179.915
8.3834,128.181877,37.945179,6970.037469600001,2.513,9.394,179.903
8.4001,128.181877,37.945131,6970.239247200001,1.693,9.562,179.888
8.4168,128.181876,37.945083,6970.454740800001,0.802,9.727,179.87
8.4335,128.181876,37.945035,6970.683950400001,-0.158,9.889,179.848
8.4502,128.181876,37.944987,6970.9271808,-1.185,10.048,179.823
8.4668,128.181876,37.944939,6971.1838224,-2.276,10.204,179.794
8.4835,128.181876,37.94489,6971.45418,-3.431,10.342,179.762
8.5003,128.181876,37.944842,6971.737644,-4.646,10.447,179.728
8.517,128.181876,37.944794,6972.033604800001,-5.92,10.504,179.694
8.5337,128.181876,37.944746,6972.3414528,-7.071,10.531,179.682
8.5504,128.181876,37.944698,6972.661188000001,-8.104,10.546,179.69
8.5671,128.181876,37.94465,6972.9922008,-9.012,10.565,179.709
8.5838,128.181876,37.944602,6973.3341864,-9.794,10.599,179.729
8.6005,128.181876,37.944554,6973.6871448,-10.45,10.662,179.745
8.6172,128.181876,37.944506,6974.0504664,-10.981,10.76,179.752
8.6339,128.181876,37.944458,6974.423846400001,-11.394,10.887,179.751
8.6505,128.181876,37.94441,6974.806370400001,-11.691,11.035,179.743
8.6672,128.181876,37.944363,6975.198648,-11.878,11.198,179.729
8.684,128.181876,37.944315,6975.5997648,-11.96,11.371,179.712
8.7007,128.181877,37.944267,6976.0097208,-11.94,11.549,179.691
8.7174,128.181877,37.944219,6976.427906400001,-11.823,11.729,179.669
8.7341,128.181877,37.944171,6976.8546264,-11.614,11.91,179.646
8.7508,128.181877,37.944123,6977.289576,-11.315,12.088,179.623
8.7675,128.181877,37.944075,6977.7318408,-10.931,12.263,179.601
8.7842,128.181878,37.944028,6978.1820304,-10.465,12.434,179.581
8.8009,128.181878,37.94398,6978.6395352,-9.92,12.599,179.563
8.8176,128.181878,37.943932,6979.1043552,-9.3,12.759,179.547
8.8342,128.181879,37.943884,6979.576795200001,-8.607,12.914,179.535
8.8509,128.181879,37.943837,6980.05716,-7.843,13.062,179.525
8.8676,128.181879,37.943789,6980.5451448,-7.013,13.204,179.52
8.8844,128.18188,37.943741,6981.041054400001,-6.116,13.341,179.518
8.9011,128.18188,37.943693,6981.5448888,-5.156,13.472,179.52
8.9178,128.181881,37.943646,6982.056648,-4.135,13.598,179.526
8.9345,128.181881,37.943598,6982.576332000001,-3.053,13.719,179.536
8.9512,128.181881,37.94355,6983.1045504,-1.914,13.836,179.551
8.9679,128.181882,37.943503,6983.6406936,-0.718,13.948,179.57
8.9846,128.181882,37.943455,6984.1850664,0.533,14.056,179.593
9.0013,128.181883,37.943407,6984.7376688,1.839,14.161,179.621
9.0179,128.181883,37.94336,6985.298196000001,3.198,14.263,179.653
9.0346,128.181883,37.943312,6985.868172,4.434,14.363,179.668
9.0513,128.181884,37.943264,6986.446987200001,5.554,14.463,179.666
9.0681,128.181884,37.943217,6987.035556000001,6.55,14.562,179.655
9.0848,128.181884,37.943169,6987.633573600001,7.422,14.661,179.64
9.1015,128.181885,37.943122,6988.2416496000005,8.169,14.76,179.627
9.1182,128.181885,37.943074,6988.8600888,8.794,14.86,179.616
9.1349,128.181885,37.943027,6989.489196,9.301,14.96,179.608
9.1516,128.181886,37.942979,6990.129276,9.696,15.061,179.605
9.1683,128.181886,37.942932,6990.780024000001,9.981,15.164,179.604
9.185,128.181886,37.942885,6991.4426592,10.164,15.268,179.607
9.2016,128.181886,37.942837,6992.116572,10.247,15.374,179.612
9.2183,128.181887,37.94279,6992.8026768,10.236,15.482,179.619
9.235,128.181887,37.942743,6993.5009736,10.133,15.591,179.628
9.2518,128.181887,37.942695,6994.2117672,9.943,15.702,179.638
9.2685,128.181887,37.942648,6994.9353624000005,9.67,15.816,179.648
9.2852,128.181887,37.942601,6995.6717592,9.315,15.931,179.659
9.3019,128.181887,37.942554,6996.421872,8.883,16.047,179.669
9.3186,128.181887,37.942507,6997.185396000001,8.376,16.166,179.679
9.3353,128.181887,37.94246,6997.9620264000005,7.796,16.286,179.687
9.352,128.181887,37.942412,6998.752068000001,7.147,16.407,179.695
9.3687,128.181887,37.942365,6999.555216,6.429,16.53,179.7
9.3854,128.181887,37.942318,7000.3717752,5.646,16.654,179.703
9.402,128.181887,37.942272,7001.2014408000005,4.799,16.779,179.704
9.4187,128.181887,37.942225,7002.0442128,3.89,16.904,179.703
9.4355,128.181887,37.942178,7002.9000912,2.92,17.031,179.698
9.4522,128.181887,37.942131,7003.7693808,1.892,17.158,179.689
9.4689,128.181886,37.942084,7004.6514720000005,0.807,17.286,179.677
9.4856,128.181886,37.942037,7005.5466696,-0.334,17.414,179.661
9.5023,128.181886,37.941991,7006.455278400001,-1.531,17.542,179.641
9.519,128.181886,37.941944,7007.375164800001,-2.606,17.658,179.638
9.5357,128.181886,37.941898,7008.307548,-3.563,17.775,179.653
9.5524,128.181886,37.941851,7009.2515136,-4.398,17.896,179.677
9.5691,128.181886,37.941804,7010.206452000001,-5.109,18.021,179.703
9.5857,128.181886,37.941758,7011.1723632,-5.696,18.149,179.729
9.6024,128.181886,37.941711,7012.148942400001,-6.163,18.279,179.752
9.6192,128.181886,37.941665,7013.13558,-6.513,18.411,179.771
9.6359,128.181886,37.941619,7014.132276,-6.751,18.544,179.787
9.6526,128.181886,37.941572,7015.1384208,-6.882,18.678,179.8
9.6693,128.181886,37.941526,7016.154014400001,-6.91,18.811,179.811
9.686,128.181886,37.941479,7017.178142400001,-6.84,18.945,179.82
9.7027,128.181886,37.941433,7018.211414400001,-6.676,19.078,179.827
9.7194,128.181886,37.941387,7019.2526112000005,-6.422,19.209,179.834
9.7361,128.181886,37.941341,7020.3023424,-6.082,19.34,179.841
9.7528,128.181886,37.941294,7021.3593888,-5.658,19.468,179.849
9.7694,128.181886,37.941248,7022.424360000001,-5.155,19.595,179.857
9.7861,128.181886,37.941202,7023.496646400001,-4.575,19.719,179.866
9.8029,128.181887,37.941156,7024.575638400001,-3.921,19.84,179.877
9.8196,128.181887,37.94111,7025.6625552000005,-3.195,19.959,179.89
9.8363,128.181887,37.941064,7026.7564824,-2.4,20.075,179.905
9.853,128.181887,37.941017,7027.8580296,-1.538,20.187,179.923
9.8697,128.181887,37.940971,7028.9671968,-0.611,20.297,179.944
9.8864,128.181887,37.940925,7030.083679200001,0.378,20.404,179.968
9.9031,128.181887,37.940879,7031.2074768,1.43,20.508,179.996
9.9198,128.181887,37.940833,7032.3391992,2.541,20.61,180.026
9.9365,128.181888,37.940787,7033.4776272,3.71,20.695,180.06
9.9531,128.181888,37.940741,7034.623370400001,4.936,20.75,180.096
9.9698,128.181888,37.940695,7035.7755144,6.215,20.761,180.13
9.9865,128.181888,37.94065,7036.934059200001,7.545,20.713,180.161
10.0033,128.181888,37.940604,7038.0993096,8.756,20.626,180.167
10.02,128.181888,37.940558,7039.2718752,9.852,20.518,180.15
10.0367,128.181888,37.940512,7040.451146400001,10.831,20.405,180.121
10.0534,128.181888,37.940466,7041.637732800001,11.692,20.299,180.086
10.0701,128.181888,37.94042,7042.8319392,12.437,20.216,180.054
10.0868,128.181888,37.940375,7044.033765600001,13.07,20.166,180.029
10.1035,128.181888,37.940329,7045.2435168,13.594,20.162,180.015
10.1202,128.181888,37.940283,7046.461497600001,14.016,20.21,180.016
10.1368,128.181888,37.940237,7047.6880128,14.338,20.301,180.029
10.1535,128.181888,37.940192,7048.9233672,14.563,20.423,180.052
10.1702,128.181887,37.940146,7050.1675608000005,14.695,20.569,180.082
10.187,128.181887,37.940101,7051.421508,14.735,20.732,180.119
10.2037,128.181887,37.940055,7052.684904000001,14.688,20.906,180.16
10.2204,128.181887,37.94001,7053.9586632,14.557,21.088,180.203
10.2371,128.181886,37.939964,7055.2424808000005,14.344,21.273,180.248
10.2538,128.181886,37.939919,7056.537576,14.052,21.46,180.294
10.2705,128.181886,37.939874,7057.8433392,13.685,21.647,180.339
10.2872,128.181885,37.939828,7059.1609896,13.245,21.832,180.382
10.3039,128.181885,37.939783,7060.4896128,12.734,22.015,180.424
10.3205,128.181884,37.939738,7061.829513600001,12.156,22.195,180.463
10.3372,128.181884,37.939693,7063.180692000001,11.511,22.371,180.5
10.3539,128.181883,37.939648,7064.5434528,10.803,22.544,180.533
10.3707,128.181883,37.939603,7065.917491200001,10.033,22.713,180.562
10.3874,128.181882,37.939558,7067.303112,9.204,22.879,180.587
10.4041,128.181882,37.939513,7068.700315200001,8.316,23.04,180.608
10.4208,128.181881,37.939468,7070.1094056,7.372,23.199,180.625
10.4375,128.18188,37.939423,7071.5297736,6.373,23.354,180.637
10.4542,128.18188,37.939378,7072.962028800001,5.319,23.506,180.644
10.4709,128.181879,37.939333,7074.4055616,4.213,23.656,180.647
10.4876,128.181878,37.939289,7075.861286400001,3.055,23.804,180.644
10.5042,128.181877,37.939244,7077.327374400001,2.018,23.935,180.657
10.5209,128.181877,37.939199,7078.8038256,1.098,24.036,180.685
10.5376,128.181876,37.939155,7080.2900304,0.298,24.093,180.722
10.5544,128.181875,37.93911,7081.7853792000005,-0.38,24.093,180.762
10.5711,128.181875,37.939066,7083.2886528,-0.938,24.023,180.803
10.5878,128.181874,37.939021,7084.799241600001,-1.378,23.871,180.845
10.6045,128.181873,37.938977,7086.3168408,-1.704,23.654,180.886
10.6212,128.181873,37.938932,7087.840536000001,-1.919,23.391,180.928
10.6379,128.181872,37.938888,7089.3700224,-2.028,23.099,180.969
10.6546,128.181871,37.938844,7090.9043856,-2.034,22.797,181.009
10.6713,128.18187,37.938799,7092.443016,-1.943,22.501,181.049
10.6879,128.18187,37.938755,7093.985608800001,-1.755,22.228,181.086
10.7046,128.181869,37.938711,7095.5315544000005,-1.476,21.991,181.121
10.7213,128.181868,37.938666,7097.080548,-1.107,21.804,181.154
10.7381,128.181868,37.938622,7098.6322848,-0.652,21.677,181.185
10.7548,128.181867,37.938578,7100.186764800001,-0.113,21.623,181.215
10.7715,128.181866,37.938534,7101.7433784,0.506,21.643,181.243
10.7882,128.181866,37.938489,7103.3021256,1.206,21.735,181.273
10.8049,128.181865,37.938445,7104.8645304,1.982,21.899,181.304
10.8216,128.181864,37.938401,7106.429373600001,2.833,22.122,181.339
10.8383,128.181864,37.938357,7107.997874400001,3.756,22.391,181.379
10.855,128.181863,37.938313,7109.5700328,4.749,22.693,181.425
10.8717,128.181862,37.938268,7111.1458488,5.808,23.016,181.478
10.8883,128.181861,37.938224,7112.725932,6.932,23.342,181.537
10.905,128.181861,37.93818,7114.310282400001,8.116,23.657,181.601
10.9218,128.18186,37.938136,7115.8992048,9.357,23.943,181.667
10.9385,128.181859,37.938092,7117.4920896,10.651,24.183,181.733
10.9552,128.181858,37.938048,7119.088936800001,11.995,24.364,181.795
10.9719,128.181858,37.938004,7120.6897464,13.383,24.469,181.845
10.9886,128.181857,37.93796,7122.2957376,14.638,24.519,181.865
11.0053,128.181856,37.937916,7123.905996,15.767,24.528,181.858
11.022,128.181855,37.937872,7125.521436,16.769,24.511,181.832
11.0387,128.181854,37.937828,7127.1420576,17.646,24.481,181.797
11.0554,128.181853,37.937784,7128.7681656,18.401,24.452,181.762
11.072,128.181852,37.93774,7130.400064800001,19.041,24.437,181.733
11.0887,128.181851,37.937696,7132.038060000001,19.57,24.447,181.715
11.1054,128.18185,37.937652,7133.6824560000005,19.996,24.493,181.713
11.1222,128.181849,37.937608,7135.3335576,20.324,24.585,181.731
11.1389,128.181848,37.937565,7136.991364800001,20.559,24.72,181.768
11.1556,128.181847,37.937521,7138.656792000001,20.703,24.889,181.821
11.1723,128.181846,37.937477,7140.3298392,20.758,25.082,181.886
11.189,128.181845,37.937434,7142.011116,20.728,25.293,181.959
11.2057,128.181844,37.93739,7143.700622400001,20.614,25.516,182.038
11.2224,128.181842,37.937346,7145.3992728,20.419,25.745,182.12
11.2391,128.181841,37.937303,7147.1067624,20.145,25.976,182.204
11.2557,128.18184,37.937259,7148.8243104,19.796,26.206,182.287
11.2724,128.181838,37.937216,7150.5513072,19.373,26.434,182.367
11.2891,128.181837,37.937173,7152.2880576,18.88,26.656,182.445
11.3059,128.181835,37.937129,7154.0348664,18.318,26.874,182.519
11.3226,128.181834,37.937086,7155.791733600001,17.69,27.086,182.588
11.3393,128.181832,37.937043,7157.5586592,16.998,27.293,182.653
11.356,128.18183,37.937,7159.3356432,16.244,27.495,182.712
11.3727,128.181829,37.936957,7161.1232952,15.43,27.692,182.766
11.3894,128.181827,37.936914,7162.9210056,14.558,27.884,182.814
11.4061,128.181825,37.936871,7164.729384000001,13.629,28.072,182.857
11.4228,128.181823,37.936828,7166.5481256,12.645,28.256,182.894
11.4394,128.181821,37.936785,7168.3775352,11.607,28.437,182.925
11.4561,128.181819,37.936742,7170.2179176,10.516,28.615,182.949
11.4728,128.181818,37.9367,7172.068663200001,9.373,28.789,182.968
11.4896,128.181816,37.936657,7173.9294672000005,8.346,28.944,183.0
11.5063,128.181814,37.936614,7175.800024800001,7.432,29.066,183.043
11.523,128.181812,37.936572,7177.6794216,6.63,29.142,183.09
11.5397,128.18181,37.936529,7179.567048,5.941,29.16,183.134
11.5564,128.181808,37.936487,7181.4625992,5.364,29.108,183.169
11.5731,128.181806,37.936444,7183.3645512,4.896,28.981,183.196
11.5898,128.181804,37.936402,7185.2735136,4.535,28.798,183.216
11.6065,128.181802,37.936359,7187.188572,4.278,28.573,183.231
11.6231,128.1818,37.936317,7189.108812,4.122,28.324,183.242
11.6398,128.181798,37.936275,7191.0339288000005,4.065,28.068,183.251
11.6565,128.181796,37.936233,7192.963008,4.103,27.816,183.259
11.6733,128.181794,37.93619,7194.8960496,4.234,27.572,183.268
11.69,128.181792,37.936148,7196.8321392,4.454,27.338,183.277
11.7067,128.18179,37.936106,7198.7706672,4.761,27.116,183.285
11.7234,128.181788,37.936064,7200.711328800001,5.153,26.906,183.294
11.7401,128.181786,37.936021,7202.6532096,5.627,26.708,183.303
11.7568,128.181783,37.935979,7204.5963096000005,6.181,26.521,183.312
11.7735,128.181781,37.935937,7206.539714400001,6.811,26.346,183.321
11.7902,128.181779,37.935895,7208.484033600001,7.516,26.182,183.329
11.8068,128.181777,37.935853,7210.4289624,8.293,26.03,183.338
11.8235,128.181775,37.93581,7212.373891200001,9.141,25.89,183.346
11.8402,128.181773,37.935768,7214.319124800001,10.057,25.761,183.355
11.857,128.181771,37.935726,7216.2646632000005,11.039,25.644,183.364
11.8737,128.181769,37.935684,7218.209896800001,12.085,25.537,183.373
11.8904,128.181767,37.935642,7220.1554352,13.194,25.442,183.383
11.9071,128.181765,37.935599,7222.100364000001,14.364,25.358,183.394
11.9238,128.181763,37.935557,7224.045597600001,15.593,25.285,183.407
11.9405,128.18176,37.935515,7225.9902216,16.879,25.223,183.422
11.9572,128.181758,37.935473,7227.9345408,18.221,25.172,183.439
11.9739,128.181756,37.935431,7229.878860000001,19.617,25.131,183.459
11.9905,128.181754,37.935389,7231.8234840000005,20.887,25.122,183.466
12.0072,128.181752,37.935346,7233.7687176,22.038,25.155,183.467
12.0239,128.181749,37.935304,7235.7154752,23.068,25.238,183.474
12.0407,128.181747,37.935262,7237.6640615999995,23.978,25.375,183.5
12.0574,128.181745,37.93522,7239.6150864,24.772,25.573,183.553
12.0741,128.181743,37.935178,7241.5688544,25.453,25.829,183.638
12.0908,128.18174,37.935136,7243.52628,26.022,26.131,183.75
12.1075,128.181738,37.935094,7245.4873632,26.483,26.468,183.886
12.1242,128.181736,37.935052,7247.4533232,26.839,26.828,184.041
12.1409,128.181733,37.93501,7249.4241600000005,27.089,27.198,184.207
12.1576,128.181731,37.934968,7251.4001784,27.237,27.564,184.375
12.1743,128.181728,37.934926,7253.382292800001,27.285,27.921,184.543
12.1909,128.181725,37.934884,7255.370808,27.237,28.265,184.707
12.2076,128.181723,37.934842,7257.366333600001,27.095,28.596,184.866
12.2243,128.18172,37.934801,7259.368869600001,26.864,28.912,185.019
12.2411,128.181717,37.934759,7261.3796352,26.549,29.215,185.164
12.2578,128.181715,37.934717,7263.3980208,26.152,29.504,185.302
12.2745,128.181712,37.934676,7265.4255504,25.677,29.78,185.431
12.2912,128.181709,37.934634,7267.4610048,25.127,30.045,185.552
12.3079,128.181706,37.934593,7269.5049936,24.506,30.299,185.665
12.3246,128.181703,37.934551,7271.5581264,23.816,30.543,185.769
12.3413,128.1817,37.93451,7273.6197936,23.06,30.779,185.866
12.358,128.181696,37.934468,7275.6906048,22.24,31.007,185.954
12.3746,128.181693,37.934427,7277.770560000001,21.359,31.228,186.034
12.3913,128.18169,37.934386,7279.859964,20.417,31.443,186.107
12.408,128.181687,37.934345,7281.958512,19.418,31.653,186.172
12.4248,128.181683,37.934304,7284.0665088000005,18.362,31.858,186.229
12.4415,128.18168,37.934263,7286.1842592,17.251,32.058,186.278
12.4582,128.181676,37.934222,7288.3114584,16.086,32.255,186.319
12.4749,128.181673,37.934181,7290.448106400001,15.031,32.43,186.371
12.4916,128.181669,37.93414,7292.592984000001,14.079,32.571,186.429
12.5083,128.181666,37.9341,7294.746091200001,13.232,32.665,186.484
12.525,128.181662,37.934059,7296.906818400001,12.487,32.703,186.528
12.5417,128.181659,37.934018,7299.074251200001,11.843,32.672,186.555
12.5583,128.181655,37.933978,7301.2483896,11.298,32.577,186.566
12.575,128.181651,37.933937,7303.428624000001,10.851,32.435,186.564
12.5917,128.181648,37.933896,7305.61404,10.501,32.261,186.552
12.6085,128.181644,37.933856,7307.804942400001,10.246,32.069,186.536
12.6252,128.18164,37.933816,7310.0004168,10.085,31.871,186.517
12.6419,128.181637,37.933775,7312.1998536,10.014,31.673,186.498
12.6586,128.181633,37.933735,7314.4026432,10.032,31.479,186.479
12.6753,128.181629,37.933694,7316.6087856,10.134,31.291,186.461
12.692,128.181625,37.933654,7318.8173664,10.32,31.11,186.443
12.7087,128.181622,37.933614,7321.0280808,10.586,30.937,186.428
12.7254,128.181618,37.933573,7323.240319200001,10.931,30.773,186.413
12.742,128.181614,37.933533,7325.4537768,11.351,30.618,186.4
12.7587,128.18161,37.933493,7327.6681488,11.846,30.471,186.388
12.7754,128.181607,37.933452,7329.88374,12.412,30.334,186.378
12.7922,128.181603,37.933412,7332.099940800001,13.048,30.205,186.369
12.8089,128.181599,37.933372,7334.316751200001,13.751,30.085,186.361
12.8256,128.181595,37.933331,7336.5341712,14.52,29.975,186.355
12.8423,128.181591,37.933291,7338.751896000001,15.353,29.873,186.35
12.859,128.181588,37.933251,7340.9702304,16.248,29.78,186.347
12.8757,128.181584,37.933211,7343.1888696000005,17.204,29.696,186.346
12.8924,128.18158,37.93317,7345.4075088,18.219,29.621,186.348
12.9091,128.181576,37.93313,7347.6267576,19.292,29.554,186.351
12.9257,128.181572,37.93309,7349.846006400001,20.421,29.496,186.357
12.9424,128.181568,37.93305,7352.0652552,21.605,29.446,186.367
12.9591,128.181564,37.933009,7354.284504,22.843,29.405,186.379
12.9759,128.18156,37.932969,7356.5040576,24.133,29.372,186.396
12.9926,128.181556,37.932929,7358.723916,25.303,29.367,186.401
13.0093,128.181552,37.932889,7360.9449936,26.36,29.403,186.403
13.026,128.181548,37.932848,7363.1679,27.304,29.482,186.415
13.0427,128.181544,37.932808,7365.3926352,28.137,29.612,186.448
13.0594,128.18154,37.932768,7367.6198088,28.865,29.797,186.512
13.0761,128.181536,37.932728,7369.8500304,29.488,30.032,186.608
13.0928,128.181532,37.932688,7372.0833,30.009,30.307,186.732
13.1095,128.181528,37.932648,7374.3208368000005,30.428,30.61,186.88
13.1262,128.181524,37.932608,7376.562640800001,30.747,30.931,187.045
13.1429,128.181519,37.932568,7378.8090168,30.967,31.26,187.22
13.1596,128.181515,37.932528,7381.0605744,31.089,31.588,187.401
13.1763,128.181511,37.932488,7383.3176184,31.116,31.912,187.583
13.193,128.181506,37.932448,7385.5807584,31.051,32.228,187.763
13.2097,128.181502,37.932408,7387.8502992,30.897,32.535,187.939
13.2264,128.181497,37.932368,7390.126850400001,30.657,32.832,188.11
13.2431,128.181492,37.932329,7392.4101072,30.336,33.117,188.274
13.2598,128.181488,37.932289,7394.7012888,29.936,33.393,188.43
13.2765,128.181483,37.932249,7397.0000904,29.46,33.658,188.579
13.2932,128.181478,37.93221,7399.306512,28.912,33.914,188.72
13.3099,128.181473,37.93217,7401.6211632,28.294,34.161,188.852
13.3266,128.181468,37.932131,7403.9437392,27.609,34.4,188.976
13.3433,128.181463,37.932092,7406.27424,26.858,34.632,189.091
13.36,128.181458,37.932052,7408.6132752,26.046,34.858,189.199
13.3767,128.181453,37.932013,7410.96054,25.172,35.078,189.297
13.3934,128.181448,37.931974,7413.3163392,24.24,35.293,189.388
13.4101,128.181443,37.931935,7415.6809776,23.25,35.503,189.47
13.4268,128.181437,37.931896,7418.0541504,22.205,35.709,189.545
13.4435,128.181432,37.931857,7420.4361624,21.105,35.912,189.61
13.4602,128.181427,37.931818,7422.827318400001,19.952,36.112,189.668
13.4769,128.181421,37.931779,7425.2273136,18.748,36.31,189.718
13.4936,128.181416,37.931741,7427.636148,17.492,36.506,189.759
13.5103,128.18141,37.931702,7430.0544312,16.187,36.699,189.792
13.527,128.181405,37.931664,7432.4818584,14.833,36.891,189.816
13.5437,128.181399,37.931625,7434.918429599999,13.43,37.083,189.831
13.5604,128.181394,37.931587,7437.364449600001,11.979,37.273,189.838
13.5771,128.181388,37.931548,7439.8199184000005,10.482,37.462,189.836
13.5938,128.181382,37.93151,7442.284836000001,8.937,37.651,189.824
13.6105,128.181377,37.931472,7444.758897600001,7.347,37.839,189.804
13.6272,128.181371,37.931434,7447.2427128,5.71,38.027,189.773
13.6439,128.181365,37.931396,7449.735672,4.028,38.214,189.733
13.6606,128.18136,37.931358,7452.2383848,2.299,38.401,189.682
13.6773,128.181354,37.93132,7454.750241600001,0.526,38.588,189.621
13.694,128.181348,37.931282,7457.271547200001,-1.292,38.775,189.549
13.7107,128.181343,37.931245,7459.802301600001,-3.156,38.961,189.466
13.7274,128.181337,37.931207,7462.3415904,-5.059,39.147,189.372
13.7441,128.181331,37.931169,7464.889413600001,-6.969,39.332,189.27
13.7608,128.181326,37.931132,7467.4451616,-8.858,39.518,189.16
13.7775,128.18132,37.931094,7470.0088344,-10.701,39.702,189.045
13.7942,128.181315,37.931057,7472.5798224,-12.478,39.887,188.925
13.8109,128.181309,37.93102,7475.1581256,-14.177,40.072,188.799
13.8276,128.181304,37.930982,7477.7431344,-15.786,40.255,188.666
13.8443,128.181298,37.930945,7480.334544,-17.299,40.439,188.526
13.861,128.181293,37.930908,7482.9323544,-18.715,40.62,188.379
13.8777,128.181288,37.930871,7485.535956000001,-20.034,40.8,188.224
13.8944,128.181282,37.930834,7488.145044,-21.26,40.978,188.06
13.9111,128.181277,37.930797,7490.7596184,-22.397,41.153,187.888
13.9278,128.181272,37.93076,7493.379069600001,-23.45,41.325,187.708
13.9445,128.181267,37.930723,7496.003397600001,-24.428,41.493,187.521
13.9612,128.181261,37.930686,7498.632297600001,-25.336,41.657,187.327
13.9779,128.181256,37.930649,7501.265769600001,-26.181,41.817,187.127
13.9946,128.181251,37.930612,7503.9038136,-26.97,41.972,186.921
14.0113,128.181246,37.930575,7506.5467344,-27.709,42.122,186.711
14.028,128.181241,37.930539,7509.194532,-28.404,42.267,186.498
14.0447,128.181236,37.930502,7511.847206400001,-29.061,42.408,186.283
14.0614,128.181231,37.930465,7514.5050624000005,-29.684,42.544,186.066
14.0781,128.181226,37.930429,7517.1677952,-30.277,42.676,185.849
14.0948,128.181221,37.930392,7519.835709600001,-30.845,42.804,185.633
14.1115,128.181217,37.930355,7522.5088056,-31.39,42.928,185.416
14.1282,128.181212,37.930319,7525.1870832,-31.915,43.048,185.201
14.1449,128.181207,37.930282,7527.870542400001,-32.422,43.165,184.987
14.1616,128.181203,37.930246,7530.558878400001,-32.914,43.279,184.774
14.1783,128.181198,37.93021,7533.252700800001,-33.391,43.391,184.563
14.195,128.181194,37.930173,7535.951704800001,-33.855,43.499,184.353
14.2117,128.18119,37.930137,7538.6555856,-34.307,43.605,184.144
14.2284,128.181185,37.930101,7541.3649528,-34.748,43.708,183.936
14.2451,128.181181,37.930064,7544.0791968,-35.178,43.808,183.729
14.2618,128.181177,37.930028,7546.7989272,-35.597,43.906,183.522
14.2785,128.181173,37.929992,7549.5235344,-36.007,44.002,183.315
14.2952,128.181169,37.929956,7552.2533232000005,-36.408,44.095,183.109
14.3119,128.181165,37.92992,7554.9879888,-36.8,44.187,182.903
14.3286,128.181161,37.929884,7557.727836,-37.184,44.276,182.697
14.3453,128.181157,37.929848,7560.472864800001,-37.56,44.364,182.492
14.362,128.181153,37.929812,7563.222770400001,-37.929,44.449,182.287
14.3787,128.181149,37.929776,7565.9778576,-38.29,44.534,182.082
14.3954,128.181146,37.929741,7568.7375168,-38.644,44.616,181.877
14.4121,128.181142,37.929705,7571.5023576,-38.991,44.697,181.673
14.4288,128.181139,37.929669,7574.2720752,-39.331,44.777,181.469
14.4455,128.181135,37.929634,7577.0466696,-39.665,44.855,181.265
14.4622,128.181132,37.929598,7579.826140800001,-39.992,44.933,181.061
14.4789,128.181129,37.929562,7582.6104888,-40.312,45.009,180.858
14.4956,128.181126,37.929527,7585.399713600001,-40.626,45.084,180.655
14.5123,128.181123,37.929491,7588.1935104,-40.933,45.158,180.453
14.529,128.18112,37.929456,7590.991879200001,-41.234,45.231,180.25
14.5457,128.181117,37.929421,7593.7954296,-41.529,45.303,180.048
14.5624,128.181114,37.929385,7596.603247200001,-41.817,45.374,179.846
14.5791,128.181111,37.92935,7599.4159416,-42.099,45.445,179.645
14.5958,128.181108,37.929315,7602.2329032,-42.375,45.514,179.444
14.6125,128.181106,37.92928,7605.054741600001,-42.644,45.583,179.243
14.6292,128.181103,37.929244,7607.881152000001,-42.908,45.652,179.042
14.6459,128.181101,37.929209,7610.7121344,-43.165,45.719,178.842
14.6626,128.181098,37.929174,7613.5476888,-43.416,45.786,178.642
14.6793,128.181096,37.929139,7616.387510400001,-43.662,45.853,178.442
14.696,128.181094,37.929104,7619.2322088,-43.901,45.919,178.243
14.7127,128.181092,37.929069,7622.0808696,-44.134,45.984,178.043
14.7294,128.181089,37.929035,7624.9341024,-44.362,46.049,177.845
14.7461,128.181087,37.929,7627.7919071999995,-44.584,46.114,177.646
14.7628,128.181086,37.928965,7630.653979200001,-44.8,46.178,177.448
14.7795,128.181084,37.92893,7633.5203184,-45.011,46.241,177.25
14.7962,128.181082,37.928896,7636.3912296,-45.216,46.305,177.052
14.8129,128.18108,37.928861,7639.266408,-45.416,46.368,176.855
14.8296,128.181079,37.928827,7642.1458536,-45.611,46.431,176.658
14.8463,128.181077,37.928792,7645.0292616,-45.8,46.493,176.462
14.863,128.181076,37.928758,7647.9172416,-45.985,46.555,176.265
14.8797,128.181075,37.928723,7650.8094888,-46.164,46.617,176.069
14.8964,128.181073,37.928689,7653.7056984,-46.339,46.679,175.873
14.9131,128.181072,37.928654,7656.60648,-46.509,46.741,175.678
14.9298,128.181071,37.92862,7659.511224000001,-46.675,46.802,175.483
14.9465,128.18107,37.928586,7662.4199304,-46.836,46.863,175.288
14.9632,128.181069,37.928552,7665.332904,-46.993,46.925,175.093
14.9799,128.181068,37.928518,7668.2501448,-47.146,46.986,174.899
14.9966,128.181068,37.928484,7671.171348,-47.295,47.047,174.705
15.0133,128.181067,37.92845,7674.0968184,-47.439,47.108,174.511
15.03,128.181066,37.928416,7677.026251200001,-47.58,47.169,174.317
15.0467,128.181066,37.928382,7679.9599512,-47.718,47.23,174.124
15.0634,128.181066,37.928348,7682.8973088,-47.852,47.291,173.93
15.0801,128.181065,37.928314,7685.838933600001,-47.983,47.352,173.737
15.0968,128.181065,37.92828,7688.7845208,-48.111,47.412,173.545
15.1135,128.181065,37.928247,7691.7343752,-48.236,47.474,173.352
15.1302,128.181065,37.928213,7694.687887200001,-48.358,47.535,173.16
15.1469,128.181065,37.928179,7697.6453616,-48.477,47.596,172.967
15.1636,128.181065,37.928146,7700.6071032,-48.593,47.657,172.775
15.1803,128.181065,37.928112,7703.5725024,-48.707,47.718,172.583
15.197,128.181066,37.928079,7706.541864000001,-48.819,47.78,172.391
15.2137,128.181066,37.928046,7709.515188000001,-48.928,47.842,172.199
15.2304,128.181066,37.928012,7712.492474400001,-49.035,47.903,172.008
15.2471,128.181067,37.927979,7715.473723200001,-49.14,47.965,171.816
15.2638,128.181068,37.927946,7718.4586296,-49.243,48.028,171.625
15.2805,128.181068,37.927913,7721.4474984,-49.344,48.09,171.433
15.2972,128.181069,37.927879,7724.4403296,-49.444,48.153,171.241
15.3139,128.18107,37.927846,7727.4368184,-49.542,48.215,171.05
15.3306,128.181071,37.927813,7730.437269600001,-49.638,48.279,170.858
15.3473,128.181072,37.92778,7733.441683200001,-49.733,48.342,170.666
15.364,128.181073,37.927747,7736.449449600001,-49.827,48.406,170.473
15.3807,128.181075,37.927715,7739.461483200001,-49.919,48.47,170.281
15.3974,128.181076,37.927682,7742.476869600001,-50.01,48.535,170.088
15.4141,128.181077,37.927649,7745.4962184000005,-50.1,48.6,169.895
15.4308,128.181079,37.927616,7748.5195296,-50.189,48.665,169.702
15.4475,128.181081,37.927584,7751.5461936,-50.277,48.731,169.508
15.4642,128.181082,37.927551,7754.576820000001,-50.365,48.797,169.314
15.4809,128.181084,37.927519,7757.6111040000005,-50.451,48.863,169.12
15.4976,128.181086,37.927486,7760.6490456,-50.537,48.93,168.926
15.5143,128.181088,37.927454,7763.6906448,-50.622,48.997,168.731
15.531,128.18109,37.927422,7766.735901600001,-50.706,49.064,168.536
15.5477,128.181092,37.927389,7769.7851208,-50.79,49.132,168.34
15.5644,128.181094,37.927357,7772.837692800001,-50.873,49.2,168.145
