Time,Longitude,Latitude,Altitude,Roll (deg),Pitch (deg),Yaw (deg)
0.0,128.181881,37.923646,7000.146528,0.0,-0.003,0.0
0.0167,128.181881,37.923691,7000.1605488000005,0.0,-0.012,0.0
0.0334,128.181881,37.923736,7000.1733504,0.087,-0.013,0.011
0.0501,128.181881,37.923781,7000.1843232,0.258,0.007,0.034
0.0668,128.181881,37.923826,7000.1962104,0.342,0.063,0.041
0.0834,128.181881,37.92387,7000.2087071999995,0.347,0.167,0.03
0.1002,128.181881,37.923915,7000.222728000001,0.266,0.33,0.006
0.1169,128.181881,37.92396,7000.239492000001,0.095,0.56,359.975
0.1336,128.181881,37.924005,7000.2596088,-0.169,0.865,359.94
0.1503,128.181881,37.92405,7000.284297600001,-0.527,1.245,359.902
0.1669,128.181881,37.924095,7000.311424800001,-0.801,1.689,359.886
0.1837,128.181881,37.92414,7000.3425144,-0.994,2.184,359.891
0.2004,128.181881,37.924185,7000.3775663999995,-1.097,2.716,359.909
0.2171,128.181881,37.92423,7000.416276,-1.104,3.267,359.934
0.2338,128.181881,37.924275,7000.4592528,-1.012,3.821,359.962
0.2505,128.181881,37.92432,7000.506192000001,-0.821,4.361,359.991
0.2672,128.181881,37.924365,7000.5573984,-0.535,4.87,0.022
0.2839,128.181881,37.92441,7000.615005600001,-0.329,5.346,0.031
0.3006,128.181881,37.924455,7000.6790136,-0.199,5.789,0.019
0.3172,128.181881,37.9245,7000.750336800001,-0.156,6.204,359.993
0.3339,128.181881,37.924545,7000.8295848,-0.203,6.592,359.96
0.3507,128.181881,37.92459,7000.9179768,-0.342,6.955,359.923
0.3674,128.181881,37.924634,7001.015512800001,-0.573,7.297,359.884
0.3841,128.181881,37.924679,7001.1231072,-0.892,7.618,359.844
0.4008,128.181881,37.924724,7001.2386264,-1.134,7.906,359.825
0.4175,128.181881,37.924769,7001.362375199999,-1.301,8.145,359.828
0.4342,128.181881,37.924814,7001.493744,-1.385,8.32,359.846
0.4509,128.181881,37.924859,7001.6321232,-1.382,8.418,359.874
0.4676,128.181881,37.924904,7001.7762936,-1.29,8.425,359.907
0.4843,128.181881,37.924949,7001.926255200001,-1.11,8.342,359.944
0.501,128.181881,37.924994,7002.083227200001,-1.001,8.184,359.962
0.5176,128.181881,37.925039,7002.2466,-0.964,7.969,359.96
0.5344,128.181881,37.925084,7002.416678400001,-1.004,7.714,359.945
0.5511,128.181881,37.925128,7002.5934624,-1.127,7.433,359.921
0.5678,128.181881,37.925173,7002.776952000001,-1.337,7.144,359.893
0.5845,128.181881,37.925218,7002.967147200001,-1.635,6.863,359.864
0.6012,128.18188,37.925263,7003.1643527999995,-2.022,6.605,359.833
0.6179,128.18188,37.925308,7003.3688736,-2.495,6.384,359.802
0.6345,128.18188,37.925353,7003.580709600001,-3.053,6.212,359.769
0.6513,128.18188,37.925398,7003.800775199999,-3.694,6.1,359.735
0.6679,128.18188,37.925442,7004.029070400001,-4.416,6.059,359.697
0.6847,128.18188,37.925487,7004.2655952000005,-5.217,6.098,359.654
0.7014,128.18188,37.925532,7004.5103496,-6.093,6.217,359.603
0.7181,128.18188,37.925577,7004.763638400001,-7.043,6.411,359.544
0.7348,128.18188,37.925621,7005.0254616,-8.064,6.669,359.475
0.7514,128.18188,37.925666,7005.2964288,-9.152,6.98,359.395
0.7682,128.18188,37.925711,7005.5762352,-10.305,7.33,359.305
0.7848,128.18188,37.925756,7005.8654904,-11.519,7.708,359.203
0.8016,128.181879,37.9258,7006.1638896,-12.793,8.099,359.092
0.8183,128.181879,37.925845,7006.472042400001,-14.122,8.488,358.974
0.835,128.181879,37.92589,7006.7902536,-15.504,8.861,358.849
0.8517,128.181879,37.925934,7007.118218400001,-16.937,9.216,358.72
0.8684,128.181878,37.925979,7007.456241600001,-18.417,9.552,358.586
0.8851,128.181878,37.926023,7007.804932800001,-19.945,9.87,358.447
0.9018,128.181877,37.926068,7008.163682400001,-21.517,10.17,358.303
0.9185,128.181877,37.926113,7008.532795200001,-23.133,10.452,358.153
0.9352,128.181876,37.926157,7008.912576,-24.791,10.718,357.998
0.9519,128.181876,37.926202,7009.302415200001,-26.492,10.968,357.838
0.9686,128.181875,37.926246,7009.702922400001,-28.234,11.204,357.672
0.9853,128.181874,37.926291,7010.113488000001,-30.016,11.426,357.501
1.002,128.181874,37.926335,7010.5344168,-31.839,11.635,357.324
1.0187,128.181873,37.92638,7010.9650992,-33.702,11.831,357.142
1.0353,128.181872,37.926424,7011.4055352000005,-35.605,12.015,356.953
1.0521,128.181871,37.926469,7011.855724800001,-37.547,12.187,356.758
1.0688,128.18187,37.926513,7012.3150584,-39.529,12.349,356.558
1.0855,128.181868,37.926557,7012.783536,-41.55,12.499,356.35
1.1022,128.181867,37.926602,7013.2608528,-43.61,12.639,356.136
1.1189,128.181865,37.926646,7013.746704,-45.71,12.768,355.916
1.1356,128.181864,37.92669,7014.2407848,-47.849,12.886,355.688
1.1522,128.181862,37.926735,7014.7424856,-50.028,12.995,355.454
1.169,128.18186,37.926779,7015.251501600001,-52.247,13.092,355.213
1.1857,128.181858,37.926823,7015.7678328,-54.505,13.179,354.965
1.2024,128.181856,37.926867,7016.2905648000005,-56.803,13.255,354.709
1.2191,128.181854,37.926912,7016.819392800001,-59.142,13.32,354.447
1.2358,128.181852,37.926956,7017.354012,-61.521,13.374,354.178
1.2525,128.181849,37.927,7017.893508,-63.941,13.415,353.901
1.2691,128.181847,37.927044,7018.4378808,-66.401,13.445,353.618
1.2859,128.181844,37.927088,7018.9865208,-68.903,13.462,353.329
1.3026,128.181841,37.927132,7019.5385136,-71.446,13.465,353.032
1.3193,128.181838,37.927176,7020.0938592,-74.031,13.455,352.73
1.3359,128.181835,37.92722,7020.6516432,-76.659,13.43,352.422
1.3527,128.181832,37.927264,7021.2115608,-79.329,13.39,352.108
1.3694,128.181828,37.927308,7021.772697600001,-82.042,13.334,351.79
1.386,128.181825,37.927352,7022.3347488,-84.797,13.261,351.467
1.4028,128.181821,37.927396,7022.8971048,-87.594,13.169,351.141
1.4195,128.181817,37.92744,7023.459156000001,-90.432,13.058,350.811
1.4362,128.181813,37.927484,7024.020292800001,-93.31,12.926,350.48
1.4528,128.181809,37.927528,7024.5802104,-96.228,12.772,350.148
1.4696,128.181805,37.927572,7025.1379944,-99.185,12.595,349.817
1.4863,128.1818,37.927616,7025.69334,-102.181,12.395,349.488
1.5029,128.181796,37.92766,7026.2453328,-105.211,12.173,349.174
1.5197,128.181791,37.927704,7026.7939728,-108.274,11.935,348.89
1.5364,128.181786,37.927748,7027.338955200001,-111.366,11.685,348.647
1.5531,128.181781,37.927792,7027.879060800001,-114.485,11.431,348.457
1.5697,128.181776,37.927835,7028.4148992,-117.626,11.181,348.331
1.5865,128.181771,37.927879,7028.9458608,-120.786,10.946,348.277
1.6032,128.181766,37.927923,7029.4722504,-123.959,10.736,348.302
1.6198,128.18176,37.927967,7029.9937632,-127.149,10.552,348.395
1.6366,128.181755,37.928011,7030.5103992,-130.355,10.387,348.538
1.6533,128.18175,37.928055,7031.0218536,-133.581,10.237,348.719
1.67,128.181744,37.928098,7031.528736,-136.828,10.092,348.921
1.6867,128.181738,37.928142,7032.0307416000005,-140.095,9.946,349.138
1.7034,128.181733,37.928186,7032.52848,-143.383,9.798,349.363
1.7201,128.181727,37.92823,7033.0216464000005,-146.691,9.647,349.594
1.7368,128.181721,37.928274,7033.5105456,-150.019,9.494,349.83
1.7535,128.181716,37.928317,7033.995482400001,-153.368,9.34,350.07
1.7702,128.18171,37.928361,7034.4767616,-156.739,9.186,350.313
1.7869,128.181704,37.928405,7034.954688000001,-160.129,9.036,350.556
1.8036,128.181698,37.928449,7035.428956800001,-163.538,8.889,350.799
1.8203,128.181692,37.928493,7035.9001776000005,-166.963,8.737,351.037
1.837,128.181687,37.928537,7036.3677408,-170.402,8.574,351.268
1.8537,128.181681,37.92858,7036.832256000001,-173.85,8.396,351.491
1.8704,128.181675,37.928624,7037.293113600001,-177.305,8.199,351.704
1.8871,128.181669,37.928668,7037.7506184,179.236,7.981,351.909
1.9038,128.181663,37.928712,7038.204770400001,175.778,7.741,352.105
1.9205,128.181657,37.928756,7038.654655200001,172.324,7.482,352.292
1.9372,128.181652,37.9288,7039.1008824,168.877,7.206,352.472
1.9539,128.181646,37.928844,7039.5425376,165.44,6.915,352.642
1.9706,128.18164,37.928887,7039.9799256,162.014,6.612,352.804
1.9873,128.181634,37.928931,7040.4118272000005,158.601,6.292,352.958
2.004,128.181628,37.928975,7040.838547200001,155.219,5.958,353.113
2.0207,128.181622,37.929019,7041.259476,151.881,5.618,353.277
2.0374,128.181617,37.929063,7041.674004,148.597,5.28,353.453
2.0541,128.181611,37.929107,7042.0833504,145.428,4.947,353.64
2.0707,128.181605,37.929151,7042.486905600001,142.426,4.621,353.833
2.0875,128.181599,37.929195,7042.885279200001,139.632,4.305,354.031
2.1042,128.181594,37.929239,7043.2778616,137.05,4.002,354.233
2.1208,128.181588,37.929283,7043.6652624,134.677,3.716,354.438
2.1376,128.181582,37.929327,7044.0477864,132.507,3.449,354.645
2.1543,128.181576,37.929371,7044.424824000001,130.532,3.205,354.85
2.171,128.181571,37.929415,7044.7975944,128.745,2.984,355.051
2.1877,128.181565,37.929459,7045.165488000001,127.136,2.786,355.244
2.2044,128.181559,37.929503,7045.5291144,125.697,2.614,355.424
2.2211,128.181554,37.929547,7045.888778400001,124.416,2.471,355.581
2.2378,128.181548,37.929591,7046.2447848,123.285,2.355,355.71
2.2544,128.181543,37.929635,7046.597438400001,122.296,2.267,355.808
2.2712,128.181537,37.929679,7046.9467392,121.44,2.202,355.875
2.2879,128.181531,37.929723,7047.292992000001,120.705,2.155,355.911
2.3045,128.181526,37.929767,7047.635892,120.085,2.12,355.919
2.3213,128.18152,37.929811,7047.975744,119.578,2.097,355.906
2.338,128.181515,37.929855,7048.3122432,119.18,2.082,355.876
2.3546,128.181509,37.929899,7048.6453896,118.889,2.072,355.835
2.3714,128.181503,37.929944,7048.975488000001,118.702,2.066,355.788
2.3881,128.181498,37.929988,7049.3022336,118.614,2.061,355.737
2.4048,128.181492,37.930032,7049.6259312,118.623,2.054,355.689
2.4215,128.181487,37.930076,7049.9465808,118.725,2.046,355.646
2.4382,128.181481,37.93012,7050.2638776,118.918,2.033,355.609
2.4549,128.181476,37.930165,7050.5784312000005,119.198,2.017,355.58
2.4716,128.18147,37.930209,7050.8893272000005,119.563,1.996,355.559
2.4882,128.181464,37.930253,7051.19748,120.009,1.971,355.548
2.505,128.181459,37.930298,7051.50228,120.534,1.941,355.545
2.5217,128.181453,37.930342,7051.804032,121.136,1.905,355.551
2.5383,128.181448,37.930386,7052.1024312,121.811,1.864,355.566
2.5551,128.181442,37.930431,7052.3977824,122.557,1.817,355.59
2.5718,128.181437,37.930475,7052.6900856,123.372,1.764,355.623
2.5884,128.181431,37.930519,7052.9787312,124.253,1.705,355.664
2.6052,128.181426,37.930564,7053.264328800001,125.198,1.639,355.712
2.6219,128.18142,37.930608,7053.546268800001,126.205,1.567,355.769
2.6386,128.181415,37.930652,7053.824856000001,127.272,1.488,355.833
2.6553,128.181409,37.930697,7054.0997856,128.396,1.401,355.904
2.6719,128.181404,37.930741,7054.3713624,129.577,1.306,355.981
2.6887,128.181398,37.930786,7054.638672,130.811,1.203,356.065
2.7054,128.181393,37.93083,7054.902324000001,132.097,1.091,356.155
2.722,128.181388,37.930875,7055.1620136,133.434,0.97,356.251
2.7388,128.181382,37.930919,7055.417436000001,134.82,0.839,356.351
2.7555,128.181377,37.930964,7055.6679816000005,136.247,0.699,356.455
2.7721,128.181371,37.931008,7055.9133456,137.699,0.55,356.565
2.7889,128.181366,37.931053,7056.1529184,139.159,0.391,356.679
2.8056,128.181361,37.931097,7056.3863952,140.614,0.223,356.798
2.8222,128.181356,37.931142,7056.6131663999995,142.047,0.045,356.922
2.839,128.18135,37.931187,7056.8326224,143.449,-0.14,357.048
2.8557,128.181345,37.931231,7057.044458400001,144.81,-0.337,357.177
2.8724,128.18134,37.931276,7057.248064800001,146.12,-0.542,357.308
2.8891,128.181335,37.93132,7057.442832000001,147.374,-0.755,357.438
2.9057,128.18133,37.931365,7057.628150400001,148.568,-0.977,357.568
2.9225,128.181325,37.93141,7057.803715200001,149.698,-1.205,357.696
2.9392,128.18132,37.931454,7057.9692216,150.761,-1.439,357.821
2.9558,128.181315,37.931499,7058.124060000001,151.757,-1.677,357.942
2.9726,128.181311,37.931544,7058.2679256,152.685,-1.918,358.058
2.9893,128.181306,37.931588,7058.4011232,153.547,-2.161,358.169
3.0059,128.181301,37.931633,7058.523348,154.344,-2.403,358.275
3.0227,128.181297,37.931678,7058.6336856,155.075,-2.645,358.374
3.0394,128.181292,37.931722,7058.733660000001,155.807,-2.886,358.463
3.056,128.181287,37.931767,7058.8229664,156.528,-3.125,358.542
3.0728,128.181283,37.931812,7058.9016048,157.219,-3.361,358.614
3.0895,128.181279,37.931856,7058.9680512,157.866,-3.592,358.683
3.1062,128.181274,37.931901,7059.022000800001,158.459,-3.818,358.748
3.1229,128.18127,37.931946,7059.063758400001,158.99,-4.039,358.811
3.1395,128.181265,37.931991,7059.0918,159.459,-4.257,358.873
3.1563,128.181261,37.932035,7059.1076496000005,159.869,-4.468,358.931
3.173,128.181257,37.93208,7059.110392800001,160.22,-4.666,358.984
3.1896,128.181253,37.932125,7059.099115200001,160.503,-4.844,359.034
3.2064,128.181249,37.93217,7059.0741216,160.703,-4.997,359.084
3.2231,128.181245,37.932214,7059.0348023999995,160.82,-5.125,359.131
3.2397,128.181241,37.932259,7058.9817672,160.854,-5.229,359.172
3.2565,128.181237,37.932304,7058.915016,160.806,-5.31,359.208
3.2732,128.181233,37.932348,7058.8345488,160.678,-5.373,359.238
3.2899,128.181229,37.932393,7058.7406704,160.471,-5.418,359.264
3.3066,128.181225,37.932438,7058.6333808,160.189,-5.451,359.285
3.3233,128.181221,37.932483,7058.5129848,159.833,-5.474,359.304
3.34,128.181218,37.932527,7058.380092,159.406,-5.474,359.315
3.3567,128.181214,37.932572,7058.235312,158.912,-5.441,359.314
3.3734,128.18121,37.932617,7058.07834,158.352,-5.368,359.298
3.3901,128.181207,37.932662,7057.9097856,157.729,-5.264,359.27
3.4068,128.181203,37.932706,7057.7296488,157.043,-5.142,359.234
3.4235,128.1812,37.932751,7057.5385392,156.297,-5.011,359.193
3.4402,128.181196,37.932796,7057.336456800001,155.491,-4.876,359.15
3.4569,128.181193,37.93284,7057.1240112000005,154.627,-4.742,359.107
3.4736,128.181189,37.932885,7056.901202399999,153.707,-4.612,359.063
3.4903,128.181186,37.93293,7056.66864,152.732,-4.488,359.021
3.507,128.181183,37.932975,7056.426324000001,151.705,-4.37,358.979
3.5237,128.181179,37.933019,7056.174559200001,150.625,-4.258,358.939
3.5404,128.181176,37.933064,7055.913650400001,149.496,-4.154,358.901
3.5571,128.181173,37.933109,7055.6442072,148.319,-4.056,358.865
3.5738,128.18117,37.933153,7055.3662296,147.095,-3.966,358.83
3.5905,128.181167,37.933198,7055.079717600001,145.827,-3.882,358.797
3.6072,128.181164,37.933243,7054.7852808,144.516,-3.804,358.765
3.6239,128.181161,37.933288,7054.482919200001,143.163,-3.733,358.735
3.6406,128.181158,37.933332,7054.1729376,141.771,-3.666,358.707
3.6573,128.181155,37.933377,7053.8556408,140.341,-3.606,358.68
3.674,128.181153,37.933422,7053.531028800001,138.875,-3.55,358.655
3.6907,128.18115,37.933466,7053.199406400001,137.374,-3.499,358.631
3.7074,128.181147,37.933511,7052.8610784,135.84,-3.452,358.608
3.7241,128.181144,37.933556,7052.516044800001,134.275,-3.409,358.587
3.7408,128.181142,37.933601,7052.164915200001,132.681,-3.37,358.567
3.7575,128.181139,37.933645,7051.8073848,131.058,-3.334,358.548
3.7742,128.181137,37.93369,7051.4437584,129.408,-3.302,358.53
3.7909,128.181134,37.933735,7051.074036,127.733,-3.272,358.513
3.8076,128.181132,37.933779,7050.699132000001,126.035,-3.246,358.497
3.8243,128.181129,37.933824,7050.318132,124.314,-3.223,358.484
3.841,128.181127,37.933869,7049.9322552,122.572,-3.206,358.476
3.8577,128.181125,37.933914,7049.5405872,120.81,-3.195,358.476
3.8744,128.181123,37.933958,7049.144042400001,119.029,-3.19,358.485
3.8911,128.18112,37.934003,7048.7426208,117.23,-3.193,358.505
3.9078,128.181118,37.934048,7048.3363224,115.414,-3.201,358.536
3.9245,128.181116,37.934092,7047.9251472000005,113.583,-3.215,358.576
3.9412,128.181114,37.934137,7047.5094,111.738,-3.233,358.628
3.9579,128.181112,37.934182,7047.0893856,109.879,-3.254,358.689
3.9746,128.18111,37.934227,7046.6647992,108.01,-3.277,358.758
3.9913,128.181109,37.934271,7046.2362504,106.131,-3.302,358.836
4.008,128.181107,37.934316,7045.8037392,104.242,-3.327,358.921
4.0247,128.181105,37.934361,7045.367265600001,102.346,-3.351,359.01
4.0414,128.181104,37.934406,7044.9268296,100.443,-3.374,359.104
4.058,128.181102,37.93445,7044.483345600001,98.534,-3.394,359.201
4.0748,128.1811,37.934495,7044.036204,96.618,-3.413,359.299
4.0915,128.181099,37.93454,7043.586014400001,94.698,-3.428,359.397
4.1082,128.181098,37.934585,7043.1330816,92.773,-3.44,359.495
4.1249,128.181096,37.93463,7042.6771008000005,90.843,-3.449,359.592
4.1415,128.181095,37.934674,7042.2186816,88.908,-3.455,359.688
4.1583,128.181094,37.934719,7041.758128800001,86.969,-3.458,359.782
4.175,128.181093,37.934764,7041.295442400001,85.025,-3.457,359.875
4.1917,128.181092,37.934809,7040.830927200001,83.077,-3.453,359.966
4.2084,128.181091,37.934853,7040.364888000001,81.125,-3.446,0.055
4.2251,128.181091,37.934898,7039.897324800001,79.167,-3.436,0.144
4.2417,128.18109,37.934943,7039.428847200001,77.204,-3.423,0.23
4.2585,128.181089,37.934988,7038.959455200001,75.236,-3.407,0.315
4.2752,128.181089,37.935033,7038.4894536,73.263,-3.388,0.398
4.2919,128.181088,37.935077,7038.019147200001,71.284,-3.366,0.479
4.3086,128.181088,37.935122,7037.5488408,69.299,-3.341,0.557
4.3252,128.181087,37.935167,7037.0788391999995,67.308,-3.313,0.634
4.342,128.181087,37.935212,7036.609142400001,65.311,-3.283,0.708
4.3587,128.181087,37.935257,7036.14036,63.306,-3.25,0.78
4.3754,128.181087,37.935301,7035.672492000001,61.295,-3.215,0.85
4.3921,128.181087,37.935346,7035.206148,59.276,-3.177,0.917
4.4088,128.181087,37.935391,7034.7410232,57.25,-3.136,0.982
4.4254,128.181087,37.935436,7034.278032,55.216,-3.093,1.045
4.4422,128.181087,37.935481,7033.816869600001,53.174,-3.047,1.105
4.4589,128.181088,37.935526,7033.3581456,51.122,-2.998,1.164
4.4756,128.181088,37.935571,7032.901860000001,49.062,-2.947,1.22
4.4923,128.181089,37.935615,7032.4486224,46.993,-2.893,1.275
4.5089,128.181089,37.93566,7031.998737600001,44.914,-2.836,1.327
4.5256,128.18109,37.935705,7031.5519008,42.825,-2.777,1.376
4.5424,128.18109,37.93575,7031.1087216,40.726,-2.715,1.423
4.5591,128.181091,37.935795,7030.6695048,38.617,-2.652,1.467
4.5758,128.181092,37.93584,7030.2339456,36.496,-2.586,1.507
4.5925,128.181093,37.935885,7029.8032632,34.365,-2.519,1.544
4.6091,128.181093,37.93593,7029.3765432,32.221,-2.45,1.577
4.6259,128.181094,37.935975,7028.9550048,30.066,-2.38,1.607
4.6426,128.181095,37.936019,7028.538038400001,27.899,-2.308,1.634
4.6593,128.181096,37.936064,7028.1262536,25.719,-2.235,1.656
4.676,128.181097,37.936109,7027.7196504,23.526,-2.161,1.675
4.6927,128.181099,37.936154,7027.318533600001,21.32,-2.086,1.69
4.7093,128.1811,37.936199,7026.923208,19.1,-2.01,1.701
4.7261,128.181101,37.936244,7026.5324544000005,16.887,-1.935,1.712
4.7428,128.181102,37.936289,7026.146272800001,14.693,-1.861,1.722
4.7595,128.181103,37.936334,7025.764968,12.548,-1.788,1.733
4.7762,128.181105,37.936379,7025.3879304,10.48,-1.717,1.746
4.7928,128.181106,37.936424,7025.014855200001,8.511,-1.648,1.76
4.8096,128.181107,37.936469,7024.645437600001,6.657,-1.579,1.775
4.8263,128.181108,37.936514,7024.279068000001,4.927,-1.511,1.791
4.843,128.18111,37.936559,7023.916051200001,3.326,-1.444,1.806
4.8597,128.181111,37.936604,7023.555472800001,1.855,-1.378,1.819
4.8764,128.181112,37.936649,7023.1973328,0.512,-1.314,1.83
4.893,128.181114,37.936694,7022.8410216,-0.706,-1.253,1.839
4.9098,128.181115,37.936739,7022.4859295999995,-1.807,-1.208,1.846
4.9265,128.181116,37.936784,7022.132056800001,-2.798,-1.18,1.85
4.9432,128.181117,37.936829,7021.7787935999995,-3.687,-1.166,1.852
4.9599,128.181119,37.936874,7021.427664000001,-4.498,-1.164,1.852
4.9765,128.18112,37.936919,7021.0774488,-5.234,-1.168,1.849
4.9932,128.181121,37.936965,7020.7275384,-5.888,-1.176,1.846
5.01,128.181123,37.93701,7020.378847200001,-6.463,-1.184,1.843
5.0267,128.181124,37.937055,7020.0307656,-6.965,-1.191,1.841
5.0434,128.181125,37.9371,7019.684208,-7.401,-1.194,1.839
5.0601,128.181127,37.937145,7019.338869600001,-7.779,-1.194,1.836
5.0767,128.181128,37.93719,7018.995055200001,-8.106,-1.19,1.832
5.0935,128.181129,37.937236,7018.652764800001,-8.389,-1.185,1.829
5.1102,128.18113,37.937281,7018.3116936,-8.63,-1.179,1.825
5.1269,128.181132,37.937326,7017.9718416000005,-8.83,-1.175,1.821
5.1436,128.181133,37.937371,7017.632904,-8.987,-1.171,1.819
5.1602,128.181134,37.937417,7017.2964048,-9.111,-1.168,1.817
5.1769,128.181136,37.937462,7016.9605152,-9.199,-1.166,1.815
5.1937,128.181137,37.937507,7016.62554,-9.249,-1.165,1.814
5.2104,128.181138,37.937552,7016.291479200001,-9.258,-1.165,1.814
5.2271,128.181139,37.937598,7015.958028000001,-9.224,-1.166,1.815
5.2438,128.181141,37.937643,7015.624881600001,-9.145,-1.183,1.82
5.2604,128.181142,37.937688,7015.293259200001,-9.041,-1.215,1.827
5.2772,128.181143,37.937734,7014.963160800001,-8.916,-1.259,1.834
5.2939,128.181144,37.937779,7014.634281600001,-8.771,-1.31,1.841
5.3106,128.181146,37.937825,7014.3066216,-8.61,-1.363,1.848
5.3273,128.181147,37.93787,7013.9801808,-8.435,-1.416,1.854
5.3439,128.181148,37.937915,7013.6546544,-8.248,-1.466,1.86
5.3606,128.181149,37.937961,7013.3315664,-8.065,-1.511,1.864
5.3774,128.181151,37.938006,7013.010002399999,-7.885,-1.549,1.865
5.3941,128.181152,37.938052,7012.6899624,-7.709,-1.581,1.865
5.4108,128.181153,37.938097,7012.371141600001,-7.535,-1.606,1.864
5.4275,128.181154,37.938143,7012.05354,-7.361,-1.625,1.862
5.4441,128.181156,37.938188,7011.7383768,-7.197,-1.637,1.859
5.4609,128.181157,37.938234,7011.4244328,-7.04,-1.645,1.855
5.4776,128.181158,37.938279,7011.1114032,-6.885,-1.648,1.851
5.4943,128.181159,37.938324,7010.799592800001,-6.73,-1.647,1.848
5.511,128.18116,37.93837,7010.488696800001,-6.569,-1.644,1.844
5.5277,128.181162,37.938416,7010.178715200001,-6.398,-1.639,1.842
5.5443,128.181163,37.938461,7009.8693432,-6.212,-1.634,1.84
5.5611,128.181164,37.938507,7009.5618,-6.022,-1.627,1.839
5.5778,128.181165,37.938552,7009.2545616,-5.824,-1.62,1.837
5.5945,128.181166,37.938598,7008.9497616,-5.63,-1.612,1.834
5.6112,128.181168,37.938643,7008.6455712,-5.437,-1.603,1.832
5.6278,128.181169,37.938689,7008.3422952,-5.24,-1.595,1.829
5.6445,128.18117,37.938735,7008.040238400001,-5.037,-1.587,1.827
5.6613,128.181171,37.93878,7007.7384864000005,-4.822,-1.58,1.825
5.678,128.181172,37.938826,7007.4376488,-4.592,-1.575,1.825
5.6947,128.181174,37.938871,7007.13864,-4.36,-1.569,1.824
5.7114,128.181175,37.938917,7006.8402408,-4.122,-1.564,1.824
5.728,128.181176,37.938963,7006.542451200001,-3.877,-1.559,1.823
5.7448,128.181177,37.939008,7006.2458808,-3.621,-1.555,1.823
5.7615,128.181178,37.939054,7005.949615200001,-3.351,-1.552,1.824
5.7782,128.18118,37.9391,7005.6551784,-3.083,-1.549,1.824
5.7949,128.181181,37.939146,7005.361351200001,-2.807,-1.547,1.824
5.8115,128.181182,37.939191,7005.067828800001,-2.521,-1.547,1.825
5.8282,128.181183,37.939237,7004.7752208,-2.221,-1.548,1.826
5.845,128.181184,37.939283,7004.4829176,-1.904,-1.551,1.829
5.8617,128.181186,37.939329,7004.1909192,-1.567,-1.554,1.831
5.8784,128.181187,37.939374,7003.9007496,-1.236,-1.558,1.833
5.8951,128.181188,37.93942,7003.6117992,-0.91,-1.561,1.834
5.9117,128.181189,37.939466,7003.3237632,-0.587,-1.564,1.834
5.9285,128.18119,37.939512,7003.0369464000005,-0.264,-1.567,1.834
5.9452,128.181192,37.939558,7002.7504344,0.062,-1.57,1.835
5.9619,128.181193,37.939603,7002.464836800001,0.396,-1.573,1.836
5.9786,128.181194,37.939649,7002.181068,0.717,-1.575,1.836
5.9952,128.181195,37.939695,7001.899128000001,1.006,-1.575,1.834
6.0119,128.181196,37.939741,7001.6193216,1.269,-1.574,1.831
6.0287,128.181198,37.939787,7001.3407344,1.51,-1.571,1.827
6.0454,128.181199,37.939833,7001.065195200001,1.721,-1.566,1.822
6.0621,128.1812,37.939879,7000.790570400001,1.907,-1.56,1.816
6.0788,128.181201,37.939925,7000.5174696,2.076,-1.554,1.812
6.0954,128.181203,37.939971,7000.245283200001,2.237,-1.548,1.809
6.1121,128.181204,37.940016,6999.974011200001,2.398,-1.542,1.808
6.1289,128.181205,37.940062,6999.7048728,2.548,-1.537,1.807
6.1456,128.181206,37.940108,6999.4366488000005,2.693,-1.531,1.807
6.1623,128.181207,37.940154,6999.1690344,2.838,-1.526,1.808
6.179,128.181209,37.9402,6998.9023344,2.992,-1.522,1.81
6.1956,128.18121,37.940246,6998.637463200001,3.125,-1.517,1.809
6.2124,128.181211,37.940292,6998.3744208,3.24,-1.511,1.806
6.2291,128.181212,37.940338,6998.1132072,3.34,-1.504,1.801
6.2458,128.181214,37.940384,6997.852908,3.429,-1.497,1.797
6.2625,128.181215,37.94043,6997.5947424000005,3.5,-1.49,1.792
6.2791,128.181216,37.940477,6997.337796000001,3.56,-1.484,1.788
6.2958,128.181218,37.940523,6997.0820688,3.611,-1.477,1.783
6.3126,128.181219,37.940569,6996.8272560000005,3.661,-1.473,1.781
6.3293,128.18122,37.940615,6996.574576800001,3.703,-1.468,1.778
6.346,128.181221,37.940661,6996.3225072,3.74,-1.464,1.776
6.3627,128.181223,37.940707,6996.071656800001,3.778,-1.461,1.774
6.3793,128.181224,37.940753,6995.821111200001,3.824,-1.459,1.774
6.3961,128.181225,37.940799,6995.5726992,3.865,-1.458,1.774
6.4128,128.181227,37.940845,6995.325811200001,3.898,-1.455,1.771
6.4295,128.181228,37.940892,6995.080142400001,3.924,-1.451,1.767
6.4462,128.181229,37.940938,6994.835692800001,3.944,-1.448,1.763
6.4628,128.181231,37.940984,6994.593072000001,3.956,-1.444,1.758
6.4795,128.181232,37.94103,6994.3513656000005,3.961,-1.44,1.752
6.4963,128.181233,37.941076,6994.110878400001,3.961,-1.436,1.747
6.513,128.181235,37.941122,6993.8716104000005,3.955,-1.433,1.741
6.5297,128.181236,37.941169,6993.6335616,3.945,-1.43,1.736
6.5464,128.181237,37.941215,6993.396732,3.931,-1.428,1.731
6.5631,128.181239,37.941261,6993.1614264,3.912,-1.426,1.725
6.5798,128.18124,37.941307,6992.9267304,3.891,-1.424,1.719
6.5965,128.181241,37.941354,6992.6938632,3.865,-1.422,1.713
6.6132,128.181243,37.9414,6992.4616056,3.836,-1.418,1.707
6.6299,128.181244,37.941446,6992.231786400001,3.795,-1.413,1.699
6.6466,128.181246,37.941492,6992.002272,3.749,-1.409,1.691
6.6633,128.181247,37.941539,6991.7739768,3.7,-1.403,1.683
6.68,128.181248,37.941585,6991.5478152000005,3.639,-1.398,1.675
6.6967,128.18125,37.941631,6991.322263200001,3.571,-1.394,1.666
6.7134,128.181251,37.941678,6991.0973208,3.505,-1.389,1.659
6.7301,128.181253,37.941724,6990.874512,3.413,-1.392,1.649
6.7468,128.181254,37.94177,6990.653532,3.24,-1.403,1.634
6.7635,128.181255,37.941817,6990.4343808,3.014,-1.419,1.614
6.7802,128.181257,37.941863,6990.2179728,2.692,-1.44,1.59
6.7969,128.181258,37.941909,6990.0043080000005,2.275,-1.462,1.563
6.8136,128.18126,37.941956,6989.7936912000005,1.765,-1.485,1.535
6.8303,128.181261,37.942002,6989.5861224,1.178,-1.507,1.508
6.847,128.181263,37.942048,6989.382516,0.502,-1.526,1.482
6.8637,128.181264,37.942095,6989.1810432,-0.238,-1.542,1.457
6.8804,128.181265,37.942141,6988.982008800001,-0.981,-1.555,1.437
6.8971,128.181267,37.942187,6988.7848032,-1.679,-1.563,1.425
6.9138,128.181268,37.942234,6988.5888168,-2.379,-1.567,1.416
6.9305,128.18127,37.94228,6988.3943544,-3.043,-1.569,1.409
6.9472,128.181271,37.942326,6988.2026352,-3.74,-1.568,1.399
6.9639,128.181272,37.942373,6988.0130496,-4.511,-1.566,1.383
6.9806,128.181274,37.942419,6987.8262072,-5.356,-1.564,1.363
6.9973,128.181275,37.942466,6987.6408888,-6.236,-1.56,1.342
7.014,128.181277,37.942512,6987.4570944,-7.1,-1.554,1.325
7.0307,128.181278,37.942558,6987.276347999999,-8.019,-1.546,1.308
7.0474,128.18128,37.942605,6987.095906400001,-8.936,-1.537,1.293
7.0641,128.181281,37.942651,6986.9169888,-9.806,-1.525,1.281
7.0808,128.181282,37.942698,6986.7408144,-10.7,-1.512,1.269
7.0975,128.181284,37.942744,6986.5646400000005,-11.577,-1.498,1.257
7.1142,128.181285,37.94279,6986.3896848,-12.399,-1.483,1.247
7.1309,128.181286,37.942837,6986.214729599999,-13.139,-1.465,1.241
7.1476,128.181288,37.942883,6986.041908,-13.952,-1.449,1.229
7.1643,128.181289,37.94293,6985.870915200001,-14.833,-1.434,1.209
7.181,128.18129,37.942976,6985.7017512,-15.761,-1.42,1.186
7.1977,128.181292,37.943022,6985.532892,-16.686,-1.405,1.164
7.2144,128.181293,37.943069,6985.366776,-17.685,-1.39,1.14
7.2311,128.181294,37.943115,6985.201879200001,-18.701,-1.374,1.117
7.2478,128.181296,37.943162,6985.037592000001,-19.676,-1.356,1.097
7.2645,128.181297,37.943208,6984.874219200001,-20.566,-1.335,1.084
7.2812,128.181298,37.943254,6984.7108464,-21.439,-1.314,1.072
7.2979,128.181299,37.943301,6984.547473600001,-22.261,-1.292,1.059
7.3146,128.181301,37.943347,6984.383796,-23.002,-1.269,1.048
7.3313,128.181302,37.943394,6984.221642400001,-23.749,-1.247,1.034
7.348,128.181303,37.94344,6984.0604032,-24.565,-1.228,1.012
7.3647,128.181304,37.943487,6983.900383200001,-25.452,-1.212,0.983
7.3814,128.181305,37.943533,6983.741582400001,-26.368,-1.197,0.953
7.3981,128.181307,37.943579,6983.5830864,-27.261,-1.181,0.927
7.4148,128.181308,37.943626,6983.4245904,-28.082,-1.162,0.907
7.4315,128.181309,37.943672,6983.268228000001,-28.907,-1.142,0.887
7.4482,128.18131,37.943719,6983.111256000001,-29.694,-1.122,0.867
7.4649,128.181311,37.943765,6982.954284000001,-30.411,-1.102,0.85
7.4816,128.181312,37.943812,6982.7970072,-31.041,-1.079,0.836
7.4983,128.181313,37.943858,6982.6391208,-31.58,-1.056,0.826
7.515,128.181314,37.943905,6982.4821488,-32.091,-1.033,0.813
7.5317,128.181315,37.943951,6982.3236528,-32.559,-1.014,0.798
7.5484,128.181316,37.943998,6982.1654616,-32.987,-0.994,0.78
7.5651,128.181317,37.944044,6982.006051200001,-33.37,-0.974,0.76
7.5818,128.181318,37.944091,6981.8457264,-33.706,-0.953,0.742
7.5985,128.181319,37.944137,6981.686011200001,-34.058,-0.935,0.72
7.6152,128.18132,37.944184,6981.526296000001,-34.41,-0.918,0.695
7.6319,128.181321,37.94423,6981.3665808000005,-34.744,-0.902,0.67
7.6486,128.181322,37.944277,6981.205646400001,-35.048,-0.886,0.647
7.6653,128.181323,37.944323,6981.0441024,-35.315,-0.869,0.628
7.682,128.181324,37.94437,6980.8834728,-35.605,-0.854,0.606
7.6987,128.181324,37.944416,6980.7228432,-35.899,-0.841,0.581
7.7154,128.181325,37.944463,6980.5625184,-36.181,-0.828,0.556
7.7321,128.181326,37.944509,6980.4009744,-36.441,-0.816,0.533
7.7488,128.181327,37.944556,6980.2391256,-36.672,-0.802,0.513
7.7655,128.181328,37.944602,6980.076972,-36.877,-0.787,0.496
7.7822,128.181328,37.944649,6979.913904,-37.052,-0.774,0.483
7.7989,128.181329,37.944695,6979.751750400001,-37.246,-0.762,0.466
7.8156,128.18133,37.944742,6979.590511200001,-37.533,-0.753,0.438
7.8323,128.18133,37.944789,6979.4295768,-37.913,-0.745,0.4
7.849,128.181331,37.944835,6979.2698616,-38.388,-0.738,0.356
7.8657,128.181332,37.944882,6979.111365600001,-38.943,-0.73,0.31
7.8824,128.181332,37.944928,6978.9540888,-39.546,-0.72,0.265
7.8991,128.181333,37.944975,6978.7989456000005,-40.241,-0.706,0.215
7.9158,128.181333,37.945021,6978.6453264,-41.023,-0.689,0.16
7.9325,128.181334,37.945068,6978.494145600001,-41.892,-0.669,0.101
7.9492,128.181334,37.945114,6978.3450984,-42.839,-0.659,0.047
7.9659,128.181335,37.945161,6978.1981848,-43.864,-0.668,0.008
7.9826,128.181335,37.945208,6978.053404800001,-44.965,-0.699,359.988
7.9993,128.181335,37.945254,6977.9101488,-46.139,-0.746,359.984
8.016,128.181335,37.945301,6977.7687216,-47.384,-0.803,359.989
8.0327,128.181336,37.945347,6977.628513600001,-48.698,-0.864,0.0
8.0494,128.181336,37.945394,6977.4898296,-50.08,-0.927,0.015
8.0661,128.181336,37.94544,6977.352364800001,-51.527,-0.99,0.03
8.0828,128.181336,37.945487,6977.2158144,-53.036,-1.05,0.046
8.0994,128.181336,37.945533,6977.0801784000005,-54.606,-1.108,0.06
8.1161,128.181336,37.94558,6976.9448472,-56.235,-1.163,0.073
8.1329,128.181336,37.945626,6976.8101256,-57.919,-1.215,0.085
8.1496,128.181336,37.945673,6976.6754040000005,-59.658,-1.264,0.095
8.1663,128.181335,37.94572,6976.540987200001,-61.447,-1.311,0.103
8.183,128.181335,37.945766,6976.406570400001,-63.287,-1.347,0.096
8.1997,128.181335,37.945813,6976.2721536,-65.173,-1.368,0.06
8.2164,128.181334,37.945859,6976.137432,-67.095,-1.369,359.981
8.2331,128.181334,37.945906,6976.0021008,-69.015,-1.344,359.846
8.2498,128.181334,37.945952,6975.8661600000005,-70.895,-1.293,359.647
8.2665,128.181333,37.945999,6975.7293048,-72.703,-1.216,359.375
8.2831,128.181332,37.946045,6975.5921448,-74.413,-1.113,359.019
8.2998,128.181332,37.946092,6975.453765600001,-76.006,-0.995,358.592
8.3166,128.181331,37.946139,6975.3147768,-77.47,-0.868,358.107
8.3333,128.18133,37.946185,6975.174873600001,-78.798,-0.741,357.576
8.35,128.181329,37.946232,6975.034056,-79.991,-0.619,357.018
8.3667,128.181328,37.946278,6974.8920192000005,-81.052,-0.508,356.452
8.3834,128.181327,37.946325,6974.749068,-81.988,-0.411,355.896
8.4001,128.181326,37.946371,6974.604592800001,-82.81,-0.331,355.37
8.4168,128.181325,37.946418,6974.4592032,-83.528,-0.268,354.881
8.4335,128.181324,37.946465,6974.3119848,-84.154,-0.22,354.429
8.4502,128.181323,37.946511,6974.163852000001,-84.7,-0.185,354.01
8.4668,128.181321,37.946558,6974.0138904000005,-85.177,-0.161,353.62
8.4835,128.18132,37.946604,6973.862709600001,-85.595,-0.146,353.257
8.5003,128.181318,37.946651,6973.7100048,-85.963,-0.14,352.917
8.517,128.181316,37.946698,6973.5554712,-86.288,-0.139,352.598
8.5337,128.181314,37.946744,6973.3994136,-86.579,-0.143,352.298
8.5504,128.181312,37.946791,6973.241832000001,-86.843,-0.15,352.016
8.5671,128.18131,37.946838,6973.0821168,-87.082,-0.16,351.749
8.5838,128.181308,37.946884,6972.9208776000005,-87.3,-0.173,351.496
8.6005,128.181306,37.946931,6972.7581144000005,-87.499,-0.188,351.255
8.6172,128.181303,37.946977,6972.593217600001,-87.683,-0.205,351.025
8.6339,128.1813,37.947024,6972.4264920000005,-87.853,-0.225,350.805
8.6505,128.181298,37.947071,6972.2579376,-88.011,-0.246,350.593
8.6672,128.181295,37.947117,6972.0875544,-88.159,-0.268,350.389
8.684,128.181292,37.947164,6971.915342400001,-88.299,-0.292,350.192
8.7007,128.181289,37.94721,6971.740996800001,-88.432,-0.317,350.001
8.7174,128.181285,37.947257,6971.564822400001,-88.558,-0.343,349.816
8.7341,128.181282,37.947304,6971.3865144,-88.679,-0.369,349.635
8.7508,128.181278,37.94735,6971.2063776,-88.795,-0.397,349.459
8.7675,128.181275,37.947397,6971.0241072,-88.908,-0.425,349.286
8.7842,128.181271,37.947443,6970.8397032,-89.018,-0.454,349.118
8.8009,128.181267,37.94749,6970.653165600001,-89.126,-0.483,348.953
8.8176,128.181263,37.947536,6970.4644944,-89.231,-0.512,348.791
8.8342,128.181258,37.947583,6970.2736896,-89.335,-0.541,348.632
8.8509,128.181254,37.947629,6970.080751200001,-89.438,-0.571,348.475
8.8676,128.181249,37.947676,6969.885679200001,-89.539,-0.601,348.321
8.8844,128.181245,37.947722,6969.6884736,-89.639,-0.631,348.168
8.9011,128.18124,37.947769,6969.4891344,-89.737,-0.661,348.017
8.9178,128.181235,37.947815,6969.2873568,-89.835,-0.692,347.867
8.9345,128.18123,37.947862,6969.0834456,-89.931,-0.724,347.719
8.9512,128.181225,37.947908,6968.877096,-90.027,-0.757,347.572
8.9679,128.181219,37.947954,6968.6689176,-90.123,-0.791,347.425
8.9846,128.181214,37.948001,6968.458300800001,-90.236,-0.827,347.279
9.0013,128.181208,37.948047,6968.245855200001,-90.443,-0.872,347.134
9.0179,128.181202,37.948094,6968.0309712,-90.746,-0.922,346.989
9.0346,128.181196,37.94814,6967.813344,-91.095,-0.973,346.844
9.0513,128.18119,37.948186,6967.592973600001,-91.465,-1.02,346.699
9.0681,128.181184,37.948232,6967.370164800001,-91.844,-1.066,346.553
9.0848,128.181177,37.948279,6967.1446128,-92.229,-1.109,346.407
9.1015,128.18117,37.948325,6966.9160128,-92.623,-1.153,346.26
9.1182,128.181164,37.948371,6966.684974400001,-93.027,-1.198,346.113
9.1349,128.181157,37.948418,6966.450888,-93.448,-1.245,345.966
9.1516,128.18115,37.948464,6966.2137536,-93.89,-1.295,345.818
9.1683,128.181143,37.94851,6965.9735712,-94.357,-1.347,345.669
9.185,128.181135,37.948556,6965.730340800001,-94.857,-1.402,345.52
9.2016,128.181128,37.948602,6965.4837576,-95.393,-1.46,345.37
9.2183,128.18112,37.948648,6965.2335168,-95.97,-1.521,345.22
9.235,128.181112,37.948694,6964.9799232000005,-96.595,-1.586,345.068
9.2518,128.181104,37.948741,6964.7223672,-97.272,-1.654,344.916
9.2685,128.181096,37.948787,6964.4608488,-98.007,-1.727,344.763
9.2852,128.181088,37.948833,6964.195368000001,-98.805,-1.803,344.61
9.3019,128.181079,37.948879,6963.925620000001,-99.672,-1.884,344.455
9.3186,128.181071,37.948924,6963.650995200001,-100.616,-1.97,344.299
9.3353,128.181062,37.94897,6963.3717983999995,-101.638,-2.061,344.142
9.352,128.181053,37.949016,6963.087420000001,-102.739,-2.158,343.984
9.3687,128.181044,37.949062,6962.797860000001,-103.916,-2.259,343.826
9.3854,128.181034,37.949108,6962.5028136,-105.166,-2.367,343.666
9.402,128.181025,37.949154,6962.2016712,-106.489,-2.48,343.505
9.4187,128.181015,37.9492,6961.894432800001,-107.882,-2.599,343.344
9.4355,128.181005,37.949245,6961.579574400001,-109.172,-2.708,343.176
9.4522,128.180995,37.949291,6961.258010400001,-110.363,-2.806,343.002
9.4689,128.180985,37.949337,6960.9312648000005,-111.622,-2.913,342.843
9.4856,128.180975,37.949382,6960.597204000001,-112.941,-3.027,342.712
9.5023,128.180965,37.949428,6960.2561328,-114.325,-3.14,342.623
9.519,128.180954,37.949474,6959.908051200001,-115.779,-3.24,342.585
9.5357,128.180943,37.949519,6959.5526544,-117.306,-3.323,342.6
9.5524,128.180933,37.949565,6959.1896376,-118.906,-3.393,342.651
9.5691,128.180922,37.94961,6958.818696,-120.581,-3.455,342.724
9.5857,128.180911,37.949656,6958.439524800001,-122.33,-3.518,342.801
9.6024,128.180899,37.949701,6958.052428800001,-124.154,-3.59,342.868
9.6192,128.180888,37.949746,6957.6564935999995,-126.052,-3.675,342.919
9.6359,128.180877,37.949792,6957.252328800001,-128.024,-3.774,342.951
9.6526,128.180865,37.949837,6956.839324800001,-130.071,-3.892,342.963
9.6693,128.180854,37.949882,6956.4174816,-132.189,-4.027,342.955
9.686,128.180842,37.949928,6955.9861896,-134.378,-4.184,342.929
9.7027,128.18083,37.949973,6955.5460584,-136.636,-4.363,342.884
9.7194,128.180818,37.950018,6955.0958688,-138.96,-4.565,342.824
9.7361,128.180807,37.950063,6954.6362304,-141.348,-4.792,342.749
9.7528,128.180795,37.950109,6954.166533600001,-143.798,-5.045,342.663
9.7694,128.180782,37.950154,6953.686473600001,-146.306,-5.324,342.569
9.7861,128.18077,37.950199,6953.1957456,-148.871,-5.63,342.468
9.8029,128.180758,37.950244,6952.6943496,-151.488,-5.964,342.365
9.8196,128.180746,37.950289,6952.1819808,-154.15,-6.326,342.261
9.8363,128.180733,37.950334,6951.658944,-156.799,-6.714,342.157
9.853,128.180721,37.950379,6951.1249344,-159.384,-7.122,342.057
9.8697,128.180709,37.950424,6950.5805616,-161.862,-7.542,341.963
9.8864,128.180696,37.950469,6950.025216,-164.2,-7.97,341.879
9.9031,128.180683,37.950514,6949.4595072,-166.392,-8.4,341.808
9.9198,128.180671,37.950559,6948.8834352,-168.439,-8.831,341.753
9.9365,128.180658,37.950604,6948.2970000000005,-170.346,-9.261,341.715
9.9531,128.180646,37.950649,6947.700201600001,-172.119,-9.687,341.696
9.9698,128.180633,37.950694,6947.09304,-173.763,-10.108,341.694
9.9865,128.18062,37.950739,6946.475820000001,-175.284,-10.523,341.708
10.0033,128.180608,37.950784,6945.8488464,-176.688,-10.93,341.738
10.02,128.180595,37.950829,6945.211509600001,-177.98,-11.329,341.782
10.0367,128.180582,37.950874,6944.564724000001,-179.167,-11.718,341.837
10.0534,128.180569,37.950919,6943.90788,179.746,-12.097,341.903
10.0701,128.180557,37.950964,6943.2415872,178.755,-12.465,341.978
10.0868,128.180544,37.951008,6942.5658456,177.856,-12.822,342.061
10.1035,128.180531,37.951053,6941.880655200001,177.044,-13.168,342.151
10.1202,128.180518,37.951098,6941.184492,176.309,-13.502,342.247
10.1368,128.180505,37.951143,6940.478270400001,175.633,-13.824,342.343
10.1535,128.180492,37.951188,6939.7607712,175.01,-14.136,342.438
10.1702,128.18048,37.951233,6939.0319944,174.436,-14.437,342.534
10.187,128.180467,37.951278,6938.2922448,173.909,-14.726,342.63
10.2037,128.180454,37.951323,6937.540608,173.426,-15.006,342.727
10.2204,128.180441,37.951367,6936.7773888,172.985,-15.275,342.825
10.2371,128.180428,37.951412,6936.002587200001,172.584,-15.535,342.924
10.2538,128.180416,37.951457,6935.2152888,172.219,-15.786,343.024
10.2705,128.180403,37.951502,6934.4161032,171.89,-16.029,343.125
10.2872,128.18039,37.951547,6933.6047256,171.593,-16.264,343.225
10.3039,128.180377,37.951591,6932.780851200001,171.328,-16.491,343.326
10.3205,128.180364,37.951636,6931.9447848,171.094,-16.712,343.427
10.3372,128.180352,37.951681,6931.0959168,170.887,-16.927,343.526
10.3539,128.180339,37.951726,6930.234247200001,170.708,-17.135,343.626
10.3707,128.180326,37.95177,6929.3600808,170.554,-17.338,343.724
10.3874,128.180313,37.951815,6928.472808,170.424,-17.536,343.822
10.4041,128.180301,37.95186,6927.572733600001,170.317,-17.73,343.918
10.4208,128.180288,37.951904,6926.6598576,170.232,-17.918,344.014
10.4375,128.180275,37.951949,6925.733570400001,170.167,-18.103,344.108
10.4542,128.180263,37.951994,6924.7941768,170.121,-18.284,344.201
10.4709,128.18025,37.952038,6923.841676800001,170.093,-18.461,344.293
10.4876,128.180237,37.952083,6922.875765600001,170.081,-18.635,344.383
10.5042,128.180225,37.952127,6921.8964432,170.085,-18.807,344.472
10.5209,128.180212,37.952172,6920.904014400001,170.103,-18.975,344.56
10.5376,128.180199,37.952216,6919.8978696,170.134,-19.14,344.646
10.5544,128.180187,37.952261,6918.8780088,170.176,-19.303,344.73
10.5711,128.180174,37.952305,6917.844736800001,170.23,-19.463,344.813
10.5878,128.180162,37.95235,6916.7977488,170.293,-19.621,344.894
10.6045,128.180149,37.952394,6915.7370448,170.365,-19.778,344.974
10.6212,128.180137,37.952439,6914.662624800001,170.444,-19.933,345.052
10.6379,128.180124,37.952483,6913.5744888,170.53,-20.086,345.128
10.6546,128.180112,37.952527,6912.4726368,170.62,-20.238,345.201
10.6713,128.180099,37.952572,6911.356764,170.715,-20.39,345.271
10.6879,128.180087,37.952616,6910.2271752,170.814,-20.54,345.34
10.7046,128.180075,37.95266,6909.083565600001,170.918,-20.69,345.407
10.7213,128.180062,37.952705,6907.9259352,171.024,-20.839,345.472
10.7381,128.18005,37.952749,6906.7545887999995,171.134,-20.987,345.536
10.7548,128.180038,37.952793,6905.5692216,171.247,-21.135,345.598
10.7715,128.180025,37.952837,6904.369528800001,171.361,-21.283,345.659
10.7882,128.180013,37.952881,6903.156120000001,171.477,-21.431,345.719
10.8049,128.180001,37.952926,6901.9286904,171.594,-21.578,345.777
10.8216,128.179989,37.95297,6900.6869352,171.711,-21.726,345.834
10.8383,128.179976,37.953014,6899.431464,171.829,-21.873,345.889
10.855,128.179964,37.953058,6898.1616672,171.946,-22.021,345.944
10.8717,128.179952,37.953102,6896.8778496,172.063,-22.168,345.997
10.8883,128.17994,37.953146,6895.579706400001,172.18,-22.316,346.049
10.905,128.179928,37.95319,6894.267847200001,172.296,-22.465,346.099
10.9218,128.179916,37.953234,6892.9416624000005,172.41,-22.613,346.148
10.9385,128.179903,37.953278,6891.601456800001,172.524,-22.762,346.197
10.9552,128.179891,37.953321,6890.2469255999995,172.636,-22.911,346.244
10.9719,128.179879,37.953365,6888.8783736000005,172.747,-23.061,346.289
10.9886,128.179867,37.953409,6887.4958008,172.857,-23.211,346.334
11.0053,128.179855,37.953453,6886.0989024,172.965,-23.361,346.378
11.022,128.179843,37.953497,6884.6879832,173.071,-23.512,346.42
11.0387,128.179831,37.95354,6883.262738400001,173.178,-23.663,346.464
11.0554,128.179819,37.953584,6881.823472800001,173.284,-23.814,346.507
11.072,128.179808,37.953628,6880.3701864,173.389,-23.966,346.55
11.0887,128.179796,37.953671,6878.902574400001,173.493,-24.117,346.593
11.1054,128.179784,37.953715,6877.4209416,173.595,-24.27,346.636
11.1222,128.179772,37.953758,6875.9249832000005,173.695,-24.422,346.678
11.1389,128.17976,37.953802,6874.4153088,173.793,-24.575,346.718
11.1556,128.179748,37.953845,6872.891004,173.889,-24.729,346.758
11.1723,128.179736,37.953889,6871.3529832,173.983,-24.882,346.797
11.189,128.179725,37.953932,6869.800332000001,174.075,-25.036,346.835
11.2057,128.179713,37.953975,6868.233964800001,174.165,-25.191,346.872
11.2224,128.179701,37.954019,6866.6532720000005,174.254,-25.346,346.909
11.2391,128.17969,37.954062,6865.0585584,174.341,-25.501,346.944
11.2557,128.179678,37.954105,6863.449824,174.427,-25.657,346.978
11.2724,128.179666,37.954148,6861.8270688,174.512,-25.812,347.012
11.2891,128.179655,37.954191,6860.189988000001,174.595,-25.969,347.045
11.3059,128.179643,37.954235,6858.538886400001,174.678,-26.125,347.077
11.3226,128.179631,37.954278,6856.873764000001,174.759,-26.282,347.109
11.3393,128.17962,37.954321,6855.1946208,174.839,-26.439,347.139
11.356,128.179608,37.954364,6853.501152000001,174.919,-26.597,347.169
11.3727,128.179597,37.954407,6851.7939672,174.997,-26.754,347.198
11.3894,128.179585,37.95445,6850.0724568000005,175.075,-26.912,347.227
11.4061,128.179574,37.954492,6848.3369256,175.152,-27.07,347.255
11.4228,128.179562,37.954535,6846.5873736,175.228,-27.229,347.282
11.4394,128.179551,37.954578,6844.823800800001,175.304,-27.387,347.308
11.4561,128.179539,37.954621,6843.0462072,175.379,-27.546,347.334
11.4728,128.179528,37.954664,6841.254592800001,175.452,-27.705,347.359
11.4896,128.179516,37.954706,6839.4489576,175.526,-27.865,347.383
11.5063,128.179505,37.954749,6837.629301600001,175.598,-28.024,347.407
11.523,128.179494,37.954791,6835.795624800001,175.669,-28.184,347.431
11.5397,128.179482,37.954834,6833.947927200001,175.74,-28.344,347.453
11.5564,128.179471,37.954876,6832.0862088,175.809,-28.504,347.476
11.5731,128.17946,37.954919,6830.210469600001,175.878,-28.664,347.497
11.5898,128.179448,37.954961,6828.3210144,175.945,-28.824,347.518
11.6065,128.179437,37.955004,6826.417233600001,176.012,-28.985,347.539
11.6231,128.179426,37.955046,6824.4997368,176.078,-29.145,347.559
11.6398,128.179415,37.955088,6822.5682192,176.143,-29.306,347.578
11.6565,128.179403,37.95513,6820.6226808,176.207,-29.467,347.597
11.6733,128.179392,37.955173,6818.6631216000005,176.27,-29.628,347.616
11.69,128.179381,37.955215,6816.689541600001,176.332,-29.789,347.634
11.7067,128.17937,37.955257,6814.7022456,176.393,-29.951,347.651
11.7234,128.179359,37.955299,6812.701233600001,176.454,-30.112,347.668
11.7401,128.179348,37.955341,6810.685896000001,176.513,-30.274,347.685
11.7568,128.179337,37.955383,6808.656842400001,176.572,-30.435,347.701
11.7735,128.179325,37.955425,6806.613768,176.63,-30.597,347.717
11.7902,128.179314,37.955467,6804.5569776,176.687,-30.759,347.732
11.8068,128.179303,37.955508,6802.4864712,176.744,-30.921,347.747
11.8235,128.179292,37.95555,6800.401944,176.799,-31.083,347.761
11.8402,128.179281,37.955592,6798.303396,176.854,-31.246,347.775
11.857,128.17927,37.955633,6796.191132000001,176.908,-31.408,347.789
11.8737,128.179259,37.955675,6794.065152000001,176.962,-31.57,347.802
11.8904,128.179249,37.955717,6791.925151200001,177.015,-31.733,347.815
11.9071,128.179238,37.955758,6789.7717391999995,177.067,-31.895,347.827
11.9238,128.179227,37.955799,6787.604001600001,177.118,-32.058,347.839
11.9405,128.179216,37.955841,6785.4228528,177.169,-32.221,347.851
11.9572,128.179205,37.955882,6783.227988000001,177.219,-32.384,347.863
11.9739,128.179194,37.955923,6781.0191024,177.269,-32.546,347.874
11.9905,128.179183,37.955965,6778.7965008,177.318,-32.709,347.884
12.0072,128.179173,37.956006,6776.560488000001,177.366,-32.872,347.894
12.0239,128.179162,37.956047,6774.310454400001,177.414,-33.035,347.904
12.0407,128.179151,37.956088,6772.0467048,177.461,-33.198,347.914
12.0574,128.17914,37.956129,6769.7692392,177.508,-33.361,347.923
12.0741,128.17913,37.95617,6767.4783624,177.554,-33.524,347.933
12.0908,128.179119,37.956211,6765.173464800001,177.6,-33.688,347.941
12.1075,128.179108,37.956252,6762.8551560000005,177.645,-33.851,347.95
12.1242,128.179098,37.956293,6760.5231312000005,177.689,-34.014,347.958
12.1409,128.179087,37.956333,6758.1773904,177.734,-34.177,347.966
12.1576,128.179076,37.956374,6755.818238400001,177.777,-34.341,347.973
12.1743,128.179066,37.956415,6753.445370400001,177.82,-34.504,347.98
12.1909,128.179055,37.956455,6751.0587864,177.863,-34.667,347.987
12.2076,128.179044,37.956496,6748.6587912,177.905,-34.831,347.994
12.2243,128.179034,37.956536,6746.24508,177.947,-34.994,348.001
12.2411,128.179023,37.956577,6743.8179576,177.988,-35.158,348.007
12.2578,128.179013,37.956617,6741.377424,178.029,-35.321,348.013
12.2745,128.179002,37.956657,6738.923174400001,178.069,-35.485,348.018
12.2912,128.178992,37.956697,6736.4555136,178.109,-35.648,348.024
12.3079,128.178981,37.956738,6733.9744416,178.149,-35.811,348.029
12.3246,128.178971,37.956778,6731.4796536,178.188,-35.975,348.034
12.3413,128.178961,37.956818,6728.971759200001,178.318,-36.125,348.029
12.358,128.17895,37.956858,6726.451977600001,178.537,-36.245,348.015
12.3746,128.17894,37.956898,6723.9200040000005,178.844,-36.322,347.993
12.3913,128.178929,37.956938,6721.376448,179.238,-36.34,347.967
12.408,128.178919,37.956978,6718.8225288,179.716,-36.286,347.938
12.4248,128.178909,37.957018,6716.259160800001,-179.722,-36.146,347.909
12.4415,128.178898,37.957057,6713.6860392,-179.082,-35.937,347.88
12.4582,128.178888,37.957097,6711.1043832000005,-178.366,-35.678,347.854
12.4749,128.178878,37.957137,6708.514192800001,-177.574,-35.386,347.831
12.4916,128.178867,37.957177,6705.9157728,-176.708,-35.081,347.811
12.5083,128.178857,37.957217,6703.3094280000005,-175.768,-34.781,347.794
12.525,128.178847,37.957256,6700.695463200001,-174.754,-34.501,347.779
12.5417,128.178836,37.957296,6698.0741832,-173.668,-34.241,347.766
12.5583,128.178826,37.957336,6695.4465024,-172.511,-34.0,347.755
12.575,128.178816,37.957376,6692.812116,-171.284,-33.778,347.747
12.5917,128.178805,37.957415,6690.171633600001,-169.989,-33.571,347.741
12.6085,128.178795,37.957455,6687.525055200001,-168.835,-33.383,347.763
12.6252,128.178784,37.957495,6684.8717712,-167.816,-33.213,347.812
12.6419,128.178774,37.957534,6682.212086400001,-166.935,-33.059,347.877
12.6586,128.178764,37.957574,6679.546305600001,-166.193,-32.919,347.951
12.6753,128.178753,37.957614,6676.873819200001,-165.59,-32.79,348.026
12.692,128.178743,37.957653,6674.194932,-165.123,-32.672,348.1
12.7087,128.178732,37.957693,6671.5093392,-164.785,-32.564,348.171
12.7254,128.178722,37.957733,6668.8173456,-164.574,-32.465,348.24
12.742,128.178711,37.957772,6666.1186464,-164.483,-32.376,348.305
12.7587,128.178701,37.957812,6663.4132416,-164.508,-32.295,348.367
12.7754,128.178691,37.957852,6660.700826400001,-164.644,-32.223,348.426
12.7922,128.17868,37.957891,6657.9817056,-164.888,-32.158,348.481
12.8089,128.17867,37.957931,6655.255574400001,-165.234,-32.1,348.534
12.8256,128.178659,37.95797,6652.5221280000005,-165.679,-32.049,348.583
12.8423,128.178649,37.95801,6649.7816712,-166.218,-32.004,348.629
12.859,128.178638,37.958049,6647.0335944,-166.849,-31.965,348.673
12.8757,128.178628,37.958089,6644.2782024,-167.566,-31.931,348.714
12.8924,128.178617,37.958128,6641.5151904,-168.367,-31.903,348.752
12.9091,128.178607,37.958167,6638.7448632000005,-169.248,-31.88,348.787
12.9257,128.178596,37.958207,6635.9675256,-170.206,-31.861,348.82
12.9424,128.178586,37.958246,6633.183177600001,-171.237,-31.846,348.852
12.9591,128.178575,37.958285,6630.391819200001,-172.339,-31.835,348.881
12.9759,128.178564,37.958325,6627.5937552000005,-173.508,-31.827,348.909
12.9926,128.178554,37.958364,6624.7886808,-174.743,-31.822,348.935
13.0093,128.178543,37.958403,6621.9769008,-176.04,-31.82,348.96
13.026,128.178533,37.958442,6619.1584152000005,-177.397,-31.821,348.984
13.0427,128.178522,37.958482,6616.333528800001,-178.811,-31.824,349.007
13.0594,128.178512,37.958521,6613.502546400001,179.942,-31.829,349.0
13.0761,128.178501,37.95856,6610.666077600001,178.857,-31.835,348.964
13.0928,128.178491,37.958599,6607.8241224,177.937,-31.844,348.91
13.1095,128.17848,37.958638,6604.9772904,177.186,-31.855,348.85
13.1262,128.17847,37.958678,6602.1252768,176.6,-31.867,348.789
13.1429,128.17846,37.958717,6599.268996000001,176.176,-31.882,348.73
13.1596,128.178449,37.958756,6596.4087528,175.905,-31.898,348.674
13.1763,128.178439,37.958795,6593.5442424,175.783,-31.915,348.621
13.193,128.178428,37.958834,6590.676379200001,175.801,-31.934,348.57
13.2097,128.178418,37.958874,6587.805163200001,175.954,-31.954,348.52
13.2264,128.178407,37.958913,6584.9305944,176.235,-31.975,348.472
13.2431,128.178397,37.958952,6582.053587200001,176.638,-31.997,348.426
13.2598,128.178386,37.958991,6579.173836800001,177.158,-32.019,348.381
13.2765,128.178376,37.95903,6576.291647999999,177.789,-32.041,348.337
13.2932,128.178365,37.95907,6573.4076304,178.527,-32.062,348.294
13.3099,128.178355,37.959109,6570.5196504000005,179.13,-32.098,348.272
13.3266,128.178344,37.959148,6567.628317600001,179.601,-32.166,348.271
13.3433,128.178334,37.959187,6564.7327176,179.939,-32.279,348.282
13.36,128.178323,37.959227,6561.8322408,-179.858,-32.454,348.296
13.3767,128.178313,37.959266,6558.925972800001,-179.791,-32.702,348.307
13.3934,128.178302,37.959305,6556.0136088,-179.85,-33.034,348.32
13.4101,128.178292,37.959344,6553.0939296,179.971,-33.459,348.336
13.4268,128.178281,37.959384,6550.1660208,179.677,-33.961,348.355
13.4435,128.178271,37.959423,6547.2292728,179.271,-34.526,348.377
13.4602,128.17826,37.959462,6544.2824664,178.762,-35.134,348.407
13.4769,128.17825,37.959501,6541.3256016000005,178.174,-35.763,348.445
13.4936,128.178239,37.95954,6538.357154400001,177.531,-36.393,348.488
13.5103,128.178229,37.959579,6535.378344,176.855,-37.002,348.537
13.527,128.178219,37.959618,6532.388560800001,176.165,-37.568,348.589
13.5437,128.178208,37.959657,6529.387804800001,175.476,-38.084,348.643
13.5604,128.178198,37.959696,6526.3754664,174.801,-38.553,348.698
13.5771,128.178188,37.959734,6523.3521552,174.149,-38.984,348.755
13.5938,128.178177,37.959773,6520.3172616,173.526,-39.383,348.814
13.6105,128.178167,37.959812,6517.2707856,172.934,-39.756,348.875
13.6272,128.178157,37.959851,6514.2121176,172.377,-40.105,348.94
13.6439,128.178146,37.959889,6511.1415624,171.855,-40.436,349.009
13.6606,128.178136,37.959928,6508.059120000001,171.367,-40.748,349.081
13.6773,128.178126,37.959966,6504.9641808,170.912,-41.046,349.156
13.694,128.178116,37.960005,6501.8567448,170.487,-41.329,349.233
13.7107,128.178106,37.960043,6498.736812,170.09,-41.6,349.311
13.7274,128.178096,37.960081,6495.604382400001,169.719,-41.86,349.389
13.7441,128.178086,37.96012,6492.46098,169.465,-42.114,349.445
13.7608,128.178076,37.960158,6489.305385600001,169.326,-42.361,349.48
13.7775,128.178066,37.960196,6486.1382088,169.301,-42.602,349.503
13.7942,128.178056,37.960234,6482.9594496,169.388,-42.836,349.519
13.8109,128.178046,37.960272,6479.7697176,169.585,-43.063,349.533
13.8276,128.178036,37.96031,6476.568708,169.889,-43.284,349.545
13.8443,128.178026,37.960348,6473.3567256,170.295,-43.498,349.556
13.861,128.178017,37.960386,6470.1340752,170.799,-43.707,349.565
13.8777,128.178007,37.960424,6466.900452000001,171.397,-43.911,349.571
13.8944,128.177997,37.960462,6463.6555512,172.087,-44.109,349.573
13.9111,128.177988,37.9605,6460.3993728000005,172.864,-44.303,349.572
13.9278,128.177978,37.960537,6457.1322216,173.726,-44.492,349.565
13.9445,128.177968,37.960575,6453.853488000001,174.669,-44.676,349.553
13.9612,128.177959,37.960613,6450.5637816,175.692,-44.857,349.535
13.9779,128.177949,37.96065,6447.262797600001,176.792,-45.033,349.51
13.9946,128.177939,37.960688,6443.950536,177.967,-45.206,349.479
14.0113,128.17793,37.960725,6440.626692000001,179.215,-45.374,349.44
14.028,128.17792,37.960762,6437.291570400001,-179.466,-45.54,349.394
14.0447,128.177911,37.9608,6433.9451712,-178.078,-45.703,349.341
14.0614,128.177901,37.960837,6430.5874944,-176.622,-45.862,349.279
14.0781,128.177892,37.960874,6427.2188448,-175.102,-46.003,349.21
14.0948,128.177882,37.960911,6423.8389176,-173.519,-46.109,349.138
14.1115,128.177873,37.960948,6420.447408,-172.091,-46.2,349.095
14.1282,128.177863,37.960985,6417.0446208,-170.808,-46.293,349.079
14.1449,128.177854,37.961022,6413.6296416000005,-169.668,-46.403,349.074
14.1616,128.177844,37.961059,6410.20308,-168.668,-46.532,349.065
14.1783,128.177835,37.961096,6406.7640216,-167.803,-46.678,349.049
14.195,128.177826,37.961132,6403.3127712,-167.069,-46.835,349.023
14.2117,128.177816,37.961169,6399.849024000001,-166.461,-47.002,348.986
14.2284,128.177806,37.961205,6396.372170400001,-165.974,-47.174,348.942
14.2451,128.177797,37.961242,6392.882515200001,-165.603,-47.351,348.89
14.2618,128.177787,37.961278,6389.3797536,-165.343,-47.53,348.832
14.2785,128.177778,37.961314,6385.8635808,-165.189,-47.712,348.77
14.2952,128.177768,37.96135,6382.333692,-165.138,-47.896,348.704
14.3119,128.177759,37.961386,6378.790087200001,-165.186,-48.08,348.637
14.3286,128.177749,37.961422,6375.2324616,-165.329,-48.265,348.568
14.3453,128.17774,37.961458,6371.660815200001,-165.563,-48.451,348.499
14.362,128.17773,37.961494,6368.074538400001,-165.886,-48.637,348.43
14.3787,128.17772,37.961529,6364.473936,-166.295,-48.823,348.363
14.3954,128.177711,37.961565,6360.8583984,-166.787,-49.009,348.298
14.4121,128.177701,37.9616,6357.2285352,-167.359,-49.196,348.235
14.4288,128.177692,37.961635,6353.5840416,-168.009,-49.383,348.177
14.4455,128.177682,37.96167,6349.9252224,-168.735,-49.57,348.122
14.4622,128.177672,37.961705,6346.2517728,-169.536,-49.757,348.072
14.4789,128.177663,37.96174,6342.563997600001,-170.408,-49.945,348.028
14.4956,128.177653,37.961775,6338.861592,-171.352,-50.133,347.99
14.5123,128.177643,37.961809,6335.144860800001,-172.364,-50.32,347.958
14.529,128.177634,37.961844,6331.413804,-173.445,-50.508,347.934
14.5457,128.177624,37.961878,6327.6681168,-174.592,-50.696,347.918
14.5624,128.177614,37.961912,6323.908104,-175.805,-50.884,347.91
14.5791,128.177605,37.961946,6320.133460800001,-177.082,-51.072,347.911
14.5958,128.177595,37.96198,6316.344796800001,-178.423,-51.259,347.921
14.6125,128.177586,37.962014,6312.5424168,-179.599,-51.429,347.901
14.6292,128.177576,37.962048,6308.7269304,179.385,-51.565,347.85
14.6459,128.177567,37.962082,6304.898337600001,178.529,-51.65,347.782
14.6626,128.177557,37.962115,6301.0575528,177.829,-51.669,347.708
14.6793,128.177548,37.962149,6297.2048808,177.281,-51.641,347.636
14.696,128.177539,37.962182,6293.3409312,176.879,-51.586,347.569
14.7127,128.177529,37.962216,6289.4653992,176.614,-51.524,347.507
14.7294,128.17752,37.962249,6285.579504,176.481,-51.473,347.451
14.7461,128.177511,37.962282,6281.6832456,176.472,-51.45,347.4
14.7628,128.177501,37.962315,6277.776624000001,176.582,-51.469,347.355
14.7795,128.177492,37.962348,6273.8605536000005,176.805,-51.545,347.316
14.7962,128.177483,37.962381,6269.934424800001,177.136,-51.687,347.283
14.8129,128.177474,37.962414,6265.9988472000005,177.574,-51.882,347.253
14.8296,128.177465,37.962447,6262.053211200001,178.115,-52.115,347.224
14.8463,128.177456,37.96248,6258.0978216,178.758,-52.372,347.194
14.863,128.177446,37.962512,6254.1326784,179.498,-52.64,347.16
14.8797,128.177437,37.962545,6250.158391200001,-179.667,-52.912,347.122
14.8964,128.177428,37.962578,6246.174350400001,-178.74,-53.179,347.077
14.9131,128.177419,37.96261,6242.1802512,-177.726,-53.439,347.025
14.9298,128.17741,37.962643,6238.177008,-176.627,-53.673,346.966
14.9465,128.177401,37.962675,6234.163706400001,-175.45,-53.861,346.903
14.9632,128.177392,37.962707,6230.141260800001,-174.201,-53.986,346.84
14.9799,128.177383,37.96274,6226.1096712,-172.887,-54.03,346.784
14.9966,128.177374,37.962772,6222.0698520000005,-171.517,-53.978,346.742
15.0133,128.177365,37.962804,6218.020279200001,-170.334,-53.853,346.76
15.03,128.177356,37.962836,6213.9621720000005,-169.33,-53.679,346.833
15.0467,128.177347,37.962868,6209.8955304,-168.495,-53.474,346.94
15.0634,128.177338,37.9629,6205.8200496,-167.82,-53.26,347.06
15.0801,128.177329,37.962932,6201.7357296,-167.295,-53.055,347.179
15.0968,128.17732,37.962964,6197.64318,-166.907,-52.88,347.286
15.1135,128.177311,37.962996,6193.5417912,-166.645,-52.75,347.374
15.1302,128.177302,37.963028,6189.4321728,-166.499,-52.681,347.438
15.1469,128.177293,37.963059,6185.313715200001,-166.458,-52.688,347.472
15.1636,128.177284,37.963091,6181.186418400001,-166.513,-52.784,347.472
15.1803,128.177274,37.963123,6177.049977600001,-166.657,-52.971,347.435
15.197,128.177265,37.963154,6172.9034784000005,-166.891,-53.237,347.369
15.2137,128.177256,37.963185,6168.746615999999,-167.214,-53.565,347.278
15.2304,128.177247,37.963216,6164.5787808000005,-167.627,-53.941,347.169
15.2471,128.177238,37.963248,6160.399668,-168.13,-54.351,347.05
15.2638,128.177229,37.963278,6156.208668,-168.726,-54.775,346.928
15.2805,128.17722,37.963309,6152.0057808,-169.417,-55.193,346.813
15.2972,128.177211,37.96334,6147.790396800001,-170.205,-55.586,346.713
