Time,Longitude,Latitude,Altitude,Roll (deg),Pitch (deg),Yaw (deg)
0.0,128.181881,37.923466,7000.0816056,0.0,-0.003,179.999
0.0167,128.181881,37.923421,7000.0630128,0.0,-0.012,180.0
0.0334,128.181881,37.923376,7000.043505600001,0.0,-0.026,180.0
0.0501,128.181881,37.923331,7000.0233888,0.0,-0.042,180.0
0.0668,128.181881,37.923286,7000.0020528,0.0,-0.06,180.0
0.0834,128.181881,37.923241,6999.9801072,0.0,-0.08,180.0
0.1002,128.181881,37.923196,6999.957247200001,0.0,-0.1,180.0
0.1169,128.181881,37.923151,6999.9331680000005,0.0,-0.12,180.0
0.1336,128.181881,37.923106,6999.908479200001,0.001,-0.14,180.0
0.1503,128.181881,37.923061,6999.882876,0.001,-0.161,180.0
0.1669,128.181881,37.923016,6999.8560536,0.001,-0.181,180.0
0.1837,128.181881,37.922971,6999.8283168,0.002,-0.201,180.0
0.2004,128.181881,37.922926,6999.7996656000005,0.002,-0.221,180.0
0.2171,128.181881,37.922881,6999.770100000001,0.002,-0.24,180.0
0.2338,128.181881,37.922836,6999.739620000001,0.003,-0.26,180.0
0.2505,128.181881,37.922791,6999.7079208,0.003,-0.279,180.0
0.2672,128.181881,37.922746,6999.6753072,0.004,-0.297,180.0
0.2839,128.181881,37.922701,6999.641779200001,0.004,-0.316,180.0
0.3006,128.181881,37.922656,6999.607032000001,0.005,-0.334,180.0
0.3172,128.181881,37.922611,6999.571370400001,0.006,-0.352,180.0
0.3339,128.181881,37.922566,6999.5344896,0.007,-0.37,180.0
0.3507,128.181881,37.922521,6999.4966944,0.007,-0.387,180.0
0.3674,128.181881,37.922475,6999.4579848,0.008,-0.405,180.0
0.3841,128.181881,37.92243,6999.418056,0.009,-0.422,180.0
0.4008,128.181881,37.922385,6999.376908,0.01,-0.439,180.0
0.4175,128.181881,37.92234,6999.3348456,0.011,-0.456,180.0
0.4342,128.181881,37.922295,6999.291564,0.013,-0.472,180.001
0.4509,128.181881,37.92225,6999.247368,0.014,-0.489,180.001
0.4676,128.181881,37.922204,6999.2022576,0.016,-0.505,180.001
0.4843,128.181881,37.922159,6999.1556232,0.017,-0.521,180.001
0.501,128.181881,37.922114,6999.108074400001,0.019,-0.537,180.001
0.5176,128.181881,37.922069,6999.059611200001,0.021,-0.553,180.001
0.5344,128.181881,37.922024,6999.009624,0.023,-0.569,180.001
0.5511,128.181881,37.921978,6998.958722400001,0.025,-0.584,180.001
0.5678,128.181881,37.921933,6998.9069064000005,0.028,-0.6,180.002
0.5845,128.181881,37.921888,6998.8535664,0.031,-0.615,180.002
0.6012,128.181881,37.921843,6998.799312,0.033,-0.63,180.002
0.6179,128.181881,37.921797,6998.7441432,0.037,-0.645,180.002
0.6345,128.181881,37.921752,6998.687450400001,0.04,-0.66,180.002
0.6513,128.181881,37.921707,6998.629843199999,0.044,-0.675,180.002
0.6679,128.181881,37.921662,6998.5710168,0.048,-0.69,180.003
0.6847,128.181881,37.921616,6998.5109712,0.052,-0.705,180.003
0.7014,128.181881,37.921571,6998.4500112000005,0.057,-0.72,180.003
0.7181,128.181881,37.921526,6998.387832,0.063,-0.734,180.004
0.7348,128.181881,37.92148,6998.324433600001,0.068,-0.749,180.004
0.7514,128.181881,37.921435,6998.259816,0.075,-0.764,180.004
0.7682,128.181881,37.92139,6998.193979200001,0.081,-0.778,180.005
0.7848,128.181881,37.921344,6998.1269232,0.089,-0.792,180.005
0.8016,128.181881,37.921299,6998.0589528,0.097,-0.807,180.006
0.8183,128.181881,37.921254,6997.9897632,0.105,-0.821,180.006
0.835,128.181881,37.921208,6997.9193544,0.115,-0.835,180.007
0.8517,128.181881,37.921163,6997.8477264,0.125,-0.849,180.007
0.8684,128.181881,37.921117,6997.774879200001,0.136,-0.864,180.008
0.8851,128.181881,37.921072,6997.7008128,0.148,-0.878,180.008
0.9018,128.181881,37.921027,6997.625527200001,0.161,-0.892,180.009
0.9185,128.181881,37.920981,6997.5490224000005,0.175,-0.906,180.01
0.9352,128.181881,37.920936,6997.4716032,0.191,-0.92,180.011
0.9519,128.181881,37.92089,6997.39266,0.208,-0.934,180.012
0.9686,128.181881,37.920845,6997.312497600001,0.226,-0.948,180.013
0.9853,128.181881,37.920799,6997.231116,0.246,-0.962,180.014
1.002,128.181881,37.920754,6997.14882,0.267,-0.976,180.015
1.0187,128.181881,37.920708,6997.0650000000005,0.291,-0.99,180.016
1.0353,128.181881,37.920663,6996.979960800001,0.316,-1.004,180.018
1.0521,128.181881,37.920617,6996.8937024,0.344,-1.017,180.019
1.0688,128.181881,37.920572,6996.806224800001,0.374,-1.031,180.021
1.0855,128.181881,37.920526,6996.7172232,0.407,-1.045,180.022
1.1022,128.181881,37.920481,6996.6270024,0.442,-1.059,180.024
1.1189,128.181881,37.920435,6996.5355624,0.481,-1.073,180.026
1.1356,128.181881,37.92039,6996.4429032,0.523,-1.087,180.029
1.1522,128.181881,37.920344,6996.348720000001,0.568,-1.101,180.031
1.169,128.181881,37.920299,6996.253317600001,0.617,-1.115,180.034
1.1857,128.181881,37.920253,6996.156696000001,0.671,-1.129,180.037
1.2024,128.181881,37.920207,6996.0585504,0.729,-1.143,180.04
1.2191,128.181881,37.920162,6995.9588808,0.793,-1.157,180.043
1.2358,128.181881,37.920116,6995.857992,0.862,-1.171,180.047
1.2525,128.181881,37.92007,6995.755579200001,0.937,-1.185,180.051
1.2691,128.18188,37.920025,6995.651642400001,1.018,-1.2,180.055
1.2859,128.18188,37.919979,6995.5464864000005,1.106,-1.214,180.06
1.3026,128.18188,37.919934,6995.439501600001,1.202,-1.228,180.065
1.3193,128.18188,37.919888,6995.330992800001,1.306,-1.243,180.07
1.3359,128.18188,37.919842,6995.220960000001,1.42,-1.258,180.076
1.3527,128.18188,37.919796,6995.1094032,1.543,-1.272,180.083
1.3694,128.18188,37.919751,6994.9960176,1.677,-1.287,180.09
1.386,128.18188,37.919705,6994.8811080000005,1.822,-1.302,180.097
1.4028,128.18188,37.919659,6994.7643696000005,1.98,-1.317,180.105
1.4195,128.18188,37.919614,6994.645802399999,2.152,-1.333,180.114
1.4362,128.18188,37.919568,6994.525406400001,2.339,-1.348,180.124
1.4528,128.18188,37.919522,6994.403181600001,2.543,-1.364,180.133
1.4696,128.18188,37.919476,6994.2788232,2.766,-1.38,180.143
1.4863,128.18188,37.919431,6994.152636000001,3.008,-1.397,180.153
1.5029,128.18188,37.919385,6994.024315200001,3.273,-1.413,180.163
1.5197,128.18188,37.919339,6993.893556000001,3.561,-1.43,180.174
1.5364,128.18188,37.919293,6993.760663200001,3.875,-1.448,180.185
1.5531,128.18188,37.919247,6993.6256368,4.217,-1.465,180.196
1.5697,128.18188,37.919201,6993.4878672,4.589,-1.483,180.207
1.5865,128.18188,37.919156,6993.347354400001,4.995,-1.502,180.219
1.6032,128.18188,37.91911,6993.2044032,5.436,-1.521,180.231
1.6198,128.18188,37.919064,6993.058404,5.917,-1.541,180.244
1.6366,128.18188,37.919018,6992.9096616,6.44,-1.561,180.257
1.6533,128.18188,37.918972,6992.7575664,7.01,-1.582,180.27
1.67,128.18188,37.918926,6992.6036424,7.551,-1.603,180.28
1.6867,128.18188,37.91888,6992.4475848,8.061,-1.624,180.284
1.7034,128.18188,37.918834,6992.290308,8.546,-1.645,180.286
1.7201,128.18188,37.918788,6992.1315072,9.01,-1.666,180.288
1.7368,128.18188,37.918742,6991.972096800001,9.46,-1.686,180.29
1.7535,128.18188,37.918696,6991.8108576,9.901,-1.708,180.293
1.7702,128.18188,37.91865,6991.6480944,10.339,-1.729,180.297
1.7869,128.18188,37.918604,6991.483502399999,10.778,-1.751,180.302
1.8036,128.18188,37.918558,6991.3173864,11.221,-1.773,180.308
1.8203,128.18188,37.918512,6991.149136800001,11.673,-1.796,180.315
1.837,128.18188,37.918466,6990.9790584,12.135,-1.818,180.322
1.8537,128.18188,37.91842,6990.806846400001,12.611,-1.841,180.329
1.8704,128.18188,37.918374,6990.6325008,13.1,-1.864,180.337
1.8871,128.18188,37.918328,6990.4563264,13.607,-1.887,180.345
1.9038,128.18188,37.918282,6990.2780184,14.13,-1.911,180.354
1.9205,128.18188,37.918236,6990.097272,14.673,-1.935,180.362
1.9372,128.181879,37.91819,6989.914392000001,15.235,-1.959,180.371
1.9539,128.181879,37.918144,6989.7293784,15.818,-1.983,180.379
1.9706,128.181879,37.918097,6989.5419264,16.422,-2.008,180.388
1.9873,128.181879,37.918051,6989.352036,17.05,-2.033,180.397
2.004,128.181879,37.918005,6989.1597071999995,17.701,-2.058,180.406
2.0207,128.181879,37.917959,6988.96494,18.376,-2.084,180.415
2.0374,128.181879,37.917913,6988.767734399999,19.078,-2.111,180.423
2.0541,128.181879,37.917867,6988.5677856,19.806,-2.138,180.432
2.0707,128.181879,37.91782,6988.3653984,20.561,-2.165,180.441
2.0875,128.181879,37.917774,6988.1602680000005,21.345,-2.193,180.45
2.1042,128.181879,37.917728,6987.9523944,22.159,-2.222,180.458
2.1208,128.181879,37.917682,6987.7420824,23.003,-2.251,180.467
2.1376,128.181879,37.917635,6987.5287224,23.88,-2.281,180.475
2.1543,128.181879,37.917589,6987.3123144,24.79,-2.311,180.482
2.171,128.181878,37.917543,6987.0931632,25.735,-2.342,180.489
2.1877,128.181878,37.917496,6986.870964000001,26.715,-2.373,180.496
2.2044,128.181878,37.91745,6986.6460216000005,27.733,-2.405,180.502
2.2211,128.181878,37.917404,6986.4177264,28.788,-2.438,180.507
2.2378,128.181878,37.917357,6986.186383200001,29.883,-2.471,180.512
2.2544,128.181878,37.917311,6985.951992,31.018,-2.505,180.516
2.2712,128.181878,37.917265,6985.714248,32.194,-2.539,180.52
2.2879,128.181878,37.917218,6985.473456000001,33.414,-2.575,180.522
2.3045,128.181878,37.917172,6985.229311200001,34.678,-2.61,180.524
2.3213,128.181878,37.917125,6984.9815088000005,35.988,-2.647,180.525
2.338,128.181878,37.917079,6984.7306584,37.345,-2.684,180.525
2.3546,128.181878,37.917032,6984.476150400001,38.75,-2.721,180.524
2.3714,128.181878,37.916986,6984.2182896,40.204,-2.76,180.521
2.3881,128.181878,37.916939,6983.957076,41.707,-2.798,180.518
2.4048,128.181878,37.916893,6983.6925096,43.257,-2.837,180.513
2.4215,128.181878,37.916846,6983.4245904,44.852,-2.877,180.507
2.4382,128.181878,37.9168,6983.1533184,46.492,-2.916,180.5
2.4549,128.181878,37.916753,6982.8789984,48.173,-2.955,180.491
2.4716,128.181878,37.916707,6982.6010208,49.896,-2.995,180.48
2.4882,128.181878,37.91666,6982.3199952,51.658,-3.034,180.468
2.505,128.181878,37.916613,6982.0359216,53.458,-3.073,180.454
2.5217,128.181878,37.916567,6981.7484952,55.295,-3.111,180.439
2.5383,128.181878,37.91652,6981.4580208,57.167,-3.15,180.422
2.5551,128.181878,37.916474,6981.1644984,59.074,-3.188,180.404
2.5718,128.181878,37.916427,6980.867928000001,61.013,-3.225,180.385
2.5884,128.181878,37.91638,6980.5680048,62.985,-3.262,180.364
2.6052,128.181878,37.916333,6980.2653384000005,64.987,-3.298,180.342
2.6219,128.181878,37.916287,6979.959624000001,67.02,-3.333,180.319
2.6386,128.181878,37.91624,6979.6508616,69.082,-3.368,180.294
2.6553,128.181878,37.916193,6979.3390512000005,71.171,-3.401,180.269
2.6719,128.181878,37.916146,6979.024497600001,73.288,-3.434,180.242
2.6887,128.181878,37.9161,6978.706896000001,75.431,-3.466,180.215
2.7054,128.181878,37.916053,6978.3865512,77.6,-3.496,180.187
2.722,128.181878,37.916006,6978.0634632,79.794,-3.526,180.158
2.7388,128.181878,37.915959,6977.7373272,82.011,-3.554,180.129
2.7555,128.181879,37.915912,6977.408448,84.252,-3.582,180.099
2.7721,128.181879,37.915866,6977.0768256,86.516,-3.608,180.068
2.7889,128.181879,37.915819,6976.74246,88.802,-3.633,180.037
2.8056,128.181879,37.915772,6976.405351200001,91.109,-3.657,180.006
2.8222,128.181879,37.915725,6976.065804,93.437,-3.68,179.974
2.839,128.181879,37.915678,6975.7235136,95.785,-3.702,179.942
2.8557,128.18188,37.915631,6975.3787848,98.153,-3.723,179.914
2.8724,128.18188,37.915584,6975.0313128,100.538,-3.744,179.894
2.8891,128.18188,37.915537,6974.6814024,102.941,-3.767,179.891
2.9057,128.18188,37.91549,6974.3290536,105.361,-3.795,179.906
2.9225,128.18188,37.915443,6973.9739616,107.796,-3.829,179.942
2.9392,128.18188,37.915396,6973.6164312,110.245,-3.87,179.999
2.9558,128.181881,37.915349,6973.2561576,112.709,-3.921,180.076
2.9726,128.181881,37.915302,6972.893445600001,115.185,-3.983,180.173
2.9893,128.181881,37.915255,6972.5279904,117.672,-4.058,180.289
3.0059,128.181881,37.915208,6972.159182400001,120.162,-4.147,180.422
3.0227,128.181881,37.915161,6971.7870216,122.639,-4.25,180.571
3.0394,128.181881,37.915114,6971.4112032,125.088,-4.369,180.734
3.056,128.181882,37.915066,6971.0308128,127.494,-4.503,180.91
3.0728,128.181882,37.915019,6970.6458504,129.846,-4.654,181.096
3.0895,128.181882,37.914972,6970.2554016,132.13,-4.823,181.292
3.1062,128.181882,37.914925,6969.8594664,134.339,-5.009,181.495
3.1229,128.181882,37.914878,6969.4571304,136.463,-5.214,181.704
3.1395,128.181881,37.914831,6969.047784000001,138.497,-5.436,181.915
3.1563,128.181881,37.914784,6968.6308176,140.438,-5.676,182.128
3.173,128.181881,37.914736,6968.2056216,142.281,-5.932,182.34
3.1896,128.181881,37.914689,6967.772196000001,144.028,-6.204,182.551
3.2064,128.18188,37.914642,6967.3296264,145.677,-6.491,182.758
3.2231,128.18188,37.914595,6966.877608,147.231,-6.792,182.961
3.2397,128.181879,37.914548,6966.4155312,148.691,-7.104,183.158
3.2565,128.181879,37.914501,6965.943396000001,150.062,-7.428,183.348
3.2732,128.181878,37.914454,6965.460288000001,151.347,-7.76,183.53
3.2899,128.181878,37.914406,6964.9662072,152.55,-8.099,183.705
3.3066,128.181877,37.914359,6964.460544,153.676,-8.445,183.871
3.3233,128.181876,37.914312,6963.9432984,154.729,-8.791,184.027
3.34,128.181875,37.914265,6963.413860800001,155.716,-9.136,184.172
3.3567,128.181874,37.914218,6962.8722312,156.641,-9.474,184.304
3.3734,128.181873,37.914171,6962.318104800001,157.508,-9.805,184.424
3.3901,128.181872,37.914124,6961.7508720000005,158.322,-10.128,184.532
3.4068,128.181871,37.914077,6961.170837600001,159.087,-10.443,184.629
3.4235,128.18187,37.91403,6960.577696800001,159.807,-10.748,184.716
3.4402,128.181869,37.913982,6959.97084,160.487,-11.045,184.793
3.4569,128.181868,37.913935,6959.350572,161.128,-11.334,184.861
3.4736,128.181867,37.913888,6958.716588000001,161.736,-11.614,184.921
3.4903,128.181865,37.913841,6958.068583200001,162.312,-11.888,184.974
3.507,128.181864,37.913794,6957.4065576,162.858,-12.154,185.021
3.5237,128.181862,37.913747,6956.7314256,163.453,-12.415,185.057
3.5404,128.181861,37.9137,6956.0428824,164.093,-12.671,185.083
3.5571,128.18186,37.913653,6955.3412328,164.768,-12.921,185.102
3.5738,128.181858,37.913606,6954.6264768,165.467,-13.167,185.116
3.5905,128.181856,37.913559,6953.8977,166.18,-13.406,185.126
3.6072,128.181855,37.913512,6953.1549024,166.898,-13.642,185.133
3.6239,128.181853,37.913465,6952.3977792000005,167.612,-13.872,185.138
3.6406,128.181852,37.913418,6951.6260256,168.313,-14.099,185.14
3.6573,128.18185,37.913372,6950.839032000001,168.996,-14.322,185.139
3.674,128.181848,37.913325,6950.037408,169.656,-14.542,185.135
3.6907,128.181846,37.913278,6949.2202392,170.29,-14.76,185.129
3.7074,128.181845,37.913231,6948.3881352,170.895,-14.975,185.12
3.7241,128.181843,37.913184,6947.5404864,171.47,-15.188,185.108
3.7408,128.181841,37.913137,6946.677292800001,172.014,-15.4,185.094
3.7575,128.181839,37.913091,6945.7985544,172.527,-15.61,185.077
3.7742,128.181837,37.913044,6944.904576,173.012,-15.819,185.058
3.7909,128.181835,37.912997,6943.994748,173.469,-16.026,185.038
3.8076,128.181833,37.91295,6943.06968,173.901,-16.232,185.018
3.8243,128.181831,37.912904,6942.1287624,174.308,-16.437,184.997
3.841,128.181829,37.912857,6941.1723,174.69,-16.641,184.975
3.8577,128.181827,37.91281,6940.200292800001,175.05,-16.844,184.951
3.8744,128.181825,37.912764,6939.212740800001,175.389,-17.046,184.926
3.8911,128.181823,37.912717,6938.2093392,175.707,-17.247,184.9
3.9078,128.181821,37.91267,6937.190697600001,176.007,-17.446,184.872
3.9245,128.181819,37.912624,6936.156511200001,176.29,-17.645,184.843
3.9412,128.181817,37.912577,6935.1064752,176.558,-17.842,184.813
3.9579,128.181815,37.912531,6934.0411992,176.811,-18.039,184.782
3.9746,128.181813,37.912484,6932.9600736,177.052,-18.234,184.75
3.9913,128.181811,37.912438,6931.863708,177.282,-18.428,184.717
4.008,128.181808,37.912391,6930.751797600001,177.5,-18.622,184.684
4.0247,128.181806,37.912345,6929.6243424,177.71,-18.814,184.65
4.0414,128.181804,37.912299,6928.4813424,177.91,-19.005,184.615
4.058,128.181802,37.912252,6927.322797600001,178.103,-19.195,184.58
4.0748,128.1818,37.912206,6926.1490128000005,178.288,-19.384,184.544
4.0915,128.181798,37.91216,6924.959378400001,178.467,-19.572,184.508
4.1082,128.181795,37.912113,6923.754504,178.64,-19.759,184.472
4.1249,128.181793,37.912067,6922.5340848,178.807,-19.946,184.435
4.1415,128.181791,37.912021,6921.2981208,178.97,-20.131,184.399
4.1583,128.181789,37.911975,6920.0469168,179.128,-20.316,184.362
4.175,128.181786,37.911929,6918.780168,179.283,-20.5,184.327
4.1917,128.181784,37.911883,6917.497874400001,179.434,-20.683,184.291
4.2084,128.181782,37.911837,6916.2003408,179.582,-20.866,184.257
4.2251,128.18178,37.91179,6914.8869576,179.728,-21.048,184.223
4.2417,128.181778,37.911744,6913.5586392,179.871,-21.229,184.189
4.2585,128.181775,37.911698,6912.2144712,-179.988,-21.41,184.157
4.2752,128.181773,37.911652,6910.855063200001,-179.851,-21.59,184.125
4.2919,128.181771,37.911607,6909.480415200001,-179.716,-21.77,184.094
4.3086,128.181769,37.911561,6908.0899176,-179.583,-21.949,184.063
4.3252,128.181766,37.911515,6906.6844848,-179.452,-22.128,184.033
4.342,128.181764,37.911469,6905.2632023999995,-179.323,-22.306,184.003
4.3587,128.181762,37.911423,6903.8269848,-179.197,-22.484,183.974
4.3754,128.18176,37.911377,6902.3752224,-179.072,-22.661,183.946
4.3921,128.181757,37.911332,6900.9079152,-178.949,-22.839,183.918
4.4088,128.181755,37.911286,6899.425368,-178.829,-23.016,183.89
4.4254,128.181753,37.91124,6897.927276,-178.71,-23.192,183.864
4.4422,128.181751,37.911195,6896.4142488,-178.593,-23.369,183.837
4.4589,128.181748,37.911149,6894.885372,-178.477,-23.545,183.811
4.4756,128.181746,37.911103,6893.341560000001,-178.364,-23.721,183.786
4.4923,128.181744,37.911058,6891.7822032,-178.253,-23.897,183.761
4.5089,128.181742,37.911012,6890.207606400001,-178.143,-24.072,183.737
4.5256,128.181739,37.910967,6888.617464800001,-178.036,-24.248,183.712
4.5424,128.181737,37.910922,6887.0120832,-177.931,-24.423,183.688
4.5591,128.181735,37.910876,6885.3914616,-177.828,-24.598,183.664
4.5758,128.181733,37.910831,6883.7556,-177.728,-24.773,183.64
4.5925,128.18173,37.910786,6882.1044984,-177.629,-24.948,183.615
4.6091,128.181728,37.91074,6880.437852000001,-177.533,-25.122,183.59
4.6259,128.181726,37.910695,6878.755965600001,-177.44,-25.297,183.566
4.6426,128.181724,37.91065,6877.059144,-177.348,-25.471,183.541
4.6593,128.181722,37.910605,6875.346777600001,-177.258,-25.645,183.516
4.676,128.181719,37.91056,6873.6191712,-177.17,-25.819,183.491
4.6927,128.181717,37.910515,6871.876020000001,-177.085,-25.993,183.465
4.7093,128.181715,37.91047,6870.1179336000005,-177.001,-26.167,183.44
4.7261,128.181713,37.910425,6868.3446072,-176.919,-26.341,183.415
4.7428,128.181711,37.91038,6866.5560408,-176.839,-26.515,183.389
4.7595,128.181708,37.910335,6864.7522344,-176.761,-26.688,183.363
4.7762,128.181706,37.91029,6862.933188000001,-176.685,-26.862,183.338
4.7928,128.181704,37.910245,6861.099206400001,-176.611,-27.035,183.312
4.8096,128.181702,37.9102,6859.24968,-176.538,-27.209,183.286
4.8263,128.1817,37.910156,6857.3849136,-176.468,-27.382,183.261
4.843,128.181698,37.910111,6855.505212,-176.4,-27.555,183.235
4.8597,128.181696,37.910066,6853.6102704,-176.333,-27.728,183.209
4.8764,128.181693,37.910022,6851.7000888,-176.269,-27.901,183.183
4.893,128.181691,37.909977,6849.774972,-176.206,-28.074,183.157
4.9098,128.181689,37.909933,6847.8343104000005,-176.145,-28.247,183.131
4.9265,128.181687,37.909888,6845.8787136,-176.087,-28.42,183.105
4.9432,128.181685,37.909844,6843.908181600001,-176.03,-28.593,183.079
4.9599,128.181683,37.909799,6841.922104800001,-175.975,-28.766,183.053
4.9765,128.181681,37.909755,6839.921397600001,-175.922,-28.938,183.027
4.9932,128.181679,37.909711,6837.905145600001,-175.871,-29.111,183.001
5.01,128.181677,37.909666,6835.8739584,-175.821,-29.283,182.975
5.0267,128.181675,37.909622,6833.827836,-175.774,-29.456,182.95
5.0434,128.181673,37.909578,6831.766473600001,-175.728,-29.629,182.924
5.0601,128.181671,37.909534,6829.690176,-175.685,-29.801,182.898
5.0767,128.181669,37.90949,6827.598638400001,-175.643,-29.973,182.872
5.0935,128.181667,37.909446,6825.492165600001,-175.603,-30.146,182.846
5.1102,128.181665,37.909402,6823.3707576,-175.564,-30.318,182.82
5.1269,128.181663,37.909358,6821.234414400001,-175.527,-30.491,182.795
5.1436,128.181661,37.909314,6819.0828312,-175.493,-30.663,182.769
5.1602,128.181659,37.90927,6816.9163128,-175.459,-30.835,182.743
5.1769,128.181657,37.909227,6814.734859200001,-175.428,-31.008,182.718
5.1937,128.181655,37.909183,6812.538165600001,-175.398,-31.18,182.692
5.2104,128.181653,37.909139,6810.3268416,-175.369,-31.352,182.667
5.2271,128.181651,37.909096,6808.1005824,-175.342,-31.524,182.642
5.2438,128.181649,37.909052,6805.859083200001,-175.317,-31.696,182.616
5.2604,128.181647,37.909009,6803.602953600001,-175.293,-31.869,182.591
5.2772,128.181646,37.908965,6801.331888799999,-175.271,-32.041,182.566
5.2939,128.181644,37.908922,6799.045888799999,-175.25,-32.213,182.541
5.3106,128.181642,37.908879,6796.7449536,-175.231,-32.385,182.516
5.3273,128.18164,37.908835,6794.429083200001,-175.212,-32.557,182.492
5.3439,128.181638,37.908792,6792.0982776,-175.196,-32.729,182.467
5.3606,128.181636,37.908749,6789.7528416000005,-175.18,-32.901,182.442
5.3774,128.181635,37.908706,6787.392470400001,-175.166,-33.073,182.418
5.3941,128.181633,37.908663,6785.017164000001,-175.153,-33.245,182.393
5.4108,128.181631,37.90862,6782.627227200001,-175.141,-33.417,182.369
5.4275,128.181629,37.908577,6780.2223552000005,-175.13,-33.589,182.345
5.4441,128.181628,37.908534,6777.8028527999995,-175.121,-33.761,182.321
5.4609,128.181626,37.908491,6775.3684152000005,-175.112,-33.933,182.297
5.4776,128.181624,37.908448,6772.919347200001,-175.105,-34.105,182.273
5.4943,128.181622,37.908405,6770.455344,-175.099,-34.277,182.25
5.511,128.181621,37.908363,6767.9767104,-175.093,-34.449,182.226
5.5277,128.181619,37.90832,6765.4834464000005,-175.089,-34.621,182.203
5.5443,128.181617,37.908278,6762.975552000001,-175.085,-34.793,182.179
5.5611,128.181616,37.908235,6760.4527224,-175.083,-34.965,182.156
5.5778,128.181614,37.908193,6757.9152624,-175.081,-35.137,182.133
5.5945,128.181612,37.90815,6755.363172,-175.08,-35.308,182.11
5.6112,128.181611,37.908108,6752.796451200001,-175.08,-35.48,182.088
5.6278,128.181609,37.908066,6750.2151,-175.081,-35.652,182.065
5.6445,128.181608,37.908024,6747.619118400001,-175.082,-35.824,182.043
5.6613,128.181606,37.907981,6745.0085064,-175.084,-35.996,182.02
5.678,128.181604,37.907939,6742.383264,-175.087,-36.168,181.998
5.6947,128.181603,37.907897,6739.743391200001,-175.09,-36.34,181.976
5.7114,128.181601,37.907855,6737.089192800001,-175.094,-36.512,181.954
5.728,128.1816,37.907813,6734.4203640000005,-175.099,-36.684,181.932
5.7448,128.181598,37.907772,6731.7369048,-175.104,-36.856,181.911
5.7615,128.181597,37.90773,6729.0388152000005,-175.11,-37.028,181.889
5.7782,128.181595,37.907688,6726.3264,-175.116,-37.2,181.868
5.7949,128.181594,37.907647,6723.5993544,-175.123,-37.372,181.847
5.8115,128.181592,37.907605,6720.8579832000005,-175.13,-37.544,181.826
5.8282,128.181591,37.907563,6718.101981600001,-175.138,-37.716,181.805
5.845,128.18159,37.907522,6715.3316544,-175.146,-37.888,181.784
5.8617,128.181588,37.907481,6712.547001600001,-175.154,-38.06,181.763
5.8784,128.181587,37.907439,6709.7477184,-175.163,-38.232,181.743
5.8951,128.181585,37.907398,6706.934109600001,-175.172,-38.404,181.723
5.9117,128.181584,37.907357,6704.1061752,-175.182,-38.576,181.702
5.9285,128.181583,37.907316,6701.2636104,-175.192,-38.748,181.682
5.9452,128.181581,37.907275,6698.407024800001,-175.202,-38.92,181.662
5.9619,128.18158,37.907234,6695.5358088,-175.213,-39.092,181.643
5.9786,128.181579,37.907193,6692.6505720000005,-175.223,-39.265,181.623
5.9952,128.181577,37.907152,6689.750704800001,-175.234,-39.437,181.603
6.0119,128.181576,37.907111,6686.8368168,-175.246,-39.609,181.584
6.0287,128.181575,37.90707,6683.9086032,-175.257,-39.781,181.565
6.0454,128.181573,37.90703,6680.966064,-175.269,-39.953,181.546
6.0621,128.181572,37.906989,6678.0091992,-175.281,-40.126,181.527
6.0788,128.181571,37.906949,6675.0380088,-175.293,-40.298,181.508
6.0954,128.18157,37.906908,6672.052797600001,-175.305,-40.47,181.489
6.1121,128.181569,37.906868,6669.053565600001,-175.317,-40.643,181.471
6.1289,128.181567,37.906828,6666.0397032,-175.33,-40.815,181.452
6.1456,128.181566,37.906787,6663.0121248000005,-175.343,-40.987,181.434
6.1623,128.181565,37.906747,6659.969916,-175.355,-41.16,181.416
6.179,128.181564,37.906707,6656.9139912,-175.368,-41.332,181.397
6.1956,128.181563,37.906667,6653.8437408,-175.381,-41.505,181.379
6.2124,128.181562,37.906627,6650.759469600001,-175.394,-41.677,181.362
6.2291,128.18156,37.906587,6647.6611776,-175.407,-41.85,181.344
6.2458,128.181559,37.906548,6644.54856,-175.42,-42.022,181.326
6.2625,128.181558,37.906508,6641.4222264,-175.433,-42.195,181.309
6.2791,128.181557,37.906468,6638.2815672,-175.447,-42.367,181.291
6.2958,128.181556,37.906429,6635.127192000001,-175.46,-42.54,181.274
6.3126,128.181555,37.906389,6631.9584912,-175.473,-42.713,181.257
6.3293,128.181554,37.90635,6628.776074400001,-175.487,-42.885,181.24
6.346,128.181553,37.906311,6625.5796368,-175.5,-43.058,181.223
6.3627,128.181552,37.906271,6622.3691784,-175.513,-43.231,181.206
6.3793,128.181551,37.906232,6619.1446992,-175.527,-43.403,181.189
6.3961,128.18155,37.906193,6615.9065040000005,-175.54,-43.576,181.173
6.4128,128.181549,37.906154,6612.654288000001,-175.553,-43.749,181.156
6.4295,128.181548,37.906115,6609.388356,-175.566,-43.922,181.14
6.4462,128.181547,37.906076,6606.1084032,-175.579,-44.095,181.123
6.4628,128.181546,37.906037,6602.8147344,-175.593,-44.268,181.107
6.4795,128.181545,37.905999,6599.507044800001,-175.606,-44.441,181.091
6.4963,128.181544,37.90596,6596.1856392,-175.619,-44.614,181.075
6.513,128.181543,37.905921,6592.8505176,-175.632,-44.787,181.059
6.5297,128.181542,37.905883,6589.50168,-175.645,-44.96,181.043
6.5464,128.181541,37.905845,6586.1391264,-175.658,-45.133,181.027
6.5631,128.18154,37.905806,6582.762552000001,-175.67,-45.306,181.012
6.5798,128.18154,37.905768,6579.3725664,-175.683,-45.479,180.996
6.5965,128.181539,37.90573,6575.968864800001,-175.696,-45.652,180.98
6.6132,128.181538,37.905692,6572.551142400001,-175.709,-45.826,180.965
6.6299,128.181537,37.905654,6569.1203136,-175.721,-45.999,180.95
6.6466,128.181536,37.905616,6565.675464000001,-175.733,-46.172,180.934
6.6633,128.181536,37.905578,6562.2172032,-175.746,-46.345,180.919
6.68,128.181535,37.90554,6558.7452264,-175.758,-46.519,180.904
6.6967,128.181534,37.905503,6555.2595336,-175.77,-46.692,180.889
6.7134,128.181533,37.905465,6551.7607344,-175.782,-46.866,180.874
6.7301,128.181532,37.905428,6548.247914400001,-175.794,-47.039,180.859
6.7468,128.181532,37.90539,6544.721988000001,-175.805,-47.213,180.844
6.7635,128.181531,37.905353,6541.1823456,-175.817,-47.386,180.829
6.7802,128.18153,37.905316,6537.6292920000005,-175.829,-47.56,180.814
6.7969,128.18153,37.905279,6534.0625224000005,-175.84,-47.733,180.799
6.8136,128.181529,37.905242,6530.482646400001,-175.851,-47.907,180.785
6.8303,128.181528,37.905205,6526.8893592,-175.863,-48.081,180.77
6.847,128.181527,37.905168,6523.2826608000005,-175.874,-48.255,180.756
6.8637,128.181527,37.905131,6519.6622464,-175.885,-48.428,180.741
6.8804,128.181526,37.905094,6516.0290304,-175.896,-48.602,180.727
6.8971,128.181526,37.905058,6512.3820984,-175.906,-48.776,180.712
6.9138,128.181525,37.905021,6508.722060000001,-175.917,-48.95,180.698
6.9305,128.181524,37.904985,6505.048610400001,-175.928,-49.124,180.684
6.9472,128.181524,37.904948,6501.361749600001,-175.938,-49.298,180.669
6.9639,128.181523,37.904912,6497.6617824,-175.948,-49.472,180.655
6.9806,128.181523,37.904876,6493.9487088000005,-175.958,-49.646,180.641
6.9973,128.181522,37.90484,6490.222528800001,-175.968,-49.82,180.627
7.014,128.181521,37.904804,6486.482937600001,-175.978,-49.994,180.613
7.0307,128.181521,37.904768,6482.73024,-175.987,-50.168,180.599
7.0474,128.18152,37.904732,6478.964436,-175.997,-50.343,180.584
7.0641,128.18152,37.904696,6475.1855256,-176.006,-50.517,180.57
7.0808,128.181519,37.904661,6471.3935088,-176.015,-50.691,180.556
7.0975,128.181519,37.904625,6467.5883856,-176.024,-50.866,180.542
7.1142,128.181518,37.90459,6463.7701560000005,-176.033,-51.04,180.529
7.1309,128.181518,37.904555,6459.939124800001,-176.041,-51.214,180.515
7.1476,128.181517,37.904519,6456.0949872,-176.05,-51.389,180.501
7.1643,128.181517,37.904484,6452.237743199999,-176.058,-51.563,180.487
7.181,128.181516,37.904449,6448.367697600001,-176.066,-51.738,180.473
7.1977,128.181516,37.904414,6444.4848504,-176.075,-51.913,180.459
7.2144,128.181516,37.904379,6440.588896800001,-176.083,-52.087,180.445
7.2311,128.181515,37.904344,6436.680141600001,-176.09,-52.262,180.431
7.2478,128.181515,37.90431,6432.75828,-176.098,-52.437,180.418
7.2645,128.181514,37.904275,6428.8239216,-176.106,-52.612,180.404
7.2812,128.181514,37.904241,6424.8767616,-176.113,-52.786,180.39
7.2979,128.181514,37.904206,6420.9164952,-176.12,-52.961,180.376
7.3146,128.181513,37.904172,6416.943732000001,-176.127,-53.136,180.362
7.3313,128.181513,37.904138,6412.9581672,-176.134,-53.311,180.349
7.348,128.181513,37.904104,6408.9598008,-176.141,-53.486,180.335
7.3647,128.181512,37.90407,6404.948937600001,-176.147,-53.661,180.321
7.3814,128.181512,37.904036,6400.9252728,-176.154,-53.836,180.307
7.3981,128.181512,37.904002,6396.888806400001,-176.16,-54.011,180.293
7.4148,128.181511,37.903969,6392.840148,-176.166,-54.187,180.28
7.4315,128.181511,37.903935,6388.778688,-176.172,-54.362,180.266
7.4482,128.181511,37.903901,6384.704426400001,-176.178,-54.537,180.252
7.4649,128.181511,37.903868,6380.617972800001,-176.184,-54.713,180.238
7.4816,128.18151,37.903835,6376.5187176,-176.189,-54.888,180.224
7.4983,128.18151,37.903802,6372.407270400001,-176.195,-55.063,180.21
7.515,128.18151,37.903769,6368.2833264,-176.2,-55.239,180.196
7.5317,128.18151,37.903736,6364.1468856,-176.205,-55.414,180.182
7.5484,128.181509,37.903703,6359.997948,-176.21,-55.59,180.168
7.5651,128.181509,37.90367,6355.8365136,-176.215,-55.766,180.154
7.5818,128.181509,37.903637,6351.6628872,-176.219,-55.941,180.14
7.5985,128.181509,37.903605,6347.477068800001,-176.223,-56.117,180.126
7.6152,128.181509,37.903572,6343.2787536000005,-176.227,-56.293,180.112
7.6319,128.181509,37.90354,6339.0682464,-176.231,-56.469,180.098
7.6486,128.181508,37.903508,6334.8455472000005,-176.235,-56.644,180.084
7.6653,128.181508,37.903476,6330.610656000001,-176.238,-56.82,180.07
7.682,128.181508,37.903444,6326.3635728,-176.241,-56.996,180.055
7.6987,128.181508,37.903412,6322.104297600001,-176.245,-57.172,180.041
7.7154,128.181508,37.90338,6317.8328304,-176.247,-57.348,180.027
7.7321,128.181508,37.903348,6313.5491712,-176.25,-57.524,180.012
7.7488,128.181508,37.903317,6309.253624800001,-176.253,-57.701,179.998
7.7655,128.181508,37.903285,6304.945886400001,-176.255,-57.877,179.983
7.7822,128.181508,37.903254,6300.626260800001,-176.258,-58.053,179.969
7.7989,128.181508,37.903222,6296.2944431999995,-176.26,-58.229,179.954
7.8156,128.181507,37.903191,6291.9510432,-176.262,-58.406,179.94
7.8323,128.181507,37.90316,6287.595451200001,-176.263,-58.582,179.925
7.849,128.181507,37.903129,6283.227972000001,-176.265,-58.759,179.91
7.8657,128.181507,37.903098,6278.8486056,-176.266,-58.935,179.895
7.8824,128.181507,37.903068,6274.457352,-176.267,-59.112,179.88
7.8991,128.181507,37.903037,6270.054211200001,-176.268,-59.288,179.865
7.9158,128.181507,37.903007,6265.639488000001,-176.269,-59.465,179.85
7.9325,128.181507,37.902976,6261.2128776,-176.27,-59.642,179.835
7.9492,128.181507,37.902946,6256.7746848,-176.27,-59.819,179.82
7.9659,128.181507,37.902916,6252.3246048,-176.271,-59.995,179.804
7.9826,128.181508,37.902886,6247.862942400001,-176.271,-60.172,179.789
7.9993,128.181508,37.902856,6243.3896976000005,-176.271,-60.349,179.774
8.016,128.181508,37.902826,6238.904870400001,-176.271,-60.526,179.758
8.0327,128.181508,37.902796,6234.408156,-176.27,-60.703,179.742
8.0494,128.181508,37.902767,6229.900164000001,-176.269,-60.88,179.727
8.0661,128.181508,37.902737,6225.3808944,-176.269,-61.057,179.711
8.0828,128.181508,37.902708,6220.8497376000005,-176.268,-61.235,179.695
8.0994,128.181508,37.902679,6216.3073032,-176.266,-61.412,179.679
8.1161,128.181508,37.90265,6211.7535912,-176.265,-61.589,179.662
8.1329,128.181508,37.902621,6207.188296800001,-176.263,-61.767,179.646
8.1496,128.181509,37.902592,6202.611724800001,-176.262,-61.944,179.63
8.1663,128.181509,37.902563,6198.023570400001,-176.26,-62.122,179.613
8.183,128.181509,37.902534,6193.4244432,-176.257,-62.299,179.597
8.1997,128.181509,37.902506,6188.814038400001,-176.255,-62.477,179.58
8.2164,128.181509,37.902478,6184.1923560000005,-176.252,-62.654,179.563
8.2331,128.181509,37.902449,6179.559396000001,-176.249,-62.832,179.546
8.2498,128.18151,37.902421,6174.9154632,-176.246,-63.01,179.529
8.2665,128.18151,37.902393,6170.2602528,-176.243,-63.188,179.512
8.2831,128.18151,37.902365,6165.594069600001,-176.24,-63.365,179.494
8.2998,128.18151,37.902337,6160.9169136,-176.236,-63.543,179.477
8.3166,128.18151,37.90231,6156.22848,-176.232,-63.721,179.459
8.3333,128.181511,37.902282,6151.5293784000005,-176.228,-63.899,179.441
8.35,128.181511,37.902255,6146.8189992,-176.223,-64.077,179.423
8.3667,128.181511,37.902227,6142.097952000001,-176.219,-64.256,179.405
8.3834,128.181511,37.9022,6137.365932000001,-176.214,-64.434,179.386
8.4001,128.181512,37.902173,6132.6229392,-176.209,-64.612,179.368
8.4168,128.181512,37.902146,6127.8692784,-176.204,-64.79,179.349
8.4335,128.181512,37.902119,6123.1049496000005,-176.199,-64.969,179.33
8.4502,128.181513,37.902093,6118.329648,-176.193,-65.147,179.311
8.4668,128.181513,37.902066,6113.5436784,-176.187,-65.326,179.292
8.4835,128.181513,37.90204,6108.7470408,-176.181,-65.504,179.273
8.5003,128.181514,37.902013,6103.94004,-176.175,-65.683,179.253
8.517,128.181514,37.901987,6099.1220664,-176.168,-65.862,179.233
8.5337,128.181514,37.901961,6094.2937296,-176.162,-66.04,179.213
8.5504,128.181515,37.901935,6089.454724800001,-176.155,-66.219,179.193
8.5671,128.181515,37.901909,6084.605356800001,-176.147,-66.398,179.173
8.5838,128.181515,37.901884,6079.7456256,-176.14,-66.577,179.152
8.6005,128.181516,37.901858,6074.8752264,-176.132,-66.756,179.131
8.6172,128.181516,37.901833,6069.9947688,-176.124,-66.935,179.11
8.6339,128.181517,37.901807,6065.1036432,-176.115,-67.114,179.089
8.6505,128.181517,37.901782,6060.202459200001,-176.107,-67.293,179.067
8.6672,128.181517,37.901757,6055.2909119999995,-176.098,-67.472,179.045
8.684,128.181518,37.901732,6050.369001600001,-176.088,-67.651,179.023
8.7007,128.181518,37.901707,6045.4370328,-176.079,-67.831,179.001
8.7174,128.181519,37.901683,6040.495005600001,-176.069,-68.01,178.978
8.7341,128.181519,37.901658,6035.542615200001,-176.058,-68.19,178.956
8.7508,128.18152,37.901634,6030.5804712,-176.048,-68.369,178.932
8.7675,128.18152,37.901609,6025.607964000001,-176.037,-68.549,178.909
8.7842,128.181521,37.901585,6020.6257032,-176.026,-68.728,178.885
8.8009,128.181521,37.901561,6015.633384000001,-176.014,-68.908,178.861
8.8176,128.181521,37.901537,6010.631006400001,-176.002,-69.088,178.837
8.8342,128.181522,37.901514,6005.61918,-175.99,-69.267,178.812
8.8509,128.181523,37.90149,6000.5969904,-175.977,-69.447,178.787
8.8676,128.181523,37.901467,5995.5653520000005,-175.964,-69.627,178.761
8.8844,128.181524,37.901443,5990.52396,-175.95,-69.807,178.736
8.9011,128.181524,37.90142,5985.4725096,-175.936,-69.987,178.709
8.9178,128.181525,37.901397,5980.4116104,-175.922,-70.167,178.683
8.9345,128.181525,37.901374,5975.3412624,-175.907,-70.347,178.656
8.9512,128.181526,37.901351,5970.261160800001,-175.892,-70.528,178.629
8.9679,128.181526,37.901329,5965.171305600001,-175.876,-70.708,178.601
8.9846,128.181527,37.901306,5960.0723064,-175.86,-70.888,178.573
9.0013,128.181527,37.901284,5954.9635536000005,-175.844,-71.069,178.544
9.0179,128.181528,37.901262,5949.845352000001,-175.827,-71.249,178.515
9.0346,128.181529,37.90124,5944.7180064,-175.809,-71.43,178.486
9.0513,128.181529,37.901218,5939.5809072,-175.791,-71.61,178.456
9.0681,128.18153,37.901196,5934.4349688,-175.773,-71.791,178.425
9.0848,128.18153,37.901174,5929.2795816,-175.754,-71.972,178.394
9.1015,128.181531,37.901152,5924.114745600001,-175.735,-72.152,178.363
9.1182,128.181532,37.901131,5918.941070400001,-175.715,-72.333,178.331
9.1349,128.181532,37.90111,5913.757946400001,-175.695,-72.514,178.299
9.1516,128.181533,37.901089,5908.565983200001,-175.674,-72.695,178.265
9.1683,128.181534,37.901068,5903.364876,-175.652,-72.876,178.232
9.185,128.181534,37.901047,5898.154929599999,-175.63,-73.057,178.197
9.2016,128.181535,37.901026,5892.9358391999995,-175.607,-73.238,178.163
9.2183,128.181536,37.901006,5887.707909600001,-175.584,-73.419,178.127
9.235,128.181536,37.900985,5882.470836,-175.56,-73.601,178.091
9.2518,128.181537,37.900965,5877.225228,-175.535,-73.782,178.054
9.2685,128.181538,37.900945,5871.9707808,-175.509,-73.963,178.016
9.2852,128.181538,37.900925,5866.7077992,-175.483,-74.145,177.978
9.3019,128.181539,37.900905,5861.435673600001,-175.456,-74.326,177.939
9.3186,128.18154,37.900885,5856.1553184,-175.428,-74.508,177.899
9.3353,128.181541,37.900866,5850.866124000001,-175.399,-74.69,177.858
9.352,128.181541,37.900846,5845.5683952,-175.37,-74.871,177.816
9.3687,128.181542,37.900827,5840.262132000001,-175.339,-75.053,177.774
9.3854,128.181543,37.900808,5834.9476392,-175.308,-75.235,177.73
9.402,128.181544,37.900789,5829.6243072,-175.275,-75.416,177.686
9.4187,128.181544,37.90077,5824.2930504000005,-175.242,-75.598,177.641
9.4355,128.181545,37.900751,5818.9532592000005,-175.208,-75.78,177.594
9.4522,128.181546,37.900733,5813.6052384,-175.173,-75.962,177.547
9.4689,128.181547,37.900714,5808.248988,-175.137,-76.144,177.498
9.4856,128.181547,37.900696,5802.884508,-175.099,-76.326,177.449
9.5023,128.181548,37.900678,5797.5117984,-175.061,-76.508,177.398
9.519,128.181549,37.90066,5792.131164,-175.021,-76.69,177.346
9.5357,128.18155,37.900642,5786.7423,-174.98,-76.872,177.293
9.5524,128.181551,37.900624,5781.345511200001,-174.938,-77.055,177.238
9.5691,128.181551,37.900607,5775.9411024,-174.894,-77.237,177.182
9.5857,128.181552,37.90059,5770.528464,-174.849,-77.419,177.124
9.6024,128.181553,37.900572,5765.107900800001,-174.802,-77.601,177.065
9.6192,128.181554,37.900555,5759.6797176,-174.754,-77.784,177.005
9.6359,128.181555,37.900538,5754.243914400001,-174.704,-77.966,176.942
9.6526,128.181556,37.900522,5748.800186400001,-174.652,-78.149,176.878
9.6693,128.181557,37.900505,5743.348838400001,-174.599,-78.331,176.812
9.686,128.181557,37.900489,5737.8901752,-174.544,-78.514,176.744
9.7027,128.181558,37.900472,5732.423587200001,-174.486,-78.697,176.674
9.7194,128.181559,37.900456,5726.949684000001,-174.427,-78.88,176.602
9.7361,128.18156,37.90044,5721.468465600001,-174.365,-79.062,176.528
9.7528,128.181561,37.900424,5715.9796272,-174.302,-79.245,176.452
9.7694,128.181562,37.900409,5710.4834736,-174.236,-79.428,176.373
9.7861,128.181563,37.900393,5704.980004800001,-174.167,-79.611,176.292
9.8029,128.181564,37.900378,5699.4695255999995,-174.096,-79.794,176.207
9.8196,128.181565,37.900362,5693.9517312,-174.022,-79.977,176.12
9.8363,128.181565,37.900347,5688.4266216,-173.944,-80.16,176.03
9.853,128.181566,37.900332,5682.894806400001,-173.864,-80.343,175.937
9.8697,128.181567,37.900318,5677.355676,-173.781,-80.526,175.84
9.8864,128.181568,37.900303,5671.8095352,-173.693,-80.709,175.74
9.9031,128.181569,37.900288,5666.256384000001,-173.602,-80.893,175.636
9.9198,128.18157,37.900274,5660.696527200001,-173.507,-81.076,175.528
9.9365,128.181571,37.90026,5655.1299648,-173.408,-81.259,175.415
9.9531,128.181572,37.900246,5649.556392,-173.304,-81.443,175.298
9.9698,128.181573,37.900232,5643.9764184000005,-173.196,-81.626,175.176
9.9865,128.181574,37.900218,5638.3894344,-173.082,-81.809,175.049
10.0033,128.181575,37.900205,5632.7960496000005,-172.963,-81.993,174.917
10.02,128.181576,37.900192,5627.1959592,-172.838,-82.176,174.778
10.0367,128.181577,37.900178,5621.589468,-172.707,-82.36,174.634
10.0534,128.181578,37.900165,5615.976576,-172.569,-82.543,174.482
10.0701,128.181579,37.900152,5610.357283200001,-172.424,-82.727,174.323
10.0868,128.18158,37.90014,5604.7315896,-172.271,-82.91,174.156
10.1035,128.181581,37.900127,5599.0994952,-172.109,-83.094,173.981
10.1202,128.181582,37.900115,5593.4613048,-171.939,-83.277,173.796
10.1368,128.181583,37.900102,5587.8170184,-171.758,-83.461,173.601
10.1535,128.181584,37.90009,5582.1663312,-171.567,-83.645,173.396
10.1702,128.181585,37.900078,5576.5098528,-171.363,-83.828,173.178
10.187,128.181586,37.900067,5570.8472784000005,-171.147,-84.012,172.948
10.2037,128.181587,37.900055,5565.1789128,-170.916,-84.195,172.703
10.2204,128.181588,37.900044,5559.5044512,-170.67,-84.379,172.443
10.2371,128.181589,37.900032,5553.8241984,-170.407,-84.562,172.165
10.2538,128.18159,37.900021,5548.1381544000005,-170.125,-84.745,171.869
10.2705,128.181591,37.90001,5542.4463192,-169.823,-84.929,171.552
10.2872,128.181593,37.899999,5536.748997600001,-169.497,-85.112,171.211
10.3039,128.181594,37.899989,5531.0458848,-169.146,-85.295,170.845
10.3205,128.181595,37.899978,5525.3372856000005,-168.765,-85.478,170.45
10.3372,128.181596,37.899968,5519.6232,-168.352,-85.661,170.021
10.3539,128.181597,37.899958,5513.903932800001,-167.902,-85.843,169.556
10.3707,128.181598,37.899948,5508.1788744000005,-167.409,-86.026,169.048
10.3874,128.181599,37.899938,5502.4486344,-166.869,-86.208,168.492
10.4041,128.1816,37.899928,5496.7132128,-166.273,-86.389,167.881
10.4208,128.181601,37.899919,5490.9726096,-165.612,-86.571,167.205
10.4375,128.181602,37.899909,5485.226824800001,-164.878,-86.752,166.454
10.4542,128.181604,37.8999,5479.4758584,-164.055,-86.932,165.616
10.4709,128.181605,37.899891,5473.7200152000005,-163.129,-87.112,164.674
10.4876,128.181606,37.899882,5467.9589904,-162.079,-87.291,163.608
10.5042,128.181607,37.899874,5462.1933936,-160.879,-87.469,162.393
10.5209,128.181608,37.899865,5456.422615200001,-159.498,-87.646,160.996
10.5376,128.181609,37.899857,5450.647264800001,-157.893,-87.821,159.374
10.5544,128.18161,37.899849,5444.867037600001,-156.007,-87.994,157.471
10.5711,128.181611,37.899841,5439.082238400001,-153.766,-88.165,155.213
10.5878,128.181613,37.899833,5433.2928672,-151.068,-88.332,152.499
10.6045,128.181614,37.899825,5427.498924,-147.776,-88.495,149.19
10.6212,128.181615,37.899818,5421.7004088,-143.7,-88.651,145.097
10.6379,128.181616,37.89981,5415.8976264,-138.584,-88.799,139.964
10.6546,128.181617,37.899803,5410.090272,-132.095,-88.935,133.458
10.6713,128.181618,37.899796,5404.2786504000005,-123.848,-89.054,125.194
10.6879,128.18162,37.899789,5398.4627616,-113.527,-89.147,114.855
10.7046,128.181621,37.899783,5392.642910400001,-101.175,-89.207,102.485
10.7213,128.181622,37.899776,5386.818792000001,-87.549,-89.225,88.841
10.7381,128.181623,37.89977,5380.990406400001,-74.054,-89.199,75.328
10.7548,128.181624,37.899764,5375.1583632,-62.018,-89.133,63.274
10.7715,128.181625,37.899758,5369.3223576,-52.053,-89.034,53.291
10.7882,128.181627,37.899752,5363.4823896,-44.112,-88.912,45.333
10.8049,128.181628,37.899746,5357.6384592,-37.854,-88.774,39.056
10.8216,128.181629,37.899741,5351.7908712,-32.897,-88.624,34.083
10.8383,128.18163,37.899736,5345.9396256,-28.925,-88.467,30.093
10.855,128.181631,37.899731,5340.0847224,-25.694,-88.303,26.845
10.8717,128.181633,37.899726,5334.2264663999995,-23.025,-88.135,24.159
10.8883,128.181634,37.899721,5328.364248,-20.787,-87.964,21.905
10.905,128.181635,37.899716,5322.498981600001,-18.884,-87.79,19.986
10.9218,128.181636,37.899712,5316.6303624,-17.244,-87.614,18.329
10.9385,128.181637,37.899708,5310.7583904,-15.811,-87.437,16.882
10.9552,128.181639,37.899703,5304.883065600001,-14.545,-87.258,15.601
10.9719,128.18164,37.8997,5299.004388,-13.414,-87.079,14.456
10.9886,128.181641,37.899696,5293.1229672,-12.396,-86.898,13.424
11.0053,128.181642,37.899692,5287.2384984,-11.472,-86.717,12.487
11.022,128.181644,37.899689,5281.3506768,-10.625,-86.535,11.628
11.0387,128.181645,37.899686,5275.460112,-9.844,-86.353,10.836
11.0554,128.181646,37.899683,5269.566804,-9.119,-86.17,10.1
11.072,128.181647,37.89968,5263.6707528,-8.443,-85.987,9.414
11.0887,128.181648,37.899677,5257.7719584,-7.812,-85.803,8.774
11.1054,128.18165,37.899674,5251.8704208,-7.221,-85.619,8.175
11.1222,128.181651,37.899672,5245.96614,-6.667,-85.435,7.613
11.1389,128.181652,37.89967,5240.0594208,-6.148,-85.25,7.086
11.1556,128.181653,37.899668,5234.1502632,-5.66,-85.064,6.592
11.1723,128.181655,37.899666,5228.238972,-5.203,-84.879,6.128
11.189,128.181656,37.899665,5222.3249376,-4.774,-84.693,5.692
11.2057,128.181657,37.899663,5216.408769600001,-4.372,-84.506,5.285
11.2224,128.181658,37.899662,5210.490468,-3.995,-84.319,4.903
11.2391,128.18166,37.899661,5204.5700328,-3.644,-84.132,4.547
11.2557,128.181661,37.89966,5198.647464000001,-3.316,-83.945,4.216
11.2724,128.181662,37.899659,5192.7230664,-3.011,-83.758,3.908
11.2891,128.181663,37.899658,5186.7965352,-2.729,-83.57,3.622
11.3059,128.181665,37.899658,5180.868175199999,-2.467,-83.382,3.359
11.3226,128.181666,37.899658,5174.9379864,-2.226,-83.194,3.118
11.3393,128.181667,37.899658,5169.0059688,-2.006,-83.005,2.897
11.356,128.181668,37.899658,5163.072427200001,-1.804,-82.817,2.696
11.3727,128.18167,37.899658,5157.1373616,-1.621,-82.628,2.514
11.3894,128.181671,37.899658,5151.200772,-1.456,-82.439,2.351
11.4061,128.181672,37.899659,5145.2623536,-1.308,-82.25,2.205
11.4228,128.181673,37.89966,5139.3230207999995,-1.176,-82.061,2.077
11.4394,128.181674,37.899661,5133.381859200001,-1.061,-81.871,1.965
11.4561,128.181676,37.899662,5127.4397832,-0.96,-81.682,1.869
11.4728,128.181677,37.899663,5121.496488000001,-0.874,-81.492,1.788
11.4896,128.181678,37.899665,5115.551973600001,-0.802,-81.303,1.722
11.5063,128.181679,37.899667,5109.60624,-0.743,-81.113,1.669
11.523,128.181681,37.899669,5103.659896800001,-0.698,-80.923,1.63
11.5397,128.181682,37.899671,5097.7123344,-0.665,-80.733,1.604
11.5564,128.181683,37.899673,5091.7638576,-0.642,-80.543,1.588
11.5731,128.181684,37.899675,5085.8147712,-0.629,-80.353,1.582
11.5898,128.181685,37.899678,5079.865075199999,-0.625,-80.163,1.586
11.6065,128.181687,37.899681,5073.914769600001,-0.629,-79.973,1.597
11.6231,128.181688,37.899684,5067.9635496,-0.64,-79.782,1.616
11.6398,128.181689,37.899687,5062.0123296,-0.657,-79.592,1.641
11.6565,128.18169,37.89969,5056.060195200001,-0.68,-79.401,1.672
11.6733,128.181692,37.899694,5050.108060800001,-0.708,-79.211,1.707
11.69,128.181693,37.899697,5044.1556216,-0.74,-79.02,1.746
11.7067,128.181694,37.899701,5038.202877600001,-0.775,-78.829,1.787
11.7234,128.181695,37.899705,5032.249828800001,-0.813,-78.638,1.831
11.7401,128.181696,37.89971,5026.2970847999995,-0.852,-78.447,1.874
11.7568,128.181698,37.899714,5020.3443408,-0.891,-78.256,1.916
11.7735,128.181699,37.899719,5014.391596800001,-0.928,-78.065,1.954
11.7902,128.1817,37.899723,5008.4391576,-0.963,-77.874,1.988
11.8068,128.181701,37.899728,5002.4867184,-0.996,-77.689,2.016
11.8235,128.181702,37.899733,4996.534584000001,-1.025,-77.517,2.037
11.8402,128.181704,37.899739,4990.5827544,-1.05,-77.363,2.051
11.857,128.181705,37.899744,4984.631229600001,-1.072,-77.225,2.056
11.8737,128.181706,37.89975,4978.680009600001,-1.092,-77.102,2.054
11.8904,128.181707,37.899756,4972.7290944,-1.111,-76.991,2.044
11.9071,128.181708,37.899762,4966.7787888,-1.131,-76.888,2.027
11.9238,128.18171,37.899768,4960.829092800001,-1.156,-76.792,2.007
11.9405,128.181711,37.899774,4954.8797016,-1.186,-76.699,1.984
11.9572,128.181712,37.899781,4948.9306152,-1.224,-76.609,1.96
11.9739,128.181713,37.899788,4942.982138400001,-1.271,-76.522,1.937
11.9905,128.181715,37.899794,4937.0342712,-1.326,-76.436,1.915
12.0072,128.181716,37.899802,4931.0867088,-1.389,-76.353,1.894
12.0239,128.181717,37.899809,4925.1394512,-1.459,-76.27,1.875
12.0407,128.181718,37.899816,4919.192498400001,-1.533,-76.189,1.857
12.0574,128.181719,37.899824,4913.2461552,-1.609,-76.109,1.838
12.0741,128.181721,37.899831,4907.299812,-1.687,-76.03,1.819
12.0908,128.181722,37.899839,4901.354078400001,-1.765,-75.952,1.799
12.1075,128.181723,37.899847,4895.4086496,-1.844,-75.875,1.778
12.1242,128.181724,37.899855,4889.4635256,-1.924,-75.799,1.756
12.1409,128.181725,37.899863,4883.5184016,-2.005,-75.724,1.734
12.1576,128.181727,37.899872,4877.5738872,-2.086,-75.65,1.711
12.1743,128.181728,37.899881,4871.6293728,-2.168,-75.578,1.688
12.1909,128.181729,37.899889,4865.685468000001,-2.253,-75.507,1.663
12.2076,128.18173,37.899898,4859.7415632,-2.34,-75.438,1.636
12.2243,128.181731,37.899907,4853.7976584,-2.429,-75.371,1.609
12.2411,128.181732,37.899916,4847.8540584,-2.521,-75.304,1.582
12.2578,128.181734,37.899926,4841.9107632000005,-2.616,-75.238,1.555
12.2745,128.181735,37.899935,4835.967468,-2.712,-75.173,1.529
12.2912,128.181736,37.899945,4830.0241728,-2.809,-75.108,1.502
12.3079,128.181737,37.899954,4824.0811824,-2.905,-75.044,1.475
12.3246,128.181738,37.899964,4818.138192,-3.001,-74.981,1.448
12.3413,128.181739,37.899974,4812.1952016000005,-3.096,-74.919,1.42
12.358,128.18174,37.899984,4806.252211200001,-3.19,-74.858,1.392
12.3746,128.181742,37.899994,4800.309525600001,-3.283,-74.798,1.363
12.3913,128.181743,37.900005,4794.366535200001,-3.375,-74.739,1.335
12.408,128.181744,37.900015,4788.424154400001,-3.469,-74.681,1.304
12.4248,128.181745,37.900026,4782.481468800001,-3.564,-74.625,1.272
12.4415,128.181746,37.900037,4776.5387832,-3.662,-74.57,1.24
12.4582,128.181747,37.900048,4770.596097600001,-3.763,-74.516,1.208
12.4749,128.181748,37.900059,4764.653412000001,-3.865,-74.463,1.177
12.4916,128.181749,37.90007,4758.7107264,-3.969,-74.41,1.148
12.5083,128.18175,37.900081,4752.768040800001,-4.073,-74.357,1.121
12.525,128.181751,37.900092,4746.825050400001,-4.178,-74.305,1.095
12.5417,128.181752,37.900104,4740.882060000001,-4.281,-74.254,1.071
12.5583,128.181753,37.900115,4734.9387648,-4.382,-74.203,1.048
12.575,128.181754,37.900127,4728.9954696,-4.481,-74.153,1.025
12.5917,128.181755,37.900139,4723.0518696,-4.578,-74.105,1.002
12.6085,128.181756,37.900151,4717.1079647999995,-4.673,-74.057,0.98
12.6252,128.181757,37.900163,4711.1637552,-4.766,-74.01,0.959
12.6419,128.181758,37.900175,4705.2195456,-4.857,-73.964,0.939
12.6586,128.181759,37.900187,4699.275336,-4.948,-73.921,0.917
12.6753,128.18176,37.900199,4693.330516800001,-5.04,-73.879,0.891
12.692,128.181761,37.900212,4687.385697600001,-5.134,-73.839,0.866
12.7087,128.181762,37.900224,4681.4396592,-5.24,-73.825,0.849
12.7254,128.181763,37.900237,4675.493316,-5.358,-73.84,0.845
12.742,128.181764,37.900249,4669.5463632,-5.483,-73.87,0.849
12.7587,128.181764,37.900262,4663.5988008,-5.605,-73.899,0.856
12.7754,128.181765,37.900275,4657.6506288,-5.718,-73.918,0.861
12.7922,128.181766,37.900288,4651.7015424,-5.818,-73.922,0.862
12.8089,128.181767,37.900301,4645.7518464,-5.903,-73.913,0.859
12.8256,128.181768,37.900314,4639.801236,-5.975,-73.896,0.853
12.8423,128.181769,37.900328,4633.8497112000005,-6.034,-73.873,0.844
12.859,128.181769,37.900341,4627.897272,-6.085,-73.848,0.833
12.8757,128.18177,37.900354,4621.9439184,-6.129,-73.822,0.82
12.8924,128.181771,37.900368,4615.989650400001,-6.17,-73.796,0.806
12.9091,128.181772,37.900381,4610.0341632,-6.208,-73.77,0.792
12.9257,128.181773,37.900395,4604.0780664,-6.245,-73.744,0.778
12.9424,128.181773,37.900409,4598.1210552,-6.284,-73.719,0.761
12.9591,128.181774,37.900422,4592.1622152,-6.336,-73.72,0.752
12.9759,128.181775,37.900436,4586.202156,-6.404,-73.757,0.756
12.9926,128.181776,37.90045,4580.2411824,-6.486,-73.815,0.771
13.0093,128.181776,37.900464,4574.278380000001,-6.573,-73.873,0.79
13.026,128.181777,37.900478,4568.3146632,-6.655,-73.919,0.807
13.0427,128.181778,37.900493,4562.3491176,-6.725,-73.947,0.82
13.0594,128.181778,37.900507,4556.3823528,-6.782,-73.959,0.828
13.0761,128.181779,37.900521,4550.413759200001,-6.825,-73.959,0.83
13.0928,128.18178,37.900535,4544.443641600001,-6.856,-73.953,0.828
13.1095,128.18178,37.90055,4538.4716952,-6.878,-73.943,0.823
13.1262,128.181781,37.900564,4532.498224800001,-6.894,-73.932,0.816
13.1429,128.181782,37.900579,4526.5229256,-6.907,-73.92,0.808
13.1596,128.181782,37.900593,4520.5457976,-6.92,-73.907,0.799
13.1763,128.181783,37.900608,4514.5671456,-6.932,-73.893,0.791
13.193,128.181784,37.900622,4508.5866648,-6.943,-73.879,0.782
13.2097,128.181784,37.900637,4502.6043552,-6.953,-73.864,0.774
13.2264,128.181785,37.900652,4496.619912,-6.963,-73.848,0.766
13.2431,128.181785,37.900667,4490.6339448,-6.971,-73.833,0.758
13.2598,128.181786,37.900682,4484.6461488,-6.979,-73.817,0.75
13.2765,128.181787,37.900697,4478.6562192,-6.986,-73.801,0.742
13.2932,128.181787,37.900712,4472.6644608,-6.992,-73.786,0.734
13.3099,128.181788,37.900727,4466.6708736,-6.998,-73.77,0.723
13.3266,128.181788,37.900742,4460.6754576,-7.006,-73.755,0.709
13.3433,128.181789,37.900757,4454.677908,-7.016,-73.74,0.695
13.36,128.181789,37.900772,4448.6785296,-7.031,-73.726,0.682
13.3767,128.18179,37.900787,4442.6773224,-7.051,-73.712,0.672
13.3934,128.18179,37.900803,4436.6736768,-7.072,-73.697,0.664
13.4101,128.181791,37.900818,4430.6682024,-7.093,-73.682,0.658
13.4268,128.181791,37.900833,4424.6605944,-7.111,-73.668,0.651
13.4435,128.181792,37.900849,4418.6508528,-7.127,-73.654,0.644
13.4602,128.181792,37.900864,4412.6389776000005,-7.139,-73.639,0.636
13.4769,128.181793,37.90088,4406.624968800001,-7.151,-73.626,0.628
13.4936,128.181793,37.900895,4400.6088264,-7.162,-73.612,0.619
13.5103,128.181794,37.900911,4394.5905504,-7.173,-73.599,0.611
13.527,128.181794,37.900927,4388.5701408,-7.185,-73.586,0.604
13.5437,128.181795,37.900942,4382.5472928,-7.197,-73.573,0.597
13.5604,128.181795,37.900958,4376.5223112,-7.208,-73.561,0.591
13.5771,128.181796,37.900974,4370.495196000001,-7.22,-73.548,0.584
13.5938,128.181796,37.90099,4364.4656424,-7.231,-73.537,0.578
13.6105,128.181796,37.901006,4358.4339552,-7.241,-73.525,0.571
13.6272,128.181797,37.901022,4352.4001344,-7.252,-73.514,0.565
13.6439,128.181797,37.901038,4346.363875200001,-7.262,-73.502,0.559
13.6606,128.181798,37.901054,4340.325177600001,-7.272,-73.491,0.553
13.6773,128.181798,37.90107,4334.284346400001,-7.283,-73.48,0.547
13.694,128.181798,37.901086,4328.240772,-7.293,-73.469,0.541
13.7107,128.181799,37.901102,4322.1950640000005,-7.304,-73.459,0.535
13.7274,128.181799,37.901118,4316.1472224,-7.314,-73.449,0.53
13.7441,128.1818,37.901134,4310.0966376,-7.324,-73.439,0.525
13.7608,128.1818,37.901151,4304.0436144000005,-7.335,-73.429,0.519
13.7775,128.1818,37.901167,4297.9884576,-7.345,-73.419,0.514
13.7942,128.181801,37.901183,4291.930557600001,-7.355,-73.409,0.509
13.8109,128.181801,37.9012,4285.8702192,-7.365,-73.4,0.504
13.8276,128.181801,37.901216,4279.8077472,-7.376,-73.391,0.5
13.8443,128.181802,37.901232,4273.7428368,-7.39,-73.383,0.491
13.861,128.181802,37.901249,4267.675488,-7.409,-73.376,0.477
13.8777,128.181802,37.901265,4261.606005600001,-7.434,-73.368,0.464
13.8944,128.181803,37.901282,4255.533780000001,-7.469,-73.361,0.453
13.9111,128.181803,37.901298,4249.459116,-7.511,-73.354,0.447
13.9278,128.181803,37.901315,4243.3817088000005,-7.555,-73.346,0.446
13.9445,128.181803,37.901332,4237.3018632,-7.596,-73.338,0.446
13.9612,128.181804,37.901348,4231.2195792,-7.631,-73.33,0.445
13.9779,128.181804,37.901365,4225.134552,-7.658,-73.322,0.441
13.9946,128.181804,37.901382,4219.0470864,-7.682,-73.315,0.435
14.0113,128.181805,37.901399,4212.956877600001,-7.704,-73.308,0.427
14.028,128.181805,37.901415,4206.8645352,-7.73,-73.301,0.419
14.0447,128.181805,37.901432,4200.7694496,-7.76,-73.295,0.412
14.0614,128.181805,37.901449,4194.671620800001,-7.792,-73.288,0.408
14.0781,128.181806,37.901466,4188.5713536,-7.826,-73.282,0.405
14.0948,128.181806,37.901483,4182.4683432,-7.859,-73.276,0.403
14.1115,128.181806,37.9015,4176.3625896,-7.889,-73.269,0.4
14.1282,128.181806,37.901517,4170.254397600001,-7.917,-73.263,0.397
14.1449,128.181807,37.901534,4164.1437672,-7.943,-73.257,0.392
14.1616,128.181807,37.901551,4158.0303936,-7.969,-73.251,0.387
14.1783,128.181807,37.901568,4151.9142768,-7.997,-73.246,0.381
14.195,128.181807,37.901585,4145.7957215999995,-8.028,-73.24,0.376
14.2117,128.181807,37.901602,4139.6741184,-8.062,-73.235,0.372
14.2284,128.181808,37.901619,4133.5503816,-8.096,-73.23,0.369
14.2451,128.181808,37.901636,4127.4235968,-8.131,-73.225,0.367
14.2618,128.181808,37.901654,4121.294068800001,-8.165,-73.22,0.364
14.2785,128.181808,37.901671,4115.162102400001,-8.198,-73.215,0.361
14.2952,128.181808,37.901688,4109.0273928,-8.23,-73.21,0.357
14.3119,128.181809,37.901705,4102.88994,-8.264,-73.205,0.353
14.3286,128.181809,37.901723,4096.7500488000005,-8.299,-73.2,0.348
14.3453,128.181809,37.90174,4090.6074144000004,-8.337,-73.195,0.343
14.362,128.181809,37.901757,4084.4620368000005,-8.379,-73.191,0.339
14.3787,128.181809,37.901775,4078.313916,-8.423,-73.187,0.335
14.3954,128.181809,37.901792,4072.1630520000003,-8.469,-73.183,0.332
14.4121,128.181809,37.901809,4066.0094448,-8.516,-73.178,0.33
14.4288,128.18181,37.901827,4059.8530944,-8.565,-73.174,0.327
14.4455,128.18181,37.901844,4053.6940008000006,-8.613,-73.17,0.324
14.4622,128.18181,37.901862,4047.5324688000005,-8.665,-73.166,0.319
14.4789,128.18181,37.901879,4041.3684984000006,-8.723,-73.162,0.311
14.4956,128.18181,37.901897,4035.20148,-8.789,-73.158,0.303
14.5123,128.18181,37.901914,4029.0323280000002,-8.865,-73.154,0.295
14.529,128.18181,37.901932,4022.8598232000004,-8.95,-73.15,0.289
14.5457,128.18181,37.90195,4016.6851848000006,-9.043,-73.147,0.287
14.5624,128.181811,37.901967,4010.5071936000004,-9.137,-73.142,0.287
14.5791,128.181811,37.901985,4004.3258496000003,-9.213,-73.138,0.298
14.5958,128.181811,37.902003,3998.1414576,-9.268,-73.133,0.316
14.6125,128.181811,37.90202,3991.9540176,-9.296,-73.127,0.33
14.6292,128.181811,37.902038,3985.7638344,-9.296,-73.122,0.333
14.6459,128.181811,37.902056,3979.570908,-9.274,-73.116,0.325
14.6626,128.181811,37.902073,3973.3749336,-9.244,-73.111,0.312
14.6793,128.181811,37.902091,3967.1765208,-9.219,-73.105,0.3
14.696,128.181811,37.902109,3960.97506,-9.205,-73.1,0.293
14.7127,128.181811,37.902127,3954.770856,-9.199,-73.094,0.291
14.7294,128.181811,37.902145,3948.563604,-9.196,-73.088,0.29
14.7461,128.181811,37.902162,3942.3536088,-9.191,-73.082,0.288
14.7628,128.181811,37.90218,3936.1408704,-9.182,-73.075,0.285
14.7795,128.181812,37.902198,3929.9253888000003,-9.169,-73.068,0.279
14.7962,128.181812,37.902216,3923.7068592,-9.156,-73.062,0.273
14.8129,128.181812,37.902234,3917.4855864,-9.144,-73.055,0.267
14.8296,128.181812,37.902252,3911.2615704,-9.133,-73.048,0.262
14.8463,128.181812,37.90227,3905.0345064000003,-9.123,-73.04,0.258
14.863,128.181812,37.902288,3898.8046992,-9.113,-73.033,0.253
14.8797,128.181812,37.902306,3892.5721488000004,-9.102,-73.026,0.248
14.8964,128.181812,37.902324,3886.3365504000003,-9.091,-73.018,0.243
14.9131,128.181812,37.902342,3880.0982088,-9.079,-73.011,0.238
14.9298,128.181812,37.90236,3873.857124,-9.067,-73.003,0.233
14.9465,128.181812,37.902378,3867.6132960000004,-9.056,-72.995,0.227
14.9632,128.181812,37.902396,3861.3664200000003,-9.044,-72.987,0.222
14.9799,128.181812,37.902414,3855.1168008000004,-9.033,-72.979,0.217
14.9966,128.181812,37.902432,3848.8644384,-9.021,-72.971,0.212
15.0133,128.181812,37.90245,3842.6090280000003,-9.009,-72.963,0.206
15.03,128.181812,37.902469,3836.3508744,-8.997,-72.955,0.201
15.0467,128.181812,37.902487,3830.0899776,-8.985,-72.946,0.196
15.0634,128.181812,37.902505,3823.8263376,-8.973,-72.938,0.19
15.0801,128.181812,37.902523,3817.5596496000003,-8.961,-72.93,0.185
15.0968,128.181812,37.902541,3811.2902184000004,-8.948,-72.921,0.179
15.1135,128.181812,37.90256,3805.0180440000004,-8.936,-72.913,0.174
15.1302,128.181812,37.902578,3798.7431264,-8.924,-72.904,0.168
15.1469,128.181812,37.902596,3792.4651608,-8.911,-72.896,0.163
15.1636,128.181812,37.902615,3786.184452,-8.899,-72.887,0.157
15.1803,128.181812,37.902633,3779.9010000000003,-8.886,-72.879,0.152
15.197,128.181812,37.902651,3773.6148048000005,-8.873,-72.87,0.146
15.2137,128.181812,37.90267,3767.3258664000005,-8.861,-72.861,0.141
15.2304,128.181811,37.902688,3761.0338800000004,-8.848,-72.853,0.135
15.2471,128.181811,37.902706,3754.7391504,-8.835,-72.844,0.13
