Time,Longitude,Latitude,Altitude,Roll (deg),Pitch (deg),Yaw (deg)
0.0,128.181881,37.923646,7000.146528,0.0,-0.003,0.0
0.0167,128.181881,37.923691,7000.1605488000005,0.0,-0.012,0.0
0.0334,128.181881,37.923736,7000.173960000001,0.0,-0.025,359.999
0.0501,128.181881,37.923781,7000.186152000001,0.0,-0.039,359.999
0.0668,128.181881,37.923825,7000.1977344,0.0,-0.055,359.999
0.0834,128.181881,37.92387,7000.2084024,0.0,-0.07,359.999
0.1002,128.181881,37.923915,7000.218156000001,0.0,-0.084,0.0
0.1169,128.181881,37.92396,7000.226995200001,0.0,-0.098,0.0
0.1336,128.181881,37.924005,7000.234920000001,0.0,-0.109,0.0
0.1503,128.181881,37.92405,7000.2422352,0.0,-0.118,0.0
0.1669,128.181881,37.924095,7000.248636,0.0,-0.125,0.0
0.1837,128.181881,37.92414,7000.254122400001,0.0,-0.131,0.0
0.2004,128.181881,37.924185,7000.2589992,0.0,-0.134,0.0
0.2171,128.181881,37.92423,7000.2626568000005,0.0,-0.136,0.0
0.2338,128.181881,37.924275,7000.266009600001,0.0,-0.137,0.0
0.2505,128.181881,37.92432,7000.2681432,0.0,-0.136,0.0
0.2672,128.181881,37.924365,7000.2696672,0.0,-0.135,0.0
0.2839,128.181881,37.92441,7000.270581600001,0.0,-0.134,0.0
0.3006,128.181881,37.924455,7000.270581600001,0.0,-0.133,0.0
0.3172,128.181881,37.9245,7000.2696672,0.0,-0.131,0.0
0.3339,128.181881,37.924545,7000.268448,0.0,-0.13,0.0
0.3507,128.181881,37.92459,7000.266009600001,0.001,-0.129,0.0
0.3674,128.181881,37.924635,7000.2632664,0.001,-0.128,0.0
0.3841,128.181881,37.92468,7000.2596088,0.001,-0.128,0.0
0.4008,128.181881,37.924725,7000.255341600001,0.001,-0.129,0.0
0.4175,128.181881,37.92477,7000.2501600000005,0.001,-0.13,0.0
0.4342,128.181881,37.924814,7000.2446736,0.001,-0.131,0.0
0.4509,128.181881,37.924859,7000.2382728,0.001,-0.133,0.0
0.4676,128.181881,37.924904,7000.2312624,0.001,-0.134,0.0
0.4843,128.181881,37.924949,7000.223642400001,0.002,-0.136,0.0
0.501,128.181881,37.924994,7000.215108,0.002,-0.139,0.0
0.5176,128.181881,37.925039,7000.2062688000005,0.002,-0.141,0.0
0.5344,128.181881,37.925084,7000.196515200001,0.002,-0.143,0.0
0.5511,128.181881,37.925129,7000.186456800001,0.002,-0.145,0.0
0.5678,128.181881,37.925174,7000.175484000001,0.002,-0.147,0.0
0.5845,128.181881,37.925219,7000.164206400001,0.003,-0.15,0.0
0.6012,128.181881,37.925264,7000.152014400001,0.003,-0.152,0.0
0.6179,128.181881,37.925309,7000.1392128,0.003,-0.154,0.0
0.6345,128.181881,37.925354,7000.126106400001,0.003,-0.155,0.0
0.6513,128.181881,37.925399,7000.1120856,0.003,-0.157,0.0
0.6679,128.181881,37.925444,7000.097760000001,0.003,-0.159,0.0
0.6847,128.181881,37.925489,7000.082824800001,0.004,-0.16,0.0
0.7014,128.181881,37.925534,7000.066975199999,0.004,-0.162,0.0
0.7181,128.181881,37.925579,7000.0508208,0.004,-0.163,0.0
0.7348,128.181881,37.925624,7000.0343616,0.004,-0.165,0.0
0.7514,128.181881,37.925669,7000.016988,0.005,-0.166,0.0
0.7682,128.181881,37.925714,6999.999309600001,0.005,-0.168,0.0
0.7848,128.181881,37.925759,6999.9807168,0.005,-0.169,0.001
0.8016,128.181881,37.925804,6999.962124000001,0.005,-0.17,0.001
0.8183,128.181881,37.925849,6999.9426168,0.005,-0.172,0.001
0.835,128.181881,37.925895,6999.9228048,0.006,-0.173,0.001
0.8517,128.181881,37.92594,6999.9023832,0.006,-0.175,0.001
0.8684,128.181881,37.925985,6999.881352000001,0.006,-0.176,0.001
0.8851,128.181881,37.92603,6999.860016,0.007,-0.177,0.001
0.9018,128.181881,37.926075,6999.838070400001,0.007,-0.179,0.001
0.9185,128.181881,37.92612,6999.815515200001,0.007,-0.18,0.001
0.9352,128.181881,37.926165,6999.792655200001,0.007,-0.182,0.001
0.9519,128.181881,37.92621,6999.7691856,0.008,-0.183,0.001
0.9686,128.181881,37.926255,6999.7454112000005,0.008,-0.184,0.001
0.9853,128.181881,37.9263,6999.7210272,0.008,-0.186,0.001
1.002,128.181881,37.926345,6999.696338400001,0.009,-0.187,0.001
1.0187,128.181881,37.92639,6999.67104,0.009,-0.188,0.001
1.0353,128.181881,37.926435,6999.6454368,0.009,-0.19,0.001
1.0521,128.181881,37.92648,6999.619224000001,0.009,-0.191,0.001
1.0688,128.181881,37.926525,6999.592706400001,0.01,-0.192,0.001
1.0855,128.181881,37.92657,6999.565579200001,0.01,-0.193,0.001
1.1022,128.181881,37.926615,6999.538147200001,0.01,-0.195,0.001
1.1189,128.181881,37.92666,6999.510410400001,0.011,-0.196,0.001
1.1356,128.181881,37.926705,6999.482064000001,0.011,-0.197,0.001
1.1522,128.181881,37.92675,6999.4534128000005,0.011,-0.198,0.001
1.169,128.181881,37.926796,6999.4241520000005,0.012,-0.2,0.001
1.1857,128.181881,37.926841,6999.394586400001,0.012,-0.201,0.001
1.2024,128.181881,37.926886,6999.364716,0.012,-0.202,0.001
1.2191,128.181881,37.926931,6999.334236000001,0.013,-0.203,0.001
1.2358,128.181881,37.926976,6999.303756000001,0.013,-0.204,0.001
1.2525,128.181881,37.927021,6999.2723616,0.014,-0.206,0.001
1.2691,128.181881,37.927066,6999.2409672,0.014,-0.207,0.001
1.2859,128.181881,37.927111,6999.208963200001,0.014,-0.208,0.001
1.3026,128.181881,37.927156,6999.1769592,0.015,-0.209,0.001
1.3193,128.181881,37.927201,6999.144040800001,0.015,-0.21,0.001
1.3359,128.181881,37.927246,6999.111122400001,0.015,-0.211,0.001
1.3527,128.181881,37.927291,6999.0778992000005,0.016,-0.212,0.001
1.3694,128.181881,37.927337,6999.0440664,0.016,-0.214,0.001
1.386,128.181881,37.927382,6999.009928800001,0.017,-0.215,0.001
1.4028,128.181881,37.927427,6998.975486400001,0.017,-0.216,0.001
1.4195,128.181881,37.927472,6998.9407392,0.018,-0.217,0.001
1.4362,128.181881,37.927517,6998.9056872,0.018,-0.218,0.001
1.4528,128.181881,37.927562,6998.8703304,0.018,-0.219,0.001
1.4696,128.181881,37.927607,6998.834364,0.019,-0.22,0.001
1.4863,128.181881,37.927652,6998.7983976000005,0.019,-0.221,0.001
1.5029,128.181881,37.927698,6998.7618216,0.02,-0.222,0.001
1.5197,128.181881,37.927743,6998.724940800001,0.02,-0.223,0.002
1.5364,128.181881,37.927788,6998.68806,0.021,-0.224,0.002
1.5531,128.181881,37.927833,6998.6505696,0.021,-0.225,0.002
1.5697,128.181881,37.927878,6998.6127744000005,0.022,-0.226,0.002
1.5865,128.181881,37.927923,6998.574674400001,0.022,-0.227,0.002
1.6032,128.181881,37.927968,6998.536269600001,0.023,-0.228,0.002
1.6198,128.181881,37.928013,6998.497864800001,0.023,-0.229,0.002
1.6366,128.181881,37.928059,6998.4588504,0.024,-0.23,0.002
1.6533,128.181881,37.928104,6998.4195312,0.024,-0.231,0.002
1.67,128.181881,37.928149,6998.3799072,0.024,-0.232,0.002
1.6867,128.181881,37.928194,6998.3399784,0.025,-0.234,0.002
1.7034,128.181881,37.928239,6998.3000496,0.025,-0.235,0.002
1.7201,128.181881,37.928284,6998.259511200001,0.026,-0.236,0.002
1.7368,128.181881,37.92833,6998.2189728,0.026,-0.237,0.002
1.7535,128.181881,37.928375,6998.177824800001,0.027,-0.238,0.002
1.7702,128.181881,37.92842,6998.1366768,0.027,-0.238,0.002
1.7869,128.181881,37.928465,6998.095224000001,0.028,-0.239,0.002
1.8036,128.181881,37.92851,6998.0534664,0.029,-0.24,0.002
1.8203,128.181881,37.928555,6998.011404,0.029,-0.241,0.002
1.837,128.181881,37.928601,6997.9690368,0.03,-0.242,0.002
1.8537,128.181881,37.928646,6997.9266696,0.03,-0.243,0.002
1.8704,128.181881,37.928691,6997.883692800001,0.031,-0.244,0.002
1.8871,128.181881,37.928736,6997.840716,0.031,-0.245,0.002
1.9038,128.181881,37.928781,6997.7974343999995,0.032,-0.246,0.002
1.9205,128.181881,37.928827,6997.753848,0.032,-0.246,0.002
1.9372,128.181881,37.928872,6997.709956800001,0.033,-0.247,0.002
1.9539,128.181881,37.928917,6997.666065600001,0.033,-0.248,0.002
1.9706,128.181881,37.928962,6997.621564800001,0.034,-0.249,0.002
1.9873,128.181881,37.929007,6997.577064,0.034,-0.25,0.002
2.004,128.181881,37.929053,6997.5322584000005,0.035,-0.251,0.002
2.0207,128.181881,37.929098,6997.4874528,0.036,-0.252,0.002
2.0374,128.181881,37.929143,6997.442342400001,0.036,-0.253,0.002
2.0541,128.181881,37.929188,6997.3966224000005,0.037,-0.254,0.002
2.0707,128.181881,37.929234,6997.3512072,0.037,-0.254,0.002
2.0875,128.181881,37.929279,6997.3051824,0.038,-0.255,0.002
2.1042,128.181881,37.929324,6997.2591576,0.039,-0.256,0.002
2.1208,128.181881,37.929369,6997.212828000001,0.039,-0.257,0.002
2.1376,128.181881,37.929414,6997.1661936,0.04,-0.258,0.002
2.1543,128.181881,37.92946,6997.1195592,0.041,-0.259,0.002
2.171,128.181881,37.929505,6997.072620000001,0.041,-0.259,0.002
2.1877,128.181881,37.92955,6997.025376,0.042,-0.26,0.002
2.2044,128.181882,37.929595,6996.978132,0.042,-0.261,0.003
2.2211,128.181882,37.929641,6996.930583200001,0.043,-0.262,0.003
2.2378,128.181882,37.929686,6996.8827296,0.044,-0.263,0.003
2.2544,128.181882,37.929731,6996.834876,0.044,-0.263,0.003
2.2712,128.181882,37.929776,6996.7867176,0.045,-0.264,0.003
2.2879,128.181882,37.929822,6996.7382544,0.046,-0.265,0.003
2.3045,128.181882,37.929867,6996.6897912,0.046,-0.266,0.003
2.3213,128.181882,37.929912,6996.641023200001,0.047,-0.267,0.003
2.338,128.181882,37.929958,6996.5922552,0.048,-0.268,0.003
2.3546,128.181882,37.930003,6996.543182400001,0.048,-0.268,0.003
2.3714,128.181882,37.930048,6996.4938048,0.049,-0.269,0.003
2.3881,128.181882,37.930093,6996.4444272,0.05,-0.27,0.003
2.4048,128.181882,37.930139,6996.3947448,0.05,-0.271,0.003
2.4215,128.181882,37.930184,6996.3447576,0.051,-0.272,0.003
2.4382,128.181882,37.930229,6996.294770400001,0.052,-0.272,0.003
2.4549,128.181882,37.930275,6996.244783200001,0.053,-0.273,0.003
2.4716,128.181882,37.93032,6996.194491200001,0.053,-0.274,0.003
2.4882,128.181882,37.930365,6996.1438944,0.054,-0.275,0.003
2.505,128.181882,37.930411,6996.093297600001,0.055,-0.276,0.003
2.5217,128.181882,37.930456,6996.042396000001,0.055,-0.276,0.003
2.5383,128.181882,37.930501,6995.9914944,0.056,-0.277,0.003
2.5551,128.181882,37.930547,6995.940288000001,0.057,-0.278,0.003
2.5718,128.181882,37.930592,6995.8890816,0.058,-0.279,0.003
2.5884,128.181882,37.930637,6995.837570400001,0.058,-0.279,0.003
2.6052,128.181882,37.930683,6995.786059200001,0.059,-0.28,0.003
2.6219,128.181882,37.930728,6995.7342432,0.06,-0.281,0.003
2.6386,128.181882,37.930773,6995.6821224000005,0.06,-0.281,0.003
2.6553,128.181882,37.930819,6995.6300016000005,0.061,-0.282,0.003
2.6719,128.181882,37.930864,6995.5778808000005,0.062,-0.283,0.003
2.6887,128.181882,37.930909,6995.525455200001,0.063,-0.284,0.003
2.7054,128.181882,37.930955,6995.4730296,0.064,-0.284,0.003
2.722,128.181882,37.931,6995.4202992,0.064,-0.285,0.003
2.7388,128.181882,37.931045,6995.3675688,0.065,-0.286,0.003
2.7555,128.181882,37.931091,6995.314533600001,0.066,-0.286,0.003
2.7721,128.181882,37.931136,6995.2614984,0.067,-0.287,0.003
2.7889,128.181882,37.931181,6995.2081584,0.068,-0.288,0.003
2.8056,128.181882,37.931227,6995.1548184,0.068,-0.289,0.003
2.8222,128.181882,37.931272,6995.101478400001,0.069,-0.289,0.003
2.839,128.181882,37.931318,6995.047833600001,0.07,-0.29,0.003
2.8557,128.181882,37.931363,6994.994188799999,0.071,-0.291,0.003
2.8724,128.181882,37.931408,6994.9402392,0.072,-0.292,0.003
2.8891,128.181882,37.931454,6994.8862896,0.072,-0.292,0.004
2.9057,128.181882,37.931499,6994.8320352,0.073,-0.293,0.004
2.9225,128.181882,37.931545,6994.7777808,0.074,-0.294,0.004
2.9392,128.181882,37.93159,6994.7232216,0.075,-0.294,0.004
2.9558,128.181882,37.931635,6994.6686624,0.076,-0.295,0.004
2.9726,128.181882,37.931681,6994.6141032,0.077,-0.296,0.004
2.9893,128.181882,37.931726,6994.559544,0.078,-0.297,0.004
3.0059,128.181882,37.931772,6994.5043752,0.079,-0.297,0.004
3.0227,128.181882,37.931817,6994.4495112,0.079,-0.298,0.004
3.0394,128.181882,37.931862,6994.394342400001,0.08,-0.299,0.004
3.056,128.181882,37.931908,6994.3391736,0.081,-0.3,0.004
3.0728,128.181882,37.931953,6994.2837,0.082,-0.3,0.004
3.0895,128.181882,37.931999,6994.2282264000005,0.083,-0.301,0.004
3.1062,128.181882,37.932044,6994.1727528,0.084,-0.302,0.004
3.1229,128.181882,37.93209,6994.116974400001,0.085,-0.302,0.004
3.1395,128.181882,37.932135,6994.061196000001,0.086,-0.303,0.004
3.1563,128.181882,37.932181,6994.0054176,0.086,-0.304,0.004
3.173,128.181882,37.932226,6993.9493344,0.087,-0.304,0.004
3.1896,128.181882,37.932272,6993.893251200001,0.088,-0.305,0.004
3.2064,128.181882,37.932317,6993.837168,0.089,-0.306,0.004
3.2231,128.181882,37.932363,6993.78078,0.09,-0.306,0.004
3.2397,128.181882,37.932408,6993.724392000001,0.091,-0.307,0.004
3.2565,128.181882,37.932453,6993.6676992,0.092,-0.308,0.004
3.2732,128.181882,37.932499,6993.6110064,0.093,-0.309,0.004
3.2899,128.181882,37.932544,6993.554313600001,0.094,-0.309,0.004
3.3066,128.181882,37.93259,6993.4976208,0.095,-0.31,0.004
3.3233,128.181882,37.932635,6993.4406232,0.096,-0.311,0.004
3.34,128.181882,37.932681,6993.3836255999995,0.097,-0.311,0.004
3.3567,128.181882,37.932726,6993.326323200001,0.098,-0.312,0.004
3.3734,128.181882,37.932772,6993.2693256,0.099,-0.313,0.004
3.3901,128.181883,37.932817,6993.212023200001,0.1,-0.313,0.004
3.4068,128.181883,37.932863,6993.154415999999,0.101,-0.314,0.004
3.4235,128.181883,37.932909,6993.097113600001,0.101,-0.315,0.004
3.4402,128.181883,37.932954,6993.0395064,0.102,-0.315,0.004
3.4569,128.181883,37.933,6992.9818992,0.103,-0.316,0.004
3.4736,128.181883,37.933045,6992.923987200001,0.104,-0.317,0.005
3.4903,128.181883,37.933091,6992.8660752,0.106,-0.317,0.005
3.507,128.181883,37.933136,6992.8081632,0.107,-0.318,0.005
3.5237,128.181883,37.933182,6992.750251200001,0.108,-0.319,0.005
3.5404,128.181883,37.933227,6992.6920344,0.109,-0.319,0.005
3.5571,128.181883,37.933273,6992.6338176,0.11,-0.32,0.005
3.5738,128.181883,37.933318,6992.575600800001,0.111,-0.321,0.005
3.5905,128.181883,37.933364,6992.517384000001,0.112,-0.322,0.005
3.6072,128.181883,37.93341,6992.4588624,0.113,-0.322,0.005
3.6239,128.181883,37.933455,6992.400340800001,0.114,-0.323,0.005
3.6406,128.181883,37.933501,6992.341514400001,0.115,-0.326,0.005
3.6573,128.181883,37.933546,6992.282688000001,0.116,-0.332,0.005
3.674,128.181883,37.933592,6992.2238615999995,0.117,-0.339,0.005
3.6907,128.181883,37.933638,6992.1647304,0.118,-0.347,0.005
3.7074,128.181883,37.933683,6992.1055992,0.119,-0.356,0.005
3.7241,128.181883,37.933729,6992.0464680000005,0.12,-0.364,0.005
3.7408,128.181883,37.933774,6991.987032,0.12,-0.372,0.004
3.7575,128.181883,37.93382,6991.927291200001,0.121,-0.379,0.004
3.7742,128.181883,37.933866,6991.8678552,0.122,-0.386,0.004
3.7909,128.181883,37.933911,6991.807809600001,0.123,-0.391,0.004
3.8076,128.181883,37.933957,6991.747764000001,0.124,-0.395,0.004
3.8243,128.181883,37.934002,6991.6877184,0.125,-0.398,0.004
3.841,128.181883,37.934048,6991.627368,0.126,-0.4,0.004
3.8577,128.181883,37.934094,6991.5670176,0.126,-0.402,0.004
3.8744,128.181883,37.934139,6991.5063624,0.127,-0.403,0.004
3.8911,128.181883,37.934185,6991.4457072,0.128,-0.403,0.004
3.9078,128.181883,37.934231,6991.3850520000005,0.129,-0.403,0.004
3.9245,128.181883,37.934276,6991.324092000001,0.13,-0.403,0.004
3.9412,128.181883,37.934322,6991.2628272,0.131,-0.403,0.004
3.9579,128.181883,37.934368,6991.2015624,0.132,-0.403,0.004
3.9746,128.181883,37.934413,6991.140297600001,0.134,-0.403,0.004
3.9913,128.181883,37.934459,6991.078728,0.135,-0.403,0.004
4.008,128.181883,37.934505,6991.0168536,0.136,-0.403,0.005
4.0247,128.181883,37.93455,6990.955284000001,0.137,-0.404,0.005
4.0414,128.181883,37.934596,6990.8934096,0.138,-0.404,0.005
4.058,128.181883,37.934642,6990.8312304,0.139,-0.405,0.005
4.0748,128.181883,37.934687,6990.769051200001,0.14,-0.405,0.005
4.0915,128.181883,37.934733,6990.706872,0.141,-0.406,0.005
4.1082,128.181883,37.934779,6990.644388000001,0.142,-0.407,0.005
4.1249,128.181883,37.934825,6990.581904000001,0.143,-0.408,0.004
4.1415,128.181883,37.93487,6990.5194200000005,0.145,-0.409,0.004
4.1583,128.181883,37.934916,6990.456631200001,0.146,-0.411,0.004
4.175,128.181883,37.934962,6990.393842400001,0.147,-0.412,0.004
4.1917,128.181883,37.935008,6990.3307488,0.148,-0.413,0.004
4.2084,128.181883,37.935053,6990.2676552,0.149,-0.414,0.005
4.2251,128.181884,37.935099,6990.2045616,0.15,-0.415,0.005
4.2417,128.181884,37.935145,6990.1411632,0.151,-0.416,0.005
4.2585,128.181884,37.935191,6990.0777648,0.152,-0.417,0.005
4.2752,128.181884,37.935236,6990.0140616,0.153,-0.418,0.005
4.2919,128.181884,37.935282,6989.9503584,0.155,-0.419,0.005
4.3086,128.181884,37.935328,6989.886655200001,0.156,-0.42,0.005
4.3252,128.181884,37.935374,6989.822952,0.157,-0.421,0.005
4.342,128.181884,37.935419,6989.758944,0.158,-0.422,0.005
4.3587,128.181884,37.935465,6989.6946312,0.159,-0.423,0.005
4.3754,128.181884,37.935511,6989.630623200001,0.161,-0.424,0.005
4.3921,128.181884,37.935557,6989.5663104000005,0.162,-0.425,0.005
4.4088,128.181884,37.935603,6989.501997600001,0.163,-0.426,0.005
4.4254,128.181884,37.935648,6989.43738,0.164,-0.427,0.005
4.4422,128.181884,37.935694,6989.3727624,0.165,-0.428,0.005
4.4589,128.181884,37.93574,6989.3081448,0.166,-0.429,0.005
4.4756,128.181884,37.935786,6989.2432224,0.168,-0.43,0.005
4.4923,128.181884,37.935832,6989.1783000000005,0.169,-0.431,0.005
4.5089,128.181884,37.935877,6989.113377600001,0.17,-0.432,0.005
4.5256,128.181884,37.935923,6989.048150400001,0.171,-0.433,0.005
4.5424,128.181884,37.935969,6988.9829232,0.173,-0.434,0.005
4.5591,128.181884,37.936015,6988.917696,0.174,-0.435,0.005
4.5758,128.181884,37.936061,6988.852164000001,0.175,-0.436,0.005
4.5925,128.181884,37.936107,6988.786632,0.176,-0.437,0.005
4.6091,128.181884,37.936153,6988.721100000001,0.178,-0.438,0.005
4.6259,128.181884,37.936198,6988.655568,0.179,-0.439,0.005
4.6426,128.181884,37.936244,6988.589731200001,0.18,-0.44,0.005
4.6593,128.181884,37.93629,6988.5238944,0.181,-0.441,0.005
4.676,128.181884,37.936336,6988.4577528,0.183,-0.442,0.005
4.6927,128.181884,37.936382,6988.391611200001,0.184,-0.444,0.005
4.7093,128.181884,37.936428,6988.325774400001,0.183,-0.445,0.004
4.7261,128.181884,37.936474,6988.259937600001,0.18,-0.447,0.003
4.7428,128.181884,37.93652,6988.1937960000005,0.175,-0.45,0.002
4.7595,128.181884,37.936566,6988.1276544,0.167,-0.452,0.0
4.7762,128.181884,37.936611,6988.0615128,0.158,-0.455,359.999
4.7928,128.181884,37.936657,6987.9953712,0.147,-0.457,359.997
4.8096,128.181884,37.936703,6987.929229599999,0.134,-0.459,359.996
4.8263,128.181884,37.936749,6987.862783200001,0.122,-0.462,359.994
4.843,128.181884,37.936795,6987.7963368,0.109,-0.463,359.993
4.8597,128.181884,37.936841,6987.7298904,0.095,-0.465,359.992
4.8764,128.181884,37.936887,6987.6631392,0.082,-0.467,359.991
4.893,128.181885,37.936933,6987.596388000001,0.07,-0.468,359.991
4.9098,128.181885,37.936979,6987.529636800001,0.058,-0.469,359.99
4.9265,128.181885,37.937025,6987.4625808,0.046,-0.47,359.989
4.9432,128.181885,37.937071,6987.395524800001,0.035,-0.471,359.989
4.9599,128.181885,37.937117,6987.3284688,0.025,-0.471,359.988
4.9765,128.181885,37.937163,6987.261108,0.015,-0.472,359.988
4.9932,128.181885,37.937209,6987.193747200001,0.006,-0.473,359.987
5.01,128.181885,37.937255,6987.1263864,-0.002,-0.474,359.987
5.0267,128.181885,37.937301,6987.0587208,-0.01,-0.475,359.986
5.0434,128.181885,37.937347,6986.991360000001,-0.018,-0.476,359.986
5.0601,128.181885,37.937393,6986.9233896,-0.026,-0.477,359.985
5.0767,128.181885,37.937439,6986.855724000001,-0.033,-0.478,359.985
5.0935,128.181885,37.937485,6986.7877536000005,-0.04,-0.479,359.984
5.1102,128.181885,37.937531,6986.719783200001,-0.046,-0.481,359.984
5.1269,128.181885,37.937577,6986.651508,-0.052,-0.482,359.984
5.1436,128.181885,37.937623,6986.583232800001,-0.058,-0.483,359.983
5.1602,128.181885,37.937669,6986.5149576,-0.063,-0.484,359.983
5.1769,128.181885,37.937715,6986.4466824,-0.068,-0.486,359.983
5.1937,128.181885,37.937761,6986.3781024,-0.073,-0.487,359.982
5.2104,128.181885,37.937807,6986.3095224,-0.078,-0.489,359.982
5.2271,128.181885,37.937853,6986.240942400001,-0.082,-0.49,359.982
5.2438,128.181885,37.937899,6986.1720576,-0.086,-0.491,359.981
5.2604,128.181885,37.937945,6986.103172800001,-0.091,-0.493,359.981
5.2772,128.181885,37.937991,6986.034288000001,-0.095,-0.494,359.981
5.2939,128.181885,37.938037,6985.9654032,-0.098,-0.496,359.98
5.3106,128.181885,37.938084,6985.8962136,-0.102,-0.497,359.98
5.3273,128.181885,37.93813,6985.827024000001,-0.106,-0.499,359.98
5.3439,128.181885,37.938176,6985.7578344,-0.109,-0.5,359.98
5.3606,128.181885,37.938222,6985.68834,-0.112,-0.502,359.979
5.3774,128.181885,37.938268,6985.6188456,-0.116,-0.503,359.979
5.3941,128.181885,37.938314,6985.5493512,-0.119,-0.504,359.979
5.4108,128.181885,37.93836,6985.479552000001,-0.122,-0.506,359.978
5.4275,128.181885,37.938406,6985.4097528,-0.125,-0.507,359.978
5.4441,128.181885,37.938452,6985.3399536,-0.128,-0.509,359.978
5.4609,128.181885,37.938499,6985.2701544,-0.131,-0.51,359.978
5.4776,128.181885,37.938545,6985.200050400001,-0.134,-0.512,359.977
5.4943,128.181885,37.938591,6985.1299464,-0.136,-0.513,359.977
5.511,128.181886,37.938637,6985.059842400001,-0.139,-0.515,359.977
5.5277,128.181886,37.938683,6984.9897384000005,-0.142,-0.517,359.977
5.5443,128.181886,37.938729,6984.919329599999,-0.144,-0.518,359.976
5.5611,128.181886,37.938776,6984.8489208,-0.147,-0.52,359.976
5.5778,128.181886,37.938822,6984.7782072,-0.15,-0.521,359.976
5.5945,128.181886,37.938868,6984.7077984,-0.152,-0.523,359.976
5.6112,128.181886,37.938914,6984.6370848,-0.155,-0.525,359.975
5.6278,128.181886,37.93896,6984.5660664,-0.157,-0.526,359.975
5.6445,128.181886,37.939006,6984.4953528,-0.16,-0.528,359.975
5.6613,128.181886,37.939053,6984.4243344,-0.163,-0.53,359.975
5.678,128.181886,37.939099,6984.353316,-0.165,-0.531,359.974
5.6947,128.181886,37.939145,6984.281992800001,-0.168,-0.533,359.974
5.7114,128.181886,37.939191,6984.210974400001,-0.17,-0.535,359.974
5.728,128.181886,37.939238,6984.139651200001,-0.173,-0.536,359.974
5.7448,128.181886,37.939284,6984.0680232,-0.176,-0.538,359.973
5.7615,128.181886,37.93933,6983.996700000001,-0.178,-0.54,359.973
5.7782,128.181886,37.939376,6983.925072,-0.181,-0.542,359.973
5.7949,128.181886,37.939422,6983.8531391999995,-0.184,-0.544,359.972
5.8115,128.181886,37.939469,6983.781511200001,-0.188,-0.549,359.972
5.8282,128.181886,37.939515,6983.7095784,-0.193,-0.558,359.971
5.845,128.181886,37.939561,6983.637645600001,-0.2,-0.569,359.971
5.8617,128.181886,37.939608,6983.565408,-0.208,-0.581,359.97
5.8784,128.181886,37.939654,6983.493170400001,-0.217,-0.594,359.969
5.8951,128.181886,37.9397,6983.420628000001,-0.226,-0.606,359.969
5.9117,128.181886,37.939747,6983.348085600001,-0.236,-0.618,359.968
5.9285,128.181886,37.939793,6983.2752384000005,-0.246,-0.629,359.967
5.9452,128.181886,37.939839,6983.202086400001,-0.256,-0.639,359.967
5.9619,128.181886,37.939886,6983.1289344,-0.266,-0.647,359.967
5.9786,128.181886,37.939932,6983.055477600001,-0.276,-0.654,359.966
5.9952,128.181886,37.939978,6982.9820208,-0.285,-0.66,359.966
6.0119,128.181886,37.940025,6982.907954400001,-0.294,-0.665,359.965
6.0287,128.181886,37.940071,6982.833888000001,-0.302,-0.669,359.965
6.0454,128.181886,37.940118,6982.7598216,-0.31,-0.672,359.965
6.0621,128.181886,37.940164,6982.6851456,-0.318,-0.675,359.964
6.0788,128.181886,37.940211,6982.610469600001,-0.326,-0.677,359.964
6.0954,128.181886,37.940257,6982.5357936,-0.333,-0.678,359.964
6.1121,128.181886,37.940304,6982.460508,-0.34,-0.68,359.963
6.1289,128.181886,37.94035,6982.3852224,-0.347,-0.682,359.963
6.1456,128.181886,37.940397,6982.3099368,-0.354,-0.683,359.963
6.1623,128.181886,37.940443,6982.234041600001,-0.361,-0.685,359.962
6.179,128.181886,37.94049,6982.158146400001,-0.368,-0.687,359.962
6.1956,128.181886,37.940536,6982.0822512,-0.375,-0.688,359.961
6.2124,128.181886,37.940583,6982.0057464,-0.382,-0.691,359.961
6.2291,128.181886,37.940629,6981.929241600001,-0.389,-0.693,359.961
6.2458,128.181886,37.940676,6981.8527368000005,-0.396,-0.695,359.96
6.2625,128.181886,37.940723,6981.7759272,-0.403,-0.698,359.96
6.2791,128.181887,37.940769,6981.6988128,-0.41,-0.7,359.959
6.2958,128.181887,37.940816,6981.6216984,-0.418,-0.703,359.959
6.3126,128.181887,37.940862,6981.544279200001,-0.425,-0.706,359.958
6.3293,128.181887,37.940909,6981.466555200001,-0.433,-0.709,359.958
6.346,128.181887,37.940956,6981.3888312,-0.44,-0.712,359.958
6.3627,128.181887,37.941002,6981.310802399999,-0.448,-0.715,359.957
6.3793,128.181887,37.941049,6981.232468800001,-0.456,-0.718,359.957
6.3961,128.181887,37.941096,6981.1541352,-0.464,-0.721,359.956
6.4128,128.181887,37.941143,6981.075801600001,-0.472,-0.724,359.956
6.4295,128.181887,37.941189,6980.9968584,-0.481,-0.727,359.955
6.4462,128.181887,37.941236,6980.917915200001,-0.489,-0.73,359.955
6.4628,128.181887,37.941283,6980.8389720000005,-0.498,-0.734,359.954
6.4795,128.181887,37.941329,6980.7597240000005,-0.507,-0.737,359.954
6.4963,128.181887,37.941376,6980.6801712,-0.516,-0.74,359.953
6.513,128.181887,37.941423,6980.6003136,-0.525,-0.743,359.953
6.5297,128.181887,37.94147,6980.520456000001,-0.534,-0.747,359.952
6.5464,128.181887,37.941517,6980.4405983999995,-0.544,-0.75,359.952
6.5631,128.181887,37.941563,6980.3601312,-0.553,-0.753,359.951
6.5798,128.181887,37.94161,6980.279664000001,-0.563,-0.757,359.951
6.5965,128.181887,37.941657,6980.199196800001,-0.574,-0.76,359.95
6.6132,128.181887,37.941704,6980.118424800001,-0.584,-0.763,359.95
6.6299,128.181887,37.941751,6980.037348,-0.595,-0.767,359.949
6.6466,128.181887,37.941798,6979.9559664,-0.606,-0.77,359.949
6.6633,128.181887,37.941845,6979.8745848,-0.617,-0.774,359.948
6.68,128.181887,37.941891,6979.7928984,-0.629,-0.777,359.947
6.6967,128.181887,37.941938,6979.711212,-0.641,-0.781,359.947
6.7134,128.181887,37.941985,6979.6292207999995,-0.653,-0.784,359.946
6.7301,128.181887,37.942032,6979.5472296,-0.666,-0.788,359.945
6.7468,128.181887,37.942079,6979.4646288,-0.679,-0.792,359.945
6.7635,128.181887,37.942126,6979.382028000001,-0.693,-0.795,359.944
6.7802,128.181887,37.942173,6979.2994272000005,-0.707,-0.799,359.943
6.7969,128.181887,37.94222,6979.2165216,-0.721,-0.803,359.943
6.8136,128.181887,37.942267,6979.133311200001,-0.736,-0.807,359.942
6.8303,128.181887,37.942314,6979.0501008,-0.751,-0.811,359.941
6.847,128.181887,37.942361,6978.9665856,-0.767,-0.815,359.941
6.8637,128.181887,37.942408,6978.882765600001,-0.783,-0.819,359.94
6.8804,128.181887,37.942455,6978.798640800001,-0.8,-0.823,359.939
6.8971,128.181887,37.942502,6978.714516,-0.818,-0.828,359.938
6.9138,128.181887,37.942549,6978.6303912,-0.836,-0.832,359.937
6.9305,128.181887,37.942597,6978.545656800001,-0.855,-0.837,359.937
6.9472,128.181887,37.942644,6978.4609224000005,-0.874,-0.841,359.936
6.9639,128.181887,37.942691,6978.376188000001,-0.894,-0.846,359.935
6.9806,128.181887,37.942738,6978.290844,-0.915,-0.85,359.934
6.9973,128.181887,37.942785,6978.2055,-0.937,-0.855,359.933
7.014,128.181887,37.942832,6978.120156000001,-0.96,-0.86,359.932
7.0307,128.181887,37.942879,6978.0342024,-0.983,-0.865,359.931
7.0474,128.181887,37.942926,6977.9482488,-1.008,-0.87,359.93
7.0641,128.181887,37.942974,6977.8622952000005,-1.033,-0.875,359.929
7.0808,128.181887,37.943021,6977.775732,-1.06,-0.88,359.928
7.0975,128.181887,37.943068,6977.6891688000005,-1.087,-0.886,359.927
7.1142,128.181887,37.943115,6977.602605600001,-1.116,-0.891,359.926
7.1309,128.181887,37.943162,6977.515432800001,-1.146,-0.897,359.925
7.1476,128.181887,37.94321,6977.428260000001,-1.177,-0.903,359.923
7.1643,128.181887,37.943257,6977.3407824000005,-1.21,-0.908,359.922
7.181,128.181887,37.943304,6977.2533048000005,-1.245,-0.914,359.921
7.1977,128.181887,37.943352,6977.165522400001,-1.281,-0.921,359.92
7.2144,128.181887,37.943399,6977.0774352,-1.319,-0.927,359.918
7.2311,128.181887,37.943446,6976.989348,-1.358,-0.933,359.917
7.2478,128.181887,37.943493,6976.9006512000005,-1.4,-0.94,359.915
7.2645,128.181887,37.943541,6976.8122592,-1.444,-0.947,359.914
7.2812,128.181887,37.943588,6976.7232576,-1.491,-0.954,359.912
7.2979,128.181887,37.943635,6976.634256,-1.539,-0.961,359.911
7.3146,128.181887,37.943683,6976.5449496,-1.591,-0.968,359.909
7.3313,128.181887,37.94373,6976.4556432,-1.645,-0.976,359.908
7.348,128.181887,37.943778,6976.3657272,-1.703,-0.984,359.906
7.3647,128.181887,37.943825,6976.276116,-1.764,-0.992,359.904
7.3814,128.181887,37.943872,6976.1858952,-1.83,-1.0,359.902
7.3981,128.181887,37.94392,6976.095979200001,-1.9,-1.008,359.9
7.4148,128.181887,37.943967,6976.0054536,-1.974,-1.017,359.898
7.4315,128.181887,37.944015,6975.914928,-2.054,-1.026,359.895
7.4482,128.181887,37.944062,6975.8244024,-2.14,-1.035,359.893
7.4649,128.181887,37.94411,6975.733572,-2.232,-1.045,359.89
7.4816,128.181887,37.944157,6975.642741600001,-2.331,-1.054,359.888
7.4983,128.181887,37.944205,6975.551911200001,-2.438,-1.064,359.885
7.515,128.181887,37.944252,6975.460776,-2.553,-1.075,359.882
7.5317,128.181887,37.9443,6975.3699456,-2.678,-1.086,359.879
7.5484,128.181887,37.944347,6975.278810400001,-2.814,-1.097,359.876
7.5651,128.181886,37.944395,6975.1876752,-2.963,-1.109,359.872
7.5818,128.181886,37.944442,6975.0968448,-3.126,-1.121,359.868
7.5985,128.181886,37.94449,6975.006319200001,-3.306,-1.133,359.864
7.6152,128.181886,37.944537,6974.9157936,-3.505,-1.146,359.859
7.6319,128.181886,37.944585,6974.8258776,-3.726,-1.159,359.854
7.6486,128.181886,37.944633,6974.7362664,-3.974,-1.173,359.848
7.6653,128.181886,37.94468,6974.647264800001,-4.252,-1.187,359.842
7.682,128.181886,37.944728,6974.5591776,-4.566,-1.202,359.834
7.6987,128.181886,37.944775,6974.472004800001,-4.921,-1.217,359.826
7.7154,128.181886,37.944823,6974.386356000001,-5.326,-1.233,359.817
7.7321,128.181886,37.944871,6974.3019264,-5.787,-1.249,359.807
7.7488,128.181886,37.944918,6974.2190208,-6.309,-1.266,359.796
7.7655,128.181886,37.944966,6974.1373344,-6.893,-1.283,359.784
7.7822,128.181886,37.945014,6974.0559528,-7.404,-1.3,359.78
7.7989,128.181886,37.945061,6973.974876,-7.835,-1.315,359.785
7.8156,128.181886,37.945109,6973.8937992,-8.191,-1.33,359.794
7.8323,128.181886,37.945157,6973.8121128,-8.477,-1.344,359.804
7.849,128.181886,37.945204,6973.7298168,-8.7,-1.358,359.812
7.8657,128.181885,37.945252,6973.646301600001,-8.866,-1.371,359.818
7.8824,128.181885,37.9453,6973.5609576,-8.983,-1.385,359.822
7.8991,128.181885,37.945347,6973.4740896,-9.054,-1.399,359.825
7.9158,128.181885,37.945395,6973.385088000001,-9.083,-1.412,359.827
7.9325,128.181885,37.945443,6973.293648,-9.07,-1.426,359.828
7.9492,128.181885,37.945491,6973.200074400001,-9.012,-1.44,359.829
7.9659,128.181885,37.945539,6973.1040624,-8.856,-1.437,359.84
7.9826,128.181885,37.945586,6973.0053072,-8.606,-1.403,359.859
7.9993,128.181885,37.945634,6972.9041136000005,-8.259,-1.324,359.88
8.016,128.181884,37.945682,6972.8010912,-7.823,-1.186,359.894
8.0327,128.181884,37.94573,6972.6977640000005,-7.318,-0.981,359.899
8.0494,128.181884,37.945778,6972.595046400001,-6.764,-0.698,359.892
8.0661,128.181884,37.945826,6972.4938528,-6.185,-0.332,359.872
8.0828,128.181884,37.945873,6972.395097600001,-5.602,0.106,359.843
8.0994,128.181884,37.945921,6972.2993904,-5.034,0.602,359.808
8.1161,128.181884,37.945969,6972.2076456,-4.493,1.141,359.77
8.1329,128.181884,37.946017,6972.121387200001,-3.986,1.7,359.733
8.1496,128.181883,37.946065,6972.041224800001,-3.515,2.262,359.699
8.1663,128.181883,37.946113,6971.9668536,-3.076,2.805,359.671
8.183,128.181883,37.946161,6971.898578400001,-2.662,3.31,359.65
8.1997,128.181883,37.946209,6971.837923200001,-2.358,3.757,359.619
8.2164,128.181883,37.946257,6971.7845832,-2.16,4.128,359.58
8.2331,128.181883,37.946305,6971.7394728,-2.07,4.404,359.536
8.2498,128.181882,37.946353,6971.7016776,-2.09,4.568,359.494
8.2665,128.181882,37.9464,6971.6718072,-2.22,4.606,359.457
8.2831,128.181882,37.946448,6971.6501664,-2.457,4.535,359.425
8.2998,128.181882,37.946496,6971.6361456,-2.796,4.372,359.399
8.3166,128.181882,37.946544,6971.6303544,-3.233,4.137,359.378
8.3333,128.181881,37.946592,6971.6321832,-3.765,3.85,359.362
8.35,128.181881,37.94664,6971.6407176,-4.389,3.531,359.35
8.3667,128.181881,37.946688,6971.6559576,-5.101,3.199,359.341
8.3834,128.181881,37.946735,6971.6775984,-5.9,2.872,359.335
8.4001,128.18188,37.946783,6971.7050304,-6.784,2.57,359.33
8.4168,128.18188,37.946831,6971.7382536000005,-7.75,2.312,359.324
8.4335,128.18188,37.946879,6971.777268000001,-8.796,2.11,359.314
8.4502,128.18188,37.946927,6971.821464000001,-9.92,1.964,359.299
8.4668,128.181879,37.946975,6971.870841600001,-11.12,1.863,359.28
8.4835,128.181879,37.947022,6971.9247912,-12.391,1.799,359.257
8.5003,128.181879,37.94707,6971.9833128,-13.731,1.762,359.231
8.517,128.181878,37.947118,6972.046406400001,-15.137,1.748,359.202
8.5337,128.181878,37.947166,6972.114072,-16.604,1.754,359.169
8.5504,128.181877,37.947213,6972.186004800001,-18.131,1.777,359.131
8.5671,128.181877,37.947261,6972.2625096,-19.714,1.815,359.088
8.5838,128.181877,37.947309,6972.3435864,-21.351,1.868,359.04
8.6005,128.181876,37.947357,6972.4286256,-23.038,1.934,358.985
8.6172,128.181876,37.947404,6972.5185416,-24.775,2.014,358.922
8.6339,128.181875,37.947452,6972.612724800001,-26.558,2.106,358.851
8.6505,128.181874,37.9475,6972.7111752,-28.385,2.209,358.771
8.6672,128.181874,37.947548,6972.8145024,-30.256,2.324,358.681
8.684,128.181873,37.947595,6972.922096800001,-32.167,2.448,358.58
8.7007,128.181872,37.947643,6973.0342632,-34.118,2.581,358.468
8.7174,128.181871,37.947691,6973.149477600001,-35.909,2.748,358.354
8.7341,128.181871,37.947738,6973.2692640000005,-37.548,2.957,358.227
8.7508,128.18187,37.947786,6973.3933176,-39.031,3.212,358.075
8.7675,128.181869,37.947834,6973.5216384000005,-40.353,3.512,357.884
8.7842,128.181868,37.947881,6973.6539216,-41.516,3.843,357.659
8.8009,128.181867,37.947929,6973.790472000001,-42.523,4.191,357.409
8.8176,128.181865,37.947977,6973.9309848,-43.381,4.54,357.143
8.8342,128.181864,37.948024,6974.075460000001,-44.094,4.881,356.873
8.8509,128.181863,37.948072,6974.223897600001,-44.67,5.208,356.604
8.8676,128.181862,37.94812,6974.376297600001,-45.116,5.517,356.341
8.8844,128.18186,37.948167,6974.532964800001,-45.437,5.809,356.086
8.9011,128.181859,37.948215,6974.6929848,-45.642,6.083,355.84
8.9178,128.181857,37.948263,6974.857272,-45.736,6.34,355.606
8.9345,128.181855,37.94831,6975.0252168,-45.724,6.581,355.383
8.9512,128.181854,37.948358,6975.197124,-45.613,6.808,355.172
8.9679,128.181852,37.948405,6975.3726888,-45.408,7.02,354.972
8.9846,128.18185,37.948453,6975.551911200001,-45.113,7.221,354.785
9.0013,128.181848,37.948501,6975.735096,-44.733,7.41,354.609
9.0179,128.181846,37.948548,6975.9222432,-44.272,7.588,354.444
9.0346,128.181844,37.948596,6976.1136576,-43.734,7.758,354.29
9.0513,128.181842,37.948644,6976.309644,-43.122,7.919,354.147
9.0681,128.18184,37.948691,6976.5102024,-42.438,8.072,354.014
9.0848,128.181838,37.948739,6976.7156376,-41.687,8.219,353.89
9.1015,128.181835,37.948786,6976.9259496,-40.87,8.36,353.776
9.1182,128.181833,37.948834,6977.1414432,-39.989,8.496,353.67
9.1349,128.181831,37.948881,6977.3624232,-39.048,8.627,353.573
9.1516,128.181828,37.948929,6977.5885848,-38.047,8.754,353.484
9.1683,128.181825,37.948977,6977.8205376000005,-36.989,8.877,353.403
9.185,128.181823,37.949024,6978.058281600001,-35.875,8.997,353.33
9.2016,128.18182,37.949072,6978.3018168,-34.707,9.114,353.265
9.2183,128.181817,37.949119,6978.551448,-33.486,9.228,353.207
9.235,128.181814,37.949167,6978.8071752,-32.214,9.339,353.155
9.2518,128.181811,37.949214,6979.0693032,-30.891,9.449,353.111
9.2685,128.181808,37.949262,6979.3381368,-29.518,9.558,353.073
9.2852,128.181805,37.949309,6979.6133712,-28.097,9.665,353.041
9.3019,128.181802,37.949357,6979.8968352,-26.798,9.75,353.003
9.3186,128.181799,37.949404,6980.187309600001,-25.615,9.799,352.966
9.3353,128.181796,37.949451,6980.4847944,-24.552,9.802,352.94
9.352,128.181792,37.949499,6980.7895944,-23.612,9.749,352.936
9.3687,128.181789,37.949546,6981.1020144,-22.795,9.652,352.95
9.3854,128.181786,37.949594,6981.4217496,-22.101,9.527,352.979
9.402,128.181782,37.949641,6981.7494096,-21.525,9.387,353.014
9.4187,128.181779,37.949688,6982.0849944,-21.065,9.24,353.054
9.4355,128.181775,37.949736,6982.428199200001,-20.715,9.093,353.095
9.4522,128.181772,37.949783,6982.779328800001,-20.472,8.95,353.135
9.4689,128.181768,37.94983,6983.1380784,-20.331,8.812,353.173
9.4856,128.181764,37.949878,6983.5050576,-20.29,8.682,353.208
9.5023,128.181761,37.949925,6983.8799616,-20.345,8.56,353.24
9.519,128.181757,37.949972,6984.2627904,-20.493,8.448,353.268
9.5357,128.181753,37.950019,6984.6538488,-20.731,8.345,353.293
9.5524,128.181749,37.950067,6985.052832,-21.057,8.252,353.314
9.5691,128.181745,37.950114,6985.4603496,-21.468,8.17,353.331
9.5857,128.181741,37.950161,6985.876096800001,-21.962,8.098,353.344
9.6024,128.181737,37.950208,6986.299464000001,-22.535,8.037,353.353
9.6192,128.181733,37.950255,6986.7301464,-23.185,7.986,353.357
9.6359,128.181729,37.950302,6987.1684488,-23.91,7.946,353.357
9.6526,128.181725,37.95035,6987.6140663999995,-24.707,7.916,353.352
9.6693,128.181721,37.950397,6988.0666944,-25.575,7.897,353.343
9.686,128.181716,37.950444,6988.526332800001,-26.51,7.888,353.327
9.7027,128.181712,37.950491,6988.992372000001,-27.512,7.89,353.307
9.7194,128.181708,37.950538,6989.4654216,-28.578,7.901,353.28
9.7361,128.181703,37.950585,6989.944872,-29.705,7.922,353.246
9.7528,128.181699,37.950632,6990.431028000001,-30.894,7.953,353.206
9.7694,128.181694,37.950679,6990.92328,-32.141,7.992,353.159
9.7861,128.18169,37.950726,6991.421628000001,-33.445,8.041,353.104
9.8029,128.181685,37.950773,6991.9263768,-34.806,8.098,353.041
9.8196,128.18168,37.95082,6992.4372216,-36.22,8.163,352.969
9.8363,128.181675,37.950867,6992.952333600001,-37.498,8.259,352.896
9.853,128.18167,37.950913,6993.472932000001,-38.647,8.396,352.815
9.8697,128.181665,37.95096,6993.9993216,-39.664,8.577,352.711
9.8864,128.18166,37.951007,6994.5308928,-40.546,8.797,352.578
9.9031,128.181655,37.951054,6995.0673408,-41.291,9.045,352.418
9.9198,128.18165,37.951101,6995.608665600001,-41.903,9.31,352.237
9.9365,128.181645,37.951147,6996.155172,-42.385,9.582,352.043
9.9531,128.181639,37.951194,6996.7062504000005,-42.741,9.853,351.842
9.9698,128.181634,37.951241,6997.262205600001,-42.977,10.119,351.64
9.9865,128.181628,37.951288,6997.822428,-43.099,10.375,351.441
10.0033,128.181623,37.951334,6998.3875272000005,-43.111,10.621,351.247
10.02,128.181617,37.951381,6998.9571984,-43.019,10.855,351.06
10.0367,128.181611,37.951428,6999.5314416,-42.829,11.078,350.882
10.0534,128.181605,37.951475,7000.109952000001,-42.545,11.29,350.713
10.0701,128.1816,37.951521,7000.692729599999,-42.173,11.491,350.553
10.0868,128.181594,37.951568,7001.279774400001,-41.715,11.683,350.403
10.1035,128.181588,37.951615,7001.8710864,-41.177,11.865,350.262
10.1202,128.181582,37.951661,7002.466665600001,-40.561,12.039,350.131
10.1368,128.181576,37.951708,7003.0668168,-39.872,12.206,350.01
10.1535,128.181569,37.951754,7003.67154,-39.111,12.365,349.897
10.1702,128.181563,37.951801,7004.2814448,-38.282,12.519,349.793
10.187,128.181557,37.951847,7004.8962264,-37.387,12.667,349.698
10.2037,128.18155,37.951894,7005.5161896,-36.43,12.809,349.611
10.2204,128.181544,37.951941,7006.1413344,-35.41,12.948,349.532
10.2371,128.181537,37.951987,7006.771965600001,-34.332,13.082,349.461
10.2538,128.181531,37.952034,7007.408388000001,-33.195,13.212,349.397
10.2705,128.181524,37.95208,7008.050601600001,-32.003,13.338,349.342
10.2872,128.181517,37.952127,7008.698606400001,-30.756,13.462,349.293
10.3039,128.181511,37.952173,7009.3524024,-29.456,13.583,349.251
10.3205,128.181504,37.952219,7010.0141232000005,-28.272,13.68,349.206
10.3372,128.181497,37.952266,7010.68194,-27.197,13.739,349.162
10.3539,128.18149,37.952312,7011.3564624,-26.236,13.752,349.133
10.3707,128.181483,37.952359,7012.0376904,-25.388,13.71,349.128
10.3874,128.181476,37.952405,7012.7259288000005,-24.657,13.625,349.143
10.4041,128.181469,37.952451,7013.4211776,-24.04,13.512,349.171
10.4208,128.181462,37.952497,7014.1237416,-23.535,13.385,349.208
10.4375,128.181455,37.952544,7014.833316,-23.14,13.251,349.249
10.4542,128.181448,37.95259,7015.5502056000005,-22.851,13.116,349.292
10.4709,128.18144,37.952636,7016.2744104,-22.663,12.984,349.333
10.4876,128.181433,37.952682,7017.0059304,-22.574,12.858,349.373
10.5042,128.181426,37.952729,7017.7447656,-22.581,12.739,349.409
10.5209,128.181418,37.952775,7018.4915256,-22.679,12.628,349.443
10.5376,128.181411,37.952821,7019.245296,-22.867,12.526,349.472
10.5544,128.181404,37.952867,7020.006991200001,-23.143,12.434,349.497
10.5711,128.181396,37.952913,7020.776306400001,-23.502,12.351,349.519
10.5878,128.181388,37.952959,7021.5535464,-23.944,12.278,349.535
10.6045,128.181381,37.953005,7022.338406400001,-24.465,12.216,349.547
10.6212,128.181373,37.953051,7023.1305816,-25.064,12.164,349.555
10.6379,128.181365,37.953097,7023.9297672,-25.737,12.122,349.557
10.6546,128.181357,37.953143,7024.7356584,-26.483,12.091,349.555
10.6713,128.18135,37.953189,7025.548864800001,-27.299,12.069,349.547
10.6879,128.181342,37.953235,7026.368472,-28.183,12.057,349.533
10.7046,128.181334,37.953281,7027.19448,-29.134,12.055,349.513
10.7213,128.181326,37.953326,7028.0268888,-30.149,12.063,349.488
10.7381,128.181318,37.953372,7028.8656984,-31.227,12.08,349.455
10.7548,128.181309,37.953418,7029.710604,-32.366,12.106,349.416
10.7715,128.181301,37.953464,7030.561605600001,-33.565,12.141,349.37
10.7882,128.181293,37.953509,7031.4183984,-34.821,12.184,349.316
10.8049,128.181285,37.953555,7032.2812872,-36.134,12.234,349.253
10.8216,128.181276,37.953601,7033.148138400001,-37.316,12.316,349.19
10.8383,128.181268,37.953646,7034.020476,-38.378,12.437,349.119
10.855,128.181259,37.953692,7034.8976904,-39.315,12.601,349.026
10.8717,128.181251,37.953737,7035.780391200001,-40.125,12.806,348.903
10.8883,128.181242,37.953783,7036.6676640000005,-40.809,13.041,348.753
10.905,128.181233,37.953828,7037.5595088,-41.367,13.294,348.582
10.9218,128.181224,37.953874,7038.4562304,-41.802,13.558,348.395
10.9385,128.181216,37.953919,7039.357524000001,-42.118,13.824,348.2
10.9552,128.181207,37.953965,7040.2633896,-42.32,14.087,348.002
10.9719,128.181198,37.95401,7041.1738272,-42.412,14.342,347.806
10.9886,128.181188,37.954056,7042.088532000001,-42.399,14.588,347.614
11.0053,128.181179,37.954101,7043.007504,-42.285,14.824,347.428
11.022,128.18117,37.954146,7043.9310479999995,-42.076,15.049,347.25
11.0387,128.181161,37.954192,7044.858554400001,-41.777,15.263,347.082
11.0554,128.181151,37.954237,7045.790328000001,-41.391,15.468,346.922
11.072,128.181142,37.954282,7046.726064,-40.922,15.662,346.772
11.0887,128.181133,37.954328,7047.6657624,-40.375,15.848,346.632
11.1054,128.181123,37.954373,7048.609728,-39.752,16.025,346.501
11.1222,128.181113,37.954418,7049.557960800001,-39.057,16.194,346.379
11.1389,128.181104,37.954463,7050.510765600001,-38.292,16.357,346.267
11.1556,128.181094,37.954508,7051.468142400001,-37.46,16.513,346.163
11.1723,128.181084,37.954554,7052.430396000001,-36.565,16.664,346.068
11.189,128.181074,37.954599,7053.3978312,-35.607,16.809,345.982
11.2057,128.181065,37.954644,7054.3701432,-34.589,16.95,345.903
11.2224,128.181055,37.954689,7055.3476368,-33.512,17.087,345.833
11.2391,128.181045,37.954734,7056.330312,-32.379,17.22,345.77
11.2557,128.181035,37.954779,7057.318778400001,-31.191,17.35,345.715
11.2724,128.181024,37.954824,7058.312731200001,-29.949,17.477,345.667
11.2891,128.181014,37.954869,7059.3136944,-28.818,17.579,345.615
11.3059,128.181004,37.954914,7060.3210584,-27.794,17.645,345.567
11.3226,128.180994,37.954959,7061.3342136,-26.876,17.664,345.534
11.3393,128.180984,37.955004,7062.3537696,-26.067,17.629,345.526
11.356,128.180973,37.955049,7063.3800312,-25.367,17.549,345.54
11.3727,128.180963,37.955094,7064.4126936,-24.777,17.442,345.567
11.3894,128.180952,37.955138,7065.4523664,-24.294,17.318,345.604
11.4061,128.180942,37.955183,7066.49844,-23.917,17.188,345.646
11.4228,128.180931,37.955228,7067.5518288,-23.642,17.055,345.689
11.4394,128.180921,37.955273,7068.6119232,-23.466,16.925,345.732
11.4561,128.18091,37.955317,7069.6790280000005,-23.385,16.801,345.772
11.4728,128.1809,37.955362,7070.7531432,-23.398,16.683,345.81
11.4896,128.180889,37.955407,7071.834573600001,-23.501,16.573,345.844
11.5063,128.180878,37.955451,7072.9230144,-23.691,16.472,345.874
11.523,128.180867,37.955496,7074.018770400001,-23.966,16.381,345.899
11.5397,128.180856,37.95554,7075.1218416,-24.323,16.299,345.92
11.5564,128.180846,37.955585,7076.232532800001,-24.762,16.227,345.937
11.5731,128.180835,37.955629,7077.3505392,-25.278,16.166,345.948
11.5898,128.180824,37.955674,7078.4752512000005,-25.87,16.115,345.955
11.6065,128.180813,37.955718,7079.606973600001,-26.537,16.073,345.956
11.6231,128.180802,37.955762,7080.7450968,-27.274,16.042,345.952
11.6398,128.18079,37.955807,7081.8899255999995,-28.082,16.021,345.943
11.6565,128.180779,37.955851,7083.0411552000005,-28.957,16.009,345.927
11.6733,128.180768,37.955895,7084.1984808,-29.897,16.007,345.906
11.69,128.180757,37.955939,7085.3622072,-30.902,16.014,345.878
11.7067,128.180745,37.955984,7086.531724800001,-31.969,16.03,345.843
11.7234,128.180734,37.956028,7087.707033600001,-33.097,16.055,345.801
11.7401,128.180722,37.956072,7088.8881336,-34.284,16.088,345.752
11.7568,128.180711,37.956116,7090.075024800001,-35.529,16.129,345.695
11.7735,128.180699,37.95616,7091.267097600001,-36.83,16.178,345.63
11.7902,128.180688,37.956204,7092.4634376,-38.006,16.257,345.563
11.8068,128.180676,37.956248,7093.6649592,-39.066,16.375,345.489
11.8235,128.180664,37.956292,7094.8710528,-40.008,16.535,345.393
11.8402,128.180652,37.956336,7096.082023200001,-40.831,16.736,345.266
11.857,128.18064,37.956379,7097.297260800001,-41.532,16.968,345.111
11.8737,128.180628,37.956423,7098.517070400001,-42.114,17.22,344.933
11.8904,128.180616,37.956467,7099.7411472,-42.579,17.483,344.738
11.9071,128.180604,37.956511,7100.969796,-42.929,17.749,344.533
11.9238,128.180592,37.956555,7102.2024071999995,-43.167,18.013,344.325
11.9405,128.18058,37.956598,7103.4392856,-43.298,18.271,344.116
11.9572,128.180567,37.956642,7104.6801264000005,-43.327,18.521,343.911
11.9739,128.180555,37.956686,7105.9252344,-43.257,18.761,343.712
11.9905,128.180543,37.956729,7107.174,-43.094,18.991,343.52
12.0072,128.18053,37.956773,7108.426728,-42.841,19.21,343.337
12.0239,128.180518,37.956816,7109.683418400001,-42.502,19.42,343.163
12.0407,128.180505,37.95686,7110.9437664,-42.082,19.62,342.998
12.0574,128.180492,37.956903,7112.207772,-41.584,19.81,342.843
12.0741,128.18048,37.956947,7113.4754352,-41.011,19.993,342.698
12.0908,128.180467,37.95699,7114.7470608,-40.367,20.168,342.562
12.1075,128.180454,37.957034,7116.0229536,-39.654,20.336,342.436
12.1242,128.180441,37.957077,7117.3031136,-38.874,20.497,342.319
12.1409,128.180428,37.95712,7118.5875408,-38.031,20.652,342.212
12.1576,128.180415,37.957164,7119.87654,-37.126,20.803,342.113
12.1743,128.180402,37.957207,7121.170416,-36.161,20.948,342.022
12.1909,128.180389,37.95725,7122.4691688,-35.139,21.09,341.94
12.2076,128.180376,37.957294,7123.7724935999995,-34.06,21.228,341.866
12.2243,128.180363,37.957337,7125.0813048,-32.927,21.363,341.8
12.2411,128.180349,37.95738,7126.395297600001,-31.741,21.496,341.741
12.2578,128.180336,37.957423,7127.7156912,-30.662,21.603,341.679
12.2745,128.180323,37.957466,7129.041876,-29.682,21.674,341.622
12.2912,128.180309,37.957509,7130.3741568000005,-28.804,21.699,341.582
12.3079,128.180296,37.957553,7131.712228800001,-28.027,21.671,341.568
12.3246,128.180282,37.957596,7133.0567016,-27.352,21.602,341.577
12.3413,128.180269,37.957639,7134.407270400001,-26.782,21.505,341.601
12.358,128.180255,37.957681,7135.7645448,-26.315,21.391,341.635
12.3746,128.180241,37.957724,7137.1282200000005,-25.949,21.27,341.675
12.3913,128.180228,37.957767,7138.4986008000005,-25.681,21.146,341.717
12.408,128.180214,37.95781,7139.8753824000005,-25.51,21.023,341.759
12.4248,128.1802,37.957853,7141.259174400001,-25.432,20.905,341.799
12.4415,128.180186,37.957896,7142.6496720000005,-25.445,20.793,341.837
12.4582,128.180173,37.957938,7144.04718,-25.545,20.687,341.871
12.4749,128.180159,37.957981,7145.4516984,-25.731,20.59,341.901
12.4916,128.180145,37.958024,7146.8632272,-26.0,20.501,341.927
12.5083,128.180131,37.958066,7148.2820712,-26.35,20.422,341.949
12.525,128.180117,37.958109,7149.7079256,-26.779,20.352,341.965
12.5417,128.180103,37.958151,7151.1414,-27.284,20.291,341.976
12.5583,128.180089,37.958194,7152.5812752,-27.864,20.24,341.982
12.575,128.180074,37.958236,7154.027856000001,-28.518,20.198,341.982
12.5917,128.18006,37.958278,7155.481142400001,-29.242,20.166,341.977
12.6085,128.180046,37.958321,7156.940524800001,-30.036,20.143,341.966
12.6252,128.180031,37.958363,7158.4063080000005,-30.897,20.129,341.948
12.6419,128.180017,37.958405,7159.878187200001,-31.824,20.123,341.924
12.6586,128.180003,37.958447,7161.3558576,-32.814,20.127,341.894
12.6753,128.179988,37.958489,7162.8393192,-33.867,20.139,341.857
12.692,128.179974,37.958531,7164.328572,-34.981,20.159,341.812
12.7087,128.179959,37.958573,7165.823311200001,-36.155,20.186,341.76
12.7254,128.179944,37.958615,7167.323232000001,-37.386,20.221,341.699
12.742,128.17993,37.958657,7168.8286392,-38.674,20.263,341.631
12.7587,128.179915,37.958699,7170.3377040000005,-39.844,20.334,341.561
12.7754,128.1799,37.958741,7171.8513408,-40.904,20.443,341.482
12.7922,128.179885,37.958783,7173.3695496,-41.854,20.593,341.381
12.8089,128.17987,37.958825,7174.8923304,-42.693,20.783,341.248
12.8256,128.179855,37.958866,7176.419073600001,-43.419,21.003,341.086
12.8423,128.17984,37.958908,7177.949779200001,-44.033,21.242,340.899
12.859,128.179825,37.95895,7179.484752000001,-44.536,21.494,340.695
12.8757,128.179809,37.958991,7181.023382400001,-44.929,21.75,340.479
12.8924,128.179794,37.959033,7182.5659752,-45.217,22.005,340.257
12.9091,128.179779,37.959074,7184.1125304,-45.4,22.255,340.034
12.9257,128.179763,37.959116,7185.662438400001,-45.485,22.498,339.813
12.9424,128.179748,37.959157,7187.216004,-45.475,22.733,339.597
12.9591,128.179732,37.959199,7188.7732272,-45.373,22.958,339.387
12.9759,128.179717,37.95924,7190.3338032,-45.184,23.175,339.185
12.9926,128.179701,37.959282,7191.897732,-44.911,23.382,338.991
13.0093,128.179685,37.959323,7193.4650136,-44.558,23.58,338.807
13.026,128.17967,37.959364,7195.0353432,-44.128,23.77,338.632
13.0427,128.179654,37.959406,7196.6090256,-43.625,23.952,338.467
13.0594,128.179638,37.959447,7198.1863656000005,-43.051,24.127,338.312
13.0761,128.179622,37.959488,7199.768887200001,-42.578,24.286,338.156
13.0928,128.179606,37.959529,7201.355676,-42.204,24.431,337.999
13.1095,128.17959,37.95957,7202.9470368,-41.93,24.564,337.845
13.1262,128.179574,37.959611,7204.5441888,-41.749,24.686,337.69
13.1429,128.179558,37.959652,7206.1468272,-41.662,24.798,337.536
13.1596,128.179542,37.959693,7207.755256800001,-41.667,24.902,337.384
13.1763,128.179525,37.959734,7209.3694776,-41.763,25.0,337.234
13.193,128.179509,37.959775,7210.9900992,-41.948,25.093,337.085
13.2097,128.179492,37.959816,7212.6171216,-42.22,25.182,336.939
13.2264,128.179476,37.959857,7214.2508496,-42.576,25.267,336.794
13.2431,128.179459,37.959898,7215.8912832000005,-43.014,25.349,336.65
13.2598,128.179443,37.959938,7217.538727200001,-43.531,25.428,336.505
13.2765,128.179426,37.959979,7219.1934864,-44.125,25.505,336.361
13.2932,128.179409,37.960019,7220.855256000001,-44.793,25.579,336.215
13.3099,128.179392,37.96006,7222.5246456,-45.535,25.651,336.069
13.3266,128.179375,37.9601,7224.201045600001,-46.347,25.721,335.921
13.3433,128.179358,37.960141,7225.885370400001,-47.229,25.789,335.77
13.36,128.17934,37.960181,7227.5770104,-48.178,25.855,335.617
13.3767,128.179323,37.960221,7229.275660800001,-49.193,25.919,335.461
13.3934,128.179306,37.960261,7230.9813216,-50.271,25.981,335.302
13.4101,128.179288,37.960301,7232.693992800001,-51.413,26.04,335.139
13.4268,128.17927,37.960341,7234.41276,-52.615,26.097,334.971
13.4435,128.179253,37.960381,7236.138232800001,-53.878,26.151,334.8
13.4602,128.179235,37.960421,7237.869496800001,-55.199,26.201,334.623
13.4769,128.179217,37.96046,7239.606552000001,-56.578,26.248,334.442
13.4936,128.179199,37.9605,7241.3493984,-58.013,26.291,334.256
13.5103,128.17918,37.960539,7243.0971216,-59.504,26.33,334.065
13.527,128.179162,37.960579,7244.8500264,-61.049,26.364,333.869
13.5437,128.179144,37.960618,7246.607808,-62.648,26.394,333.668
13.5604,128.179125,37.960658,7248.369552000001,-64.299,26.417,333.461
13.5771,128.179106,37.960697,7250.135258400001,-66.003,26.435,333.25
13.5938,128.179087,37.960736,7251.9049272,-67.758,26.447,333.033
13.6105,128.179068,37.960775,7253.677644,-69.564,26.452,332.811
13.6272,128.179049,37.960814,7255.4534088,-71.419,26.45,332.584
13.6439,128.17903,37.960853,7257.231612,-73.325,26.44,332.352
13.6606,128.179011,37.960892,7259.011644,-75.279,26.422,332.116
13.6773,128.178991,37.960931,7260.793809600001,-77.282,26.396,331.874
13.694,128.178972,37.96097,7262.5771944,-79.332,26.361,331.629
13.7107,128.178952,37.961008,7264.3611888,-81.431,26.316,331.379
13.7274,128.178932,37.961047,7266.146097600001,-83.577,26.262,331.125
13.7441,128.178912,37.961085,7267.930701600001,-85.769,26.197,330.867
13.7608,128.178892,37.961124,7269.714696000001,-88.008,26.122,330.606
13.7775,128.178872,37.961162,7271.4980808,-90.293,26.035,330.342
13.7942,128.178851,37.961201,7273.279941600001,-92.624,25.936,330.076
13.8109,128.178831,37.961239,7275.0599736,-95.001,25.825,329.808
13.8276,128.17881,37.961277,7276.8375672,-97.423,25.702,329.538
13.8443,128.178789,37.961315,7278.6124176,-99.89,25.564,329.268
13.861,128.178768,37.961353,7280.383915200001,-102.402,25.413,328.998
13.8777,128.178747,37.961392,7282.15206,-104.958,25.246,328.729
13.8944,128.178726,37.96143,7283.915632800001,-107.559,25.065,328.462
13.9111,128.178705,37.961468,7285.674633600001,-110.202,24.867,328.198
13.9278,128.178683,37.961505,7287.4284528,-112.887,24.652,327.938
13.9445,128.178661,37.961543,7289.1770904,-115.613,24.419,327.683
13.9612,128.17864,37.961581,7290.9193272,-118.379,24.168,327.435
13.9779,128.178618,37.961619,7292.655468,-121.183,23.898,327.196
13.9946,128.178596,37.961657,7294.3845984,-124.024,23.608,326.966
14.0113,128.178574,37.961695,7296.1064136,-126.903,23.3,326.748
14.028,128.178551,37.961732,7297.8209136000005,-129.817,22.972,326.543
14.0447,128.178529,37.96177,7299.526879200001,-132.765,22.625,326.353
14.0614,128.178507,37.961808,7301.224920000001,-135.744,22.26,326.179
14.0781,128.178484,37.961845,7302.9147312000005,-138.688,21.881,326.02
14.0948,128.178461,37.961883,7304.5963128,-141.54,21.49,325.872
14.1115,128.178439,37.96192,7306.2690552,-144.263,21.089,325.736
14.1282,128.178416,37.961958,7307.9338728,-146.86,20.68,325.611
14.1449,128.178393,37.961996,7309.590156000001,-149.336,20.263,325.499
14.1616,128.17837,37.962033,7311.2382096,-151.695,19.84,325.399
14.1783,128.178347,37.962071,7312.878338400001,-153.941,19.411,325.312
14.195,128.178324,37.962108,7314.5102376,-156.077,18.978,325.239
14.2117,128.178301,37.962146,7316.1345168,-158.107,18.542,325.18
14.2284,128.178277,37.962183,7317.751176,-160.034,18.104,325.135
14.2451,128.178254,37.962221,7319.3602152,-161.862,17.665,325.104
14.2618,128.178231,37.962258,7320.9619391999995,-163.594,17.227,325.088
14.2785,128.178207,37.962296,7322.556348,-165.232,16.791,325.085
14.2952,128.178184,37.962334,7324.143746400001,-166.784,16.359,325.094
14.3119,128.17816,37.962371,7325.7241343999995,-168.25,15.93,325.114
14.3286,128.178137,37.962409,7327.2978168,-169.634,15.507,325.147
14.3453,128.178113,37.962446,7328.8647936,-170.939,15.089,325.19
14.362,128.17809,37.962484,7330.425064800001,-172.166,14.678,325.244
14.3787,128.178066,37.962522,7331.977715999999,-173.317,14.274,325.308
14.3954,128.178043,37.962559,7333.5230520000005,-174.395,13.878,325.383
14.4121,128.178019,37.962597,7335.060768,-175.402,13.49,325.466
14.4288,128.177995,37.962634,7336.590559200001,-176.339,13.11,325.558
14.4455,128.177971,37.962672,7338.1124256,-177.208,12.739,325.659
14.4622,128.177948,37.96271,7339.6263672000005,-178.012,12.377,325.768
14.4789,128.177924,37.962747,7341.131469600001,-178.752,12.025,325.883
14.4956,128.1779,37.962785,7342.6283424,-179.43,11.681,326.006
14.5123,128.177876,37.962823,7344.116376,179.952,11.347,326.134
14.529,128.177852,37.96286,7345.595570400001,179.394,11.023,326.268
14.5457,128.177828,37.962898,7347.0656208,178.893,10.707,326.407
14.5624,128.177804,37.962936,7348.5271368,178.449,10.414,326.55
14.5791,128.17778,37.962974,7349.9798136,178.058,10.157,326.695
14.5958,128.177756,37.963011,7351.4239560000005,177.721,9.947,326.843
14.6125,128.177732,37.963049,7352.8598688,177.436,9.799,326.99
14.6292,128.177708,37.963087,7354.287856800001,177.2,9.724,327.135
14.6459,128.177684,37.963125,7355.707920000001,177.014,9.734,327.277
14.6626,128.17766,37.963162,7357.1206680000005,176.874,9.817,327.416
14.6793,128.177636,37.9632,7358.526100800001,176.779,9.956,327.551
14.696,128.177611,37.963238,7359.9242184,176.729,10.138,327.683
14.7127,128.177587,37.963276,7361.3156304,176.72,10.347,327.811
14.7294,128.177563,37.963314,7362.7006416,176.752,10.569,327.936
14.7461,128.177539,37.963352,7364.078947200001,176.822,10.79,328.058
14.7628,128.177515,37.963389,7365.451156800001,176.929,11.004,328.176
14.7795,128.17749,37.963427,7366.8175752,177.072,11.209,328.289
14.7962,128.177466,37.963465,7368.1782023999995,177.249,11.405,328.397
14.8129,128.177442,37.963503,7369.5339527999995,177.457,11.593,328.499
14.8296,128.177418,37.963541,7370.8845216,177.697,11.771,328.594
14.8463,128.177393,37.963579,7372.230213600001,177.965,11.941,328.681
14.863,128.177369,37.963617,7373.571333600001,178.261,12.102,328.76
14.8797,128.177345,37.963655,7374.9078816,178.584,12.256,328.831
14.8964,128.17732,37.963693,7376.2404672,178.932,12.402,328.892
14.9131,128.177296,37.963731,7377.5687856,179.305,12.54,328.944
14.9298,128.177272,37.963769,7378.8931416000005,179.707,12.672,328.989
14.9465,128.177247,37.963807,7380.21384,-179.86,12.798,329.029
14.9632,128.177223,37.963845,7381.5311856,-179.394,12.918,329.065
14.9799,128.177198,37.963883,7382.844873600001,-178.893,13.032,329.099
14.9966,128.177174,37.963921,7384.154904,-178.357,13.128,329.132
15.0133,128.177149,37.963959,7385.460972,-177.786,13.192,329.162
15.03,128.177125,37.963997,7386.7630776000005,-177.181,13.213,329.19
15.0467,128.177101,37.964035,7388.0606112000005,-176.542,13.183,329.214
15.0634,128.177076,37.964073,7389.3538776000005,-175.869,13.093,329.233
15.0801,128.177052,37.964111,7390.6416576,-175.164,12.934,329.246
15.0968,128.177027,37.964149,7391.9236464000005,-174.427,12.701,329.25
15.1135,128.177003,37.964187,7393.2004536,-173.659,12.403,329.245
15.1302,128.176978,37.964225,7394.4711648,-172.861,12.051,329.23
15.1469,128.176953,37.964263,7395.73578,-172.033,11.658,329.206
15.1636,128.176929,37.964301,7396.9939944,-171.175,11.235,329.172
15.1803,128.176904,37.964339,7398.2455032,-170.288,10.795,329.13
15.197,128.17688,37.964377,7399.4896968,-169.371,10.354,329.081
15.2137,128.176855,37.964415,7400.7265752,-168.425,9.924,329.027
15.2304,128.17683,37.964453,7401.955833600001,-167.449,9.512,328.969
15.2471,128.176806,37.964491,7403.1771672,-166.443,9.118,328.907
15.2638,128.176781,37.964529,7404.3896616,-165.408,8.744,328.841
15.2805,128.176756,37.964567,7405.5936216,-164.343,8.39,328.772
15.2972,128.176731,37.964605,7406.788742400001,-163.25,8.056,328.699
15.3139,128.176706,37.964643,7407.9747192,-162.127,7.741,328.624
15.3306,128.176681,37.964682,7409.1512472,-160.976,7.445,328.545
15.3473,128.176657,37.96472,7410.3183264,-159.796,7.167,328.464
15.364,128.176632,37.964758,7411.475652000001,-158.586,6.905,328.379
15.3807,128.176607,37.964796,7412.623224000001,-157.348,6.659,328.292
15.3974,128.176581,37.964834,7413.7610424,-156.08,6.428,328.201
15.4141,128.176556,37.964872,7414.8888024,-154.784,6.211,328.108
15.4308,128.176531,37.96491,7416.006504,-153.458,6.007,328.011
15.4475,128.176506,37.964948,7417.114452000001,-152.103,5.816,327.912
15.4642,128.176481,37.964986,7418.2120368000005,-150.718,5.636,327.809
15.4809,128.176456,37.965025,7419.299868,-149.304,5.467,327.702
15.4976,128.17643,37.965063,7420.3773360000005,-147.86,5.308,327.593
15.5143,128.176405,37.965101,7421.445050400001,-146.386,5.159,327.48
15.531,128.176379,37.965139,7422.5027064000005,-144.883,5.019,327.363
15.5477,128.176354,37.965177,7423.5506088,-143.349,4.888,327.242
15.5644,128.176328,37.965215,7424.5887576000005,-141.786,4.766,327.118
