Time,Longitude,Latitude,Altitude,Roll (deg),Pitch (deg),Yaw (deg)
0.0,128.181881,37.968463,7002.830292000001,0.0,-0.003,179.999
0.0167,128.181881,37.968418,7002.8116992000005,0.0,-0.012,180.0
0.0334,128.181881,37.968374,7002.7912776,0.087,-0.025,180.011
0.0501,128.181881,37.968329,7002.7690272,0.258,-0.041,180.034
0.0668,128.181881,37.968284,7002.744338400001,0.516,-0.059,180.064
0.0834,128.181881,37.968239,7002.7193448,0.689,-0.065,180.074
0.1002,128.181881,37.968194,7002.693132,0.783,-0.072,180.064
0.1169,128.181881,37.968149,7002.666614400001,0.789,-0.082,180.039
0.1336,128.181881,37.968104,7002.639792000001,0.702,-0.095,180.007
0.1503,128.181881,37.968059,7002.6135792000005,0.519,-0.111,179.97
0.1669,128.181881,37.968014,7002.5876712,0.24,-0.127,179.933
0.1837,128.181881,37.967969,7002.562982400001,-0.133,-0.145,179.896
0.2004,128.181881,37.967924,7002.537684000001,-0.424,-0.149,179.882
0.2171,128.181881,37.967879,7002.5126904,-0.634,-0.126,179.891
0.2338,128.181881,37.967834,7002.4864776,-0.754,-0.091,179.916
0.2505,128.181881,37.967789,7002.4593504,-0.776,-0.058,179.949
0.2672,128.181881,37.967745,7002.4303944,-0.698,-0.039,179.987
0.2839,128.181881,37.9677,7002.3993048,-0.519,-0.033,180.025
0.3006,128.181881,37.967655,7002.3663864,-0.241,-0.037,180.064
0.3172,128.181881,37.96761,7002.330724800001,0.132,-0.049,180.102
0.3339,128.181881,37.967565,7002.2947584,0.422,-0.054,180.116
0.3507,128.181881,37.96752,7002.2578776,0.633,-0.039,180.106
0.3674,128.181881,37.967475,7002.220387200001,0.753,-0.018,180.082
0.3841,128.181881,37.96743,7002.182592000001,0.776,-0.005,180.049
0.4008,128.181881,37.967385,7002.144796800001,0.699,-0.003,180.012
0.4175,128.181881,37.96734,7002.107611200001,0.521,-0.01,179.973
0.4342,128.181881,37.967295,7002.07134,0.245,-0.013,179.935
0.4509,128.181881,37.96725,7002.0372024,-0.126,0.0,179.897
0.4676,128.181881,37.967205,7002.003064800001,-0.415,0.046,179.883
0.4843,128.181881,37.96716,7001.9689272000005,-0.624,0.109,179.892
0.501,128.181881,37.967116,7001.9344848,-0.742,0.175,179.917
0.5176,128.181881,37.967071,7001.9003472,-0.764,0.257,179.95
0.5344,128.181881,37.967026,7001.865904800001,-0.685,0.367,179.986
0.5511,128.181881,37.966981,7001.8314624,-0.505,0.518,180.023
0.5678,128.181881,37.966936,7001.797020000001,-0.227,0.721,180.06
0.5845,128.181881,37.966891,7001.7628824,0.144,0.984,180.097
0.6012,128.181881,37.966846,7001.730573600001,0.435,1.296,180.11
0.6179,128.181881,37.966801,7001.7000935999995,0.644,1.641,180.102
0.6345,128.181881,37.966756,7001.6732712,0.764,2.031,180.08
0.6513,128.181881,37.966711,7001.650716,0.787,2.462,180.052
0.6679,128.181881,37.966666,7001.632732800001,0.71,2.921,180.02
0.6847,128.181881,37.966622,7001.620236000001,0.535,3.391,179.986
0.7014,128.181881,37.966577,7001.6144448000005,0.264,3.862,179.953
0.7181,128.181881,37.966532,7001.6132256,0.071,4.316,179.941
0.7348,128.181881,37.966487,7001.617492800001,-0.044,4.739,179.951
0.7514,128.181881,37.966442,7001.6269416000005,-0.076,5.114,179.975
0.7682,128.181881,37.966397,7001.6409624,-0.016,5.427,180.007
0.7848,128.181881,37.966352,7001.6601648000005,0.136,5.689,180.043
0.8016,128.181881,37.966307,7001.6839392,0.381,5.914,180.08
0.8183,128.181881,37.966262,7001.7135048,0.55,6.088,180.096
0.835,128.181881,37.966218,7001.749776,0.643,6.224,180.091
0.8517,128.181881,37.966173,7001.7927528,0.654,6.336,180.071
0.8684,128.18188,37.966128,7001.8430448,0.579,6.437,180.043
0.8851,128.18188,37.966083,7001.9012616,0.414,6.541,180.01
0.9018,128.18188,37.966038,7001.9649648,0.325,6.634,179.997
0.9185,128.18188,37.965993,7002.0344592,0.309,6.703,180.004
0.9352,128.18188,37.965949,7002.1088304,0.372,6.734,180.025
0.9519,128.18188,37.965904,7002.187773600001,0.519,6.714,180.054
0.9686,128.18188,37.965859,7002.270374400001,0.753,6.634,180.087
0.9853,128.18188,37.965814,7002.356328000001,1.074,6.508,180.121
1.002,128.18188,37.965769,7002.4471584,1.315,6.352,180.133
1.0187,128.18188,37.965724,7002.5425608000005,1.478,6.181,180.124
1.0353,128.18188,37.96568,7002.6425352,1.556,6.011,180.101
1.0521,128.18188,37.965635,7002.7476912,1.545,5.856,180.069
1.0688,128.18188,37.96559,7002.855285600001,1.61,5.702,180.055
1.0855,128.18188,37.965545,7002.965623200001,1.747,5.548,180.059
1.1022,128.18188,37.9655,7003.078399200001,1.961,5.393,180.077
1.1189,128.18188,37.965456,7003.193004000001,2.258,5.241,180.102
1.1356,128.18188,37.965411,7003.3085232,2.64,5.092,180.132
1.1522,128.18188,37.965366,7003.424347200001,3.107,4.949,180.163
1.169,128.18188,37.965321,7003.540476,3.659,4.812,180.194
1.1857,128.18188,37.965276,7003.655995200001,4.293,4.682,180.226
1.2024,128.18188,37.965232,7003.770600000001,5.008,4.559,180.256
1.2191,128.18188,37.965187,7003.8849,5.802,4.445,180.286
1.2358,128.18188,37.965142,7003.998285600001,6.67,4.339,180.315
1.2525,128.18188,37.965097,7004.110756800001,7.612,4.242,180.343
1.2691,128.18188,37.965052,7004.2223136,8.625,4.155,180.371
1.2859,128.18188,37.965007,7004.332956000001,9.706,4.077,180.399
1.3026,128.18188,37.964963,7004.442684000001,10.853,4.009,180.427
1.3193,128.18188,37.964918,7004.5511928000005,12.063,3.952,180.456
1.3359,128.18188,37.964873,7004.6584824,13.336,3.906,180.486
1.3527,128.18188,37.964828,7004.7648576,14.668,3.87,180.517
1.3694,128.181879,37.964783,7004.8703184000005,16.058,3.846,180.55
1.386,128.181879,37.964738,7004.9748648,17.504,3.832,180.587
1.4028,128.181879,37.964693,7005.078192000001,19.003,3.83,180.626
1.4195,128.181879,37.964648,7005.180604800001,20.555,3.839,180.669
1.4362,128.181879,37.964604,7005.282408,22.157,3.859,180.717
1.4528,128.181879,37.964559,7005.383296800001,23.807,3.89,180.771
1.4696,128.181879,37.964514,7005.483576,25.505,3.932,180.831
1.4863,128.181879,37.964469,7005.583245600001,27.248,3.983,180.897
1.5029,128.181879,37.964424,7005.6823056,29.036,4.045,180.972
1.5197,128.181879,37.964379,7005.781060800001,30.866,4.116,181.055
1.5364,128.181878,37.964334,7005.879511200001,32.738,4.196,181.147
1.5531,128.181878,37.964289,7005.977656800001,34.651,4.284,181.249
1.5697,128.181878,37.964244,7006.0761072,36.602,4.38,181.362
1.5865,128.181878,37.964199,7006.1745576,38.587,4.482,181.486
1.6032,128.181878,37.964154,7006.2742272000005,40.589,4.592,181.622
1.6198,128.181877,37.96411,7006.375116,42.593,4.708,181.768
1.6366,128.181877,37.964065,7006.477528800001,44.586,4.83,181.927
1.6533,128.181877,37.96402,7006.581770400001,46.555,4.958,182.097
1.67,128.181876,37.963975,7006.687536,48.417,5.084,182.266
1.6867,128.181876,37.96393,7006.7951304,50.181,5.199,182.425
1.7034,128.181875,37.963885,7006.9051632,51.861,5.291,182.563
1.7201,128.181875,37.96384,7007.017024800001,53.471,5.351,182.673
1.7368,128.181874,37.963795,7007.130715200001,55.024,5.371,182.741
1.7535,128.181873,37.96375,7007.245015200001,56.533,5.344,182.756
1.7702,128.181873,37.963705,7007.3602296,58.014,5.282,182.729
1.7869,128.181872,37.96366,7007.475444,59.481,5.194,182.671
1.8036,128.181871,37.963616,7007.5906584,60.951,5.091,182.593
1.8203,128.18187,37.963571,7007.7052632,62.435,4.979,182.508
1.837,128.181869,37.963526,7007.8192584,63.946,4.864,182.419
1.8537,128.181869,37.963481,7007.9320344,65.492,4.748,182.331
1.8704,128.181868,37.963436,7008.0435912,67.083,4.634,182.244
1.8871,128.181867,37.963391,7008.1536240000005,68.726,4.521,182.16
1.9038,128.181866,37.963346,7008.261828000001,70.424,4.412,182.079
1.9205,128.181865,37.963301,7008.3682032,72.183,4.305,182.002
1.9372,128.181864,37.963256,7008.4727496000005,74.007,4.203,181.927
1.9539,128.181863,37.963211,7008.5748576,75.897,4.103,181.856
1.9706,128.181862,37.963166,7008.6751368000005,77.851,4.007,181.789
1.9873,128.181861,37.963121,7008.7732824,79.869,3.916,181.724
2.004,128.18186,37.963076,7008.8692944,81.949,3.828,181.662
2.0207,128.181859,37.963031,7008.9628680000005,84.088,3.744,181.602
2.0374,128.181858,37.962986,7009.0546128000005,86.285,3.663,181.545
2.0541,128.181857,37.962941,7009.143919200001,88.537,3.586,181.491
2.0707,128.181857,37.962896,7009.231396800001,90.843,3.513,181.439
2.0875,128.181856,37.962851,7009.316436,93.201,3.442,181.389
2.1042,128.181855,37.962806,7009.399951200001,95.607,3.375,181.341
2.1208,128.181854,37.962761,7009.481028,98.06,3.31,181.296
2.1376,128.181853,37.962716,7009.5605808,100.559,3.248,181.252
2.1543,128.181852,37.962671,7009.638,103.1,3.188,181.21
2.171,128.181851,37.962626,7009.7138952000005,105.682,3.131,181.171
2.1877,128.181851,37.962581,7009.7882664,108.303,3.076,181.133
2.2044,128.18185,37.962536,7009.8608088,110.961,3.023,181.096
2.2211,128.181849,37.962491,7009.932436800001,113.655,2.971,181.061
2.2378,128.181848,37.962446,7010.002236,116.384,2.921,181.026
2.2544,128.181848,37.962401,7010.0714256,119.146,2.872,180.993
2.2712,128.181847,37.962356,7010.139091200001,121.94,2.825,180.961
2.2879,128.181846,37.962311,7010.205842400001,124.764,2.776,180.934
2.3045,128.181845,37.962265,7010.271984000001,127.616,2.724,180.914
2.3213,128.181845,37.96222,7010.336906400001,130.495,2.666,180.903
2.338,128.181844,37.962175,7010.401219200001,133.4,2.6,180.901
2.3546,128.181844,37.96213,7010.4643128,136.317,2.526,180.91
2.3714,128.181843,37.962085,7010.5255776,139.234,2.444,180.928
2.3881,128.181842,37.96204,7010.585318400001,142.138,2.352,180.955
2.4048,128.181842,37.961995,7010.6429256,145.019,2.251,180.989
2.4215,128.181841,37.961949,7010.6983992000005,147.864,2.141,181.029
2.4382,128.18184,37.961904,7010.7511296,150.667,2.023,181.072
2.4549,128.18184,37.961859,7010.8014216,153.42,1.897,181.116
2.4716,128.181839,37.961814,7010.8492752,156.122,1.764,181.16
2.4882,128.181838,37.961769,7010.8940808,158.773,1.626,181.201
2.505,128.181838,37.961724,7010.9364479999995,161.371,1.484,181.238
2.5217,128.181837,37.961678,7010.9757672000005,163.919,1.339,181.27
2.5383,128.181836,37.961633,7011.0123432,166.42,1.193,181.296
2.5551,128.181836,37.961588,7011.046176,168.881,1.047,181.315
2.5718,128.181835,37.961543,7011.077570400001,171.307,0.903,181.327
2.5884,128.181834,37.961498,7011.1059168,173.702,0.761,181.332
2.6052,128.181834,37.961452,7011.131824800001,176.071,0.624,181.329
2.6219,128.181833,37.961407,7011.1552944000005,178.419,0.491,181.319
2.6386,128.181832,37.961362,7011.1760208,-179.247,0.363,181.303
2.6553,128.181831,37.961317,7011.194004,-176.925,0.242,181.281
2.6719,128.181831,37.961272,7011.2095488,-174.612,0.127,181.254
2.6887,128.18183,37.961226,7011.2223504,-172.306,0.017,181.221
2.7054,128.181829,37.961181,7011.2327136,-170.003,-0.084,181.185
2.722,128.181829,37.961136,7011.240028800001,-167.702,-0.181,181.144
2.7388,128.181828,37.96109,7011.244600800001,-165.404,-0.271,181.1
2.7555,128.181827,37.961045,7011.246124800001,-163.108,-0.356,181.054
2.7721,128.181826,37.961,7011.244296000001,-160.817,-0.436,181.005
2.7889,128.181826,37.960955,7011.2394192,-158.531,-0.511,180.954
2.8056,128.181825,37.960909,7011.2314944,-156.252,-0.581,180.901
2.8222,128.181824,37.960864,7011.2196072,-153.983,-0.648,180.847
2.839,128.181823,37.960819,7011.2043672,-151.725,-0.71,180.791
2.8557,128.181823,37.960773,7011.185774400001,-149.482,-0.77,180.734
2.8724,128.181822,37.960728,7011.162914400001,-147.254,-0.826,180.676
2.8891,128.181821,37.960683,7011.1367016,-145.044,-0.879,180.617
2.9057,128.18182,37.960637,7011.1062216,-142.854,-0.93,180.557
2.9225,128.18182,37.960592,7011.072084000001,-140.684,-0.977,180.495
2.9392,128.181819,37.960547,7011.033984000001,-138.535,-1.021,180.434
2.9558,128.181818,37.960501,7010.9919216,-136.409,-1.062,180.371
2.9726,128.181817,37.960456,7010.945896800001,-134.305,-1.101,180.308
2.9893,128.181817,37.960411,7010.895909600001,-132.224,-1.136,180.244
3.0059,128.181816,37.960365,7010.841960000001,-130.167,-1.169,180.181
3.0227,128.181815,37.96032,7010.7840479999995,-128.133,-1.198,180.117
3.0394,128.181815,37.960275,7010.7221736,-126.121,-1.226,180.054
3.056,128.181814,37.960229,7010.656336800001,-124.132,-1.252,179.992
3.0728,128.181813,37.960184,7010.586537600001,-122.168,-1.277,179.931
3.0895,128.181813,37.960138,7010.5130808,-120.23,-1.3,179.87
3.1062,128.181812,37.960093,7010.435356800001,-118.317,-1.321,179.809
3.1229,128.181812,37.960048,7010.35428,-116.428,-1.339,179.75
3.1395,128.181811,37.960002,7010.268936,-114.567,-1.355,179.691
3.1563,128.181811,37.959957,7010.1796296,-112.743,-1.367,179.641
3.173,128.18181,37.959911,7010.086360800001,-110.963,-1.374,179.6
3.1896,128.18181,37.959866,7009.9891296,-109.233,-1.379,179.567
3.2064,128.181809,37.959821,7009.887936,-107.558,-1.382,179.538
3.2231,128.181809,37.959775,7009.78278,-105.945,-1.384,179.512
3.2397,128.181808,37.95973,7009.6739664,-104.4,-1.387,179.486
3.2565,128.181808,37.959684,7009.561190400001,-102.928,-1.391,179.46
3.2732,128.181808,37.959639,7009.4447568000005,-101.535,-1.396,179.432
3.2899,128.181808,37.959594,7009.324360800001,-100.223,-1.402,179.401
3.3066,128.181807,37.959548,7009.200612,-98.993,-1.409,179.368
3.3233,128.181807,37.959503,7009.073205600001,-97.845,-1.417,179.332
3.34,128.181807,37.959457,7008.9424464,-96.776,-1.424,179.292
3.3567,128.181807,37.959412,7008.8086392,-95.782,-1.432,179.251
3.3734,128.181807,37.959367,7008.6711744,-94.861,-1.439,179.207
3.3901,128.181807,37.959321,7008.5306616,-94.007,-1.445,179.162
3.4068,128.181807,37.959276,7008.3874056,-93.213,-1.45,179.117
3.4235,128.181808,37.95923,7008.240796800001,-92.472,-1.453,179.072
3.4402,128.181808,37.959185,7008.0914448,-91.781,-1.455,179.028
3.4569,128.181808,37.95914,7007.9390448,-91.135,-1.456,178.986
3.4736,128.181808,37.959094,7007.783901600001,-90.528,-1.456,178.958
3.4903,128.181809,37.959049,7007.625710400001,-89.958,-1.455,178.945
3.507,128.181809,37.959003,7007.4650808,-89.424,-1.454,178.944
3.5237,128.181809,37.958958,7007.301708,-88.923,-1.452,178.95
3.5404,128.18181,37.958912,7007.1355920000005,-88.458,-1.451,178.96
3.5571,128.18181,37.958867,7006.9670376,-88.03,-1.45,178.971
3.5738,128.181811,37.958822,7006.7957400000005,-87.641,-1.45,178.981
3.5905,128.181811,37.958776,7006.622308800001,-87.29,-1.451,178.99
3.6072,128.181812,37.958731,7006.4458296,-86.949,-1.451,178.995
3.6239,128.181812,37.958685,7006.266912,-86.622,-1.451,178.997
3.6406,128.181813,37.95864,7006.085860800001,-86.317,-1.45,178.994
3.6573,128.181813,37.958595,7005.9020664,-86.039,-1.452,178.987
3.674,128.181814,37.958549,7005.716138400001,-85.792,-1.455,178.975
3.6907,128.181815,37.958504,7005.527772,-85.578,-1.459,178.959
3.7074,128.181816,37.958458,7005.3369672,-85.397,-1.465,178.939
3.7241,128.181816,37.958413,7005.1440288,-85.246,-1.471,178.916
3.7408,128.181817,37.958367,7004.948652000001,-85.124,-1.479,178.89
3.7575,128.181818,37.958322,7004.750836800001,-85.028,-1.486,178.862
3.7742,128.181819,37.958276,7004.550583200001,-84.955,-1.493,178.833
3.7909,128.18182,37.958231,7004.348196000001,-84.902,-1.501,178.804
3.8076,128.181821,37.958186,7004.143370400001,-84.866,-1.508,178.775
3.8243,128.181822,37.95814,7003.9361064,-84.844,-1.516,178.747
3.841,128.181823,37.958095,7003.7267088,-84.836,-1.524,178.721
3.8577,128.181824,37.958049,7003.5148728,-84.84,-1.533,178.695
3.8744,128.181825,37.958004,7003.3005984,-84.856,-1.542,178.671
3.8911,128.181826,37.957958,7003.0841904,-84.885,-1.553,178.648
3.9078,128.181827,37.957913,7002.8656488,-84.927,-1.563,178.625
3.9245,128.181828,37.957867,7002.6446688000005,-84.982,-1.575,178.604
3.9412,128.181829,37.957822,7002.421250400001,-85.053,-1.588,178.583
3.9579,128.181831,37.957777,7002.1956984,-85.138,-1.601,178.562
3.9746,128.181832,37.957731,7001.967708,-85.238,-1.615,178.541
3.9913,128.181833,37.957686,7001.737584000001,-85.351,-1.629,178.52
4.008,128.181834,37.95764,7001.5050216,-85.475,-1.644,178.499
4.0247,128.181836,37.957595,7001.2700208,-85.608,-1.658,178.479
4.0414,128.181837,37.957549,7001.0328864,-85.749,-1.672,178.459
4.058,128.181838,37.957504,7000.7930088,-85.894,-1.686,178.439
4.0748,128.18184,37.957458,7000.5513024,-86.043,-1.699,178.42
4.0915,128.181841,37.957413,7000.3068528,-86.193,-1.713,178.4
4.1082,128.181843,37.957367,7000.0602696000005,-86.345,-1.726,178.38
4.1249,128.181844,37.957322,6999.8109432,-86.497,-1.739,178.358
4.1415,128.181846,37.957276,6999.5597880000005,-86.649,-1.752,178.336
4.1583,128.181847,37.957231,6999.3058896,-86.801,-1.765,178.313
4.175,128.181849,37.957185,6999.0495528,-86.952,-1.778,178.289
4.1917,128.18185,37.95714,6998.7910824,-87.103,-1.792,178.264
4.2084,128.181852,37.957094,6998.5301736,-87.255,-1.806,178.24
4.2251,128.181853,37.957049,6998.2668264,-87.407,-1.82,178.216
4.2417,128.181855,37.957003,6998.001345600001,-87.559,-1.834,178.193
4.2585,128.181857,37.956958,6997.7331216,-87.711,-1.848,178.169
4.2752,128.181858,37.956912,6997.462764000001,-87.863,-1.863,178.145
4.2919,128.18186,37.956867,6997.189968000001,-88.015,-1.878,178.121
4.3086,128.181862,37.956821,6996.914733600001,-88.168,-1.893,178.096
4.3252,128.181864,37.956776,6996.637060800001,-88.321,-1.908,178.071
4.342,128.181865,37.95673,6996.3572544,-88.473,-1.923,178.045
4.3587,128.181867,37.956685,6996.0747048,-88.626,-1.939,178.019
4.3754,128.181869,37.956639,6995.7900216,-88.779,-1.954,177.994
4.3921,128.181871,37.956593,6995.5025952000005,-88.932,-1.97,177.969
4.4088,128.181873,37.956548,6995.2130352,-89.085,-1.987,177.944
4.4254,128.181875,37.956502,6994.9210368,-89.239,-2.003,177.919
4.4422,128.181877,37.956457,6994.6266000000005,-89.392,-2.019,177.893
4.4589,128.181879,37.956411,6994.329724800001,-89.546,-2.036,177.867
4.4756,128.181881,37.956366,6994.030411200001,-89.701,-2.053,177.84
4.4923,128.181883,37.95632,6993.7286592,-89.859,-2.071,177.813
4.5089,128.181885,37.956275,6993.424773600001,-90.02,-2.089,177.786
4.5256,128.181887,37.956229,6993.1181448,-90.187,-2.108,177.76
4.5424,128.181889,37.956183,6992.809382400001,-90.358,-2.127,177.733
4.5591,128.181891,37.956138,6992.4978768,-90.531,-2.147,177.706
4.5758,128.181893,37.956092,6992.183932800001,-90.707,-2.166,177.679
4.5925,128.181895,37.956047,6991.8675504,-90.883,-2.186,177.651
4.6091,128.181897,37.956001,6991.5487296,-91.057,-2.205,177.622
4.6259,128.181899,37.955956,6991.227470400001,-91.229,-2.223,177.593
4.6426,128.181902,37.95591,6990.9037728,-91.397,-2.242,177.563
4.6593,128.181904,37.955864,6990.577636800001,-91.559,-2.26,177.533
4.676,128.181906,37.955819,6990.2490624,-91.717,-2.277,177.501
4.6927,128.181908,37.955773,6989.9177448,-91.868,-2.295,177.468
4.7093,128.181911,37.955728,6989.5839888,-92.015,-2.312,177.433
4.7261,128.181913,37.955682,6989.2480992,-92.156,-2.33,177.396
4.7428,128.181915,37.955636,6988.9094663999995,-92.292,-2.347,177.358
4.7595,128.181918,37.955591,6988.5680904,-92.425,-2.365,177.319
4.7762,128.18192,37.955545,6988.2245808,-92.555,-2.382,177.28
4.7928,128.181923,37.955499,6987.878328000001,-92.681,-2.399,177.241
4.8096,128.181925,37.955454,6987.529636800001,-92.804,-2.416,177.202
4.8263,128.181927,37.955408,6987.1785072,-92.922,-2.432,177.163
4.843,128.18193,37.955362,6986.8249392,-93.034,-2.448,177.124
4.8597,128.181932,37.955317,6986.4686280000005,-93.137,-2.464,177.086
4.8764,128.181935,37.955271,6986.1098784000005,-93.231,-2.478,177.048
4.893,128.181937,37.955226,6985.748690400001,-93.312,-2.492,177.01
4.9098,128.18194,37.95518,6985.385064,-93.376,-2.505,176.971
4.9265,128.181943,37.955134,6985.0186944,-93.422,-2.517,176.932
4.9432,128.181945,37.955088,6984.649581600001,-93.388,-2.521,176.906
4.9599,128.181948,37.955043,6984.2780304,-93.277,-2.518,176.9
4.9765,128.18195,37.954997,6983.903736,-93.088,-2.51,176.909
4.9932,128.181953,37.954951,6983.527308,-92.82,-2.5,176.929
5.01,128.181955,37.954906,6983.1484416,-92.476,-2.49,176.956
5.0267,128.181958,37.95486,6982.767441600001,-92.056,-2.48,176.988
5.0434,128.181961,37.954814,6982.3836984,-91.565,-2.471,177.022
5.0601,128.181963,37.954768,6981.9978216,-91.004,-2.463,177.057
5.0767,128.181966,37.954723,6981.609506400001,-90.376,-2.456,177.093
5.0935,128.181968,37.954677,6981.2190576,-89.685,-2.451,177.129
5.1102,128.181971,37.954631,6980.825865600001,-88.936,-2.446,177.165
5.1269,128.181973,37.954585,6980.43054,-88.136,-2.444,177.201
5.1436,128.181976,37.954539,6980.032776,-87.292,-2.443,177.237
5.1602,128.181978,37.954494,6979.632573600001,-86.407,-2.444,177.272
5.1769,128.181981,37.954448,6979.229932800001,-85.485,-2.447,177.308
5.1937,128.181983,37.954402,6978.8260728000005,-84.714,-2.461,177.342
5.2104,128.181986,37.954356,6978.4194696,-84.087,-2.487,177.375
5.2271,128.181988,37.95431,6978.0110376,-83.608,-2.519,177.406
5.2438,128.181991,37.954264,6977.6001672,-83.276,-2.555,177.437
5.2604,128.181993,37.954218,6977.1871632,-83.089,-2.591,177.466
5.2772,128.181996,37.954172,6976.7720256,-83.044,-2.626,177.495
5.2939,128.181999,37.954127,6976.3547544,-83.136,-2.66,177.522
5.3106,128.182001,37.954081,6975.9353496,-83.359,-2.693,177.548
5.3273,128.182004,37.954035,6975.514115999999,-83.709,-2.724,177.571
5.3439,128.182007,37.953989,6975.0910536,-84.18,-2.755,177.593
5.3606,128.182009,37.953943,6974.6658576,-84.768,-2.784,177.613
5.3774,128.182012,37.953897,6974.238832800001,-85.468,-2.813,177.631
5.3941,128.182015,37.953851,6973.8096744,-86.277,-2.84,177.646
5.4108,128.182018,37.953805,6973.378687200001,-87.19,-2.866,177.659
5.4275,128.182021,37.953759,6972.9458712,-88.204,-2.892,177.67
5.4441,128.182024,37.953713,6972.5109216,-89.315,-2.917,177.678
5.4609,128.182027,37.953667,6972.073838400001,-90.512,-2.94,177.683
5.4776,128.18203,37.953622,6971.6343168,-91.779,-2.962,177.686
5.4943,128.182033,37.953576,6971.1926616,-93.101,-2.981,177.686
5.511,128.182036,37.95353,6970.748568,-94.465,-2.998,177.684
5.5277,128.182039,37.953484,6970.302036,-95.857,-3.013,177.68
5.5443,128.182042,37.953438,6969.853065600001,-97.267,-3.026,177.674
5.5611,128.182045,37.953392,6969.401656800001,-98.685,-3.037,177.665
5.5778,128.182049,37.953346,6968.9478096,-100.104,-3.047,177.654
5.5945,128.182052,37.9533,6968.491524000001,-101.518,-3.056,177.641
5.6112,128.182055,37.953254,6968.0328,-102.92,-3.064,177.626
5.6278,128.182058,37.953208,6967.571942400001,-104.307,-3.073,177.609
5.6445,128.182061,37.953162,6967.108646400001,-105.675,-3.081,177.59
5.6613,128.182065,37.953116,6966.642912,-107.022,-3.089,177.57
5.678,128.182068,37.953071,6966.175044,-108.346,-3.098,177.548
5.6947,128.182071,37.953025,6965.704737600001,-109.645,-3.107,177.525
5.7114,128.182074,37.952979,6965.231992800001,-110.916,-3.116,177.501
5.728,128.182078,37.952933,6964.7571144,-112.158,-3.126,177.476
5.7448,128.182081,37.952887,6964.2801024,-113.37,-3.137,177.449
5.7615,128.182084,37.952841,6963.800347200001,-114.455,-3.149,177.408
5.7782,128.182087,37.952795,6963.3184584,-115.418,-3.167,177.341
5.7949,128.182091,37.952749,6962.8347408,-116.258,-3.192,177.253
5.8115,128.182094,37.952703,6962.3491944,-116.978,-3.223,177.154
5.8282,128.182097,37.952657,6961.862124,-117.581,-3.258,177.049
5.845,128.1821,37.952611,6961.373224800001,-118.07,-3.295,176.944
5.8617,128.182103,37.952564,6960.8831064000005,-118.45,-3.334,176.839
5.8784,128.182107,37.952518,6960.391464,-118.724,-3.374,176.735
5.8951,128.18211,37.952472,6959.8986024,-118.899,-3.413,176.638
5.9117,128.182113,37.952426,6959.403912,-118.977,-3.45,176.547
5.9285,128.182116,37.95238,6958.907697600001,-118.963,-3.483,176.466
5.9452,128.182119,37.952334,6958.4096544,-118.862,-3.512,176.395
5.9619,128.182122,37.952287,6957.910087200001,-118.678,-3.537,176.334
5.9786,128.182125,37.952241,6957.408996,-118.413,-3.557,176.283
5.9952,128.182128,37.952195,6956.9057712,-118.073,-3.573,176.243
6.0119,128.182131,37.952149,6956.4007176000005,-117.661,-3.586,176.21
6.0287,128.182134,37.952102,6955.8938352000005,-117.179,-3.596,176.183
6.0454,128.182137,37.952056,6955.385124,-116.63,-3.605,176.159
6.0621,128.182141,37.95201,6954.874279200001,-116.019,-3.613,176.139
6.0788,128.182144,37.951963,6954.3613008,-115.347,-3.622,176.118
6.0954,128.182147,37.951917,6953.8464936,-114.617,-3.632,176.096
6.1121,128.18215,37.951871,6953.329248,-113.831,-3.642,176.074
6.1289,128.182153,37.951824,6952.809868800001,-112.992,-3.654,176.049
6.1456,128.182156,37.951778,6952.288660800001,-112.103,-3.667,176.023
6.1623,128.182159,37.951731,6951.7647096,-111.165,-3.682,175.992
6.179,128.182162,37.951685,6951.238624800001,-110.181,-3.697,175.96
6.1956,128.182165,37.951638,6950.7104064000005,-109.152,-3.714,175.926
6.2124,128.182168,37.951592,6950.1794448,-108.081,-3.731,175.888
6.2291,128.182171,37.951545,6949.646349600001,-106.969,-3.749,175.848
6.2458,128.182174,37.951499,6949.110815999999,-105.818,-3.768,175.803
6.2625,128.182177,37.951452,6948.5725391999995,-104.629,-3.787,175.757
6.2791,128.18218,37.951406,6948.031824000001,-103.404,-3.806,175.71
6.2958,128.182183,37.951359,6947.488670400001,-102.145,-3.824,175.66
6.3126,128.182186,37.951313,6946.942773600001,-100.853,-3.842,175.607
6.3293,128.182189,37.951266,6946.394438400001,-99.528,-3.859,175.553
6.346,128.182192,37.951219,6945.843360000001,-98.172,-3.876,175.496
6.3627,128.182195,37.951173,6945.2898432,-96.786,-3.891,175.439
6.3793,128.182198,37.951126,6944.733583200001,-95.372,-3.905,175.38
6.3961,128.182202,37.951079,6944.1748848,-93.928,-3.918,175.318
6.4128,128.182205,37.951033,6943.613748,-92.467,-3.93,175.253
6.4295,128.182208,37.950986,6943.049868,-90.991,-3.94,175.187
6.4462,128.182211,37.950939,6942.4835496000005,-89.517,-3.95,175.119
6.4628,128.182214,37.950892,6941.915097600001,-88.056,-3.96,175.049
6.4795,128.182218,37.950846,6941.3442072,-86.623,-3.97,174.975
6.4963,128.182221,37.950799,6940.7711832,-85.225,-3.978,174.898
6.513,128.182224,37.950752,6940.1960256,-83.857,-3.985,174.82
6.5297,128.182228,37.950705,6939.6187344,-82.532,-3.991,174.74
6.5464,128.182231,37.950658,6939.0399192,-81.251,-3.995,174.659
6.5631,128.182235,37.950612,6938.45958,-80.023,-3.996,174.573
6.5798,128.182238,37.950565,6937.877412,-78.848,-3.996,174.484
6.5965,128.182242,37.950518,6937.293720000001,-77.72,-3.993,174.394
6.6132,128.182246,37.950471,6936.7091136,-76.643,-3.987,174.303
6.6299,128.18225,37.950424,6936.123288000001,-75.617,-3.979,174.21
6.6466,128.182254,37.950378,6935.536548,-74.647,-3.968,174.113
6.6633,128.182257,37.950331,6934.9485888,-73.724,-3.955,174.016
6.68,128.182261,37.950284,6934.360020000001,-72.845,-3.939,173.92
6.6967,128.182266,37.950237,6933.7708416000005,-72.016,-3.921,173.822
6.7134,128.18227,37.95019,6933.1828824,-71.325,-3.92,173.732
6.7301,128.182274,37.950143,6932.5943136000005,-70.766,-3.943,173.664
6.7468,128.182278,37.950096,6932.0057448,-70.345,-3.987,173.635
6.7635,128.182283,37.950049,6931.4168712,-70.064,-4.054,173.656
6.7802,128.182287,37.950003,6930.8283024,-69.922,-4.136,173.716
6.7969,128.182291,37.949956,6930.2394288000005,-69.915,-4.226,173.8
6.8136,128.182296,37.949909,6929.6511648000005,-70.038,-4.318,173.895
6.8303,128.182301,37.949862,6929.0629008000005,-70.285,-4.411,173.994
6.847,128.182306,37.949815,6928.474636800001,-70.651,-4.501,174.091
6.8637,128.18231,37.949768,6927.8866776,-71.132,-4.589,174.185
6.8804,128.182315,37.949721,6927.298108800001,-71.724,-4.673,174.272
6.8971,128.18232,37.949674,6926.70954,-72.421,-4.754,174.354
6.9138,128.182325,37.949627,6926.1206664,-73.222,-4.831,174.428
6.9305,128.182331,37.94958,6925.530878400001,-74.121,-4.904,174.496
6.9472,128.182336,37.949533,6924.9404808,-75.116,-4.973,174.557
6.9639,128.182341,37.949487,6924.3494736,-76.202,-5.038,174.613
6.9806,128.182346,37.94944,6923.757247200001,-77.377,-5.1,174.662
6.9973,128.182352,37.949393,6923.163801600001,-78.637,-5.159,174.706
7.014,128.182357,37.949346,6922.568832000001,-79.979,-5.215,174.745
7.0307,128.182363,37.949299,6921.9726432,-81.399,-5.268,174.779
7.0474,128.182368,37.949252,6921.3749304,-82.894,-5.318,174.808
7.0641,128.182374,37.949205,6920.775084000001,-84.462,-5.367,174.833
7.0808,128.18238,37.949158,6920.1737136,-86.099,-5.413,174.854
7.0975,128.182386,37.949111,6919.5702096,-87.802,-5.457,174.872
7.1142,128.182391,37.949064,6918.9642672,-89.569,-5.5,174.886
7.1309,128.182397,37.949017,6918.3561912000005,-91.399,-5.542,174.898
7.1476,128.182403,37.94897,6917.7456768,-93.287,-5.582,174.906
7.1643,128.182409,37.948923,6917.1324192,-95.232,-5.622,174.912
7.181,128.182415,37.948876,6916.5164184000005,-97.232,-5.661,174.916
7.1977,128.182421,37.94883,6915.897674400001,-99.285,-5.699,174.917
7.2144,128.182427,37.948783,6915.2755776,-101.387,-5.737,174.916
7.2311,128.182433,37.948736,6914.650432800001,-103.538,-5.775,174.914
7.2478,128.18244,37.948689,6914.02224,-105.734,-5.812,174.91
7.2645,128.182446,37.948642,6913.3903896,-107.974,-5.85,174.904
7.2812,128.182452,37.948595,6912.7548816,-110.256,-5.887,174.897
7.2979,128.182458,37.948548,6912.115716,-112.577,-5.925,174.889
7.3146,128.182465,37.948501,6911.4728928,-114.936,-5.963,174.88
7.3313,128.182471,37.948454,6910.8258024,-117.33,-6.001,174.871
7.348,128.182478,37.948407,6910.175054400001,-119.757,-6.039,174.861
7.3647,128.182484,37.94836,6909.5200392,-122.216,-6.078,174.85
7.3814,128.18249,37.948313,6908.860452000001,-124.704,-6.117,174.839
7.3981,128.182497,37.948266,6908.196597600001,-127.22,-6.156,174.828
7.4148,128.182504,37.948219,6907.528476,-129.762,-6.196,174.818
7.4315,128.18251,37.948172,6906.8554776,-132.327,-6.236,174.807
7.4482,128.182517,37.948125,6906.1776024,-134.914,-6.276,174.797
7.4649,128.182523,37.948078,6905.4951552,-137.522,-6.317,174.788
7.4816,128.18253,37.948031,6904.8075264,-140.149,-6.358,174.779
7.4983,128.182537,37.947984,6904.114716,-142.792,-6.398,174.771
7.515,128.182543,37.947938,6903.4170288000005,-145.45,-6.439,174.763
7.5317,128.18255,37.947891,6902.713855200001,-148.121,-6.48,174.757
7.5484,128.182557,37.947844,6902.0055,-150.805,-6.521,174.751
7.5651,128.182564,37.947797,6901.291353600001,-153.498,-6.561,174.747
7.5818,128.182571,37.94775,6900.5720255999995,-156.201,-6.601,174.743
7.5985,128.182577,37.947703,6899.846906400001,-158.911,-6.641,174.741
7.6152,128.182584,37.947656,6899.115996,-161.626,-6.68,174.74
7.6319,128.182591,37.947609,6898.3792944,-164.347,-6.718,174.74
7.6486,128.182598,37.947562,6897.636801600001,-167.07,-6.756,174.74
7.6653,128.182605,37.947515,6896.8882128000005,-169.796,-6.792,174.742
7.682,128.182612,37.947468,6896.133528,-172.522,-6.828,174.745
7.6987,128.182618,37.947421,6895.373052000001,-175.248,-6.863,174.749
7.7154,128.182625,37.947374,6894.6061752,-177.973,-6.896,174.753
7.7321,128.182632,37.947327,6893.8335072,179.304,-6.929,174.759
7.7488,128.182639,37.94728,6893.0544384,176.586,-6.96,174.765
7.7655,128.182646,37.947233,6892.268968800001,173.872,-6.989,174.771
7.7822,128.182653,37.947186,6891.4774032,171.164,-7.018,174.778
7.7989,128.182659,37.947139,6890.6794368,168.462,-7.045,174.786
7.8156,128.182666,37.947093,6889.8753744000005,165.767,-7.07,174.794
7.8323,128.182673,37.947046,6889.064911200001,163.079,-7.094,174.802
7.849,128.18268,37.946999,6888.2483520000005,160.401,-7.116,174.81
7.8657,128.182687,37.946952,6887.425392000001,157.731,-7.137,174.818
7.8824,128.182693,37.946905,6886.5960312,155.072,-7.156,174.825
7.8991,128.1827,37.946858,6885.760879200001,152.422,-7.174,174.833
7.9158,128.182707,37.946811,6884.9193264000005,149.784,-7.191,174.84
7.9325,128.182714,37.946764,6884.071982400001,147.156,-7.206,174.846
7.9492,128.18272,37.946717,6883.218237600001,144.541,-7.219,174.852
7.9659,128.182727,37.94667,6882.3583968,141.936,-7.244,174.866
7.9826,128.182734,37.946623,6881.4921552000005,139.342,-7.29,174.899
7.9993,128.18274,37.946576,6880.6195128,136.756,-7.366,174.96
8.016,128.182747,37.946529,6879.7401648000005,134.177,-7.482,175.063
8.0327,128.182753,37.946482,6878.8538064,131.606,-7.643,175.22
8.0494,128.182759,37.946435,6877.9610472,129.062,-7.851,175.438
8.0661,128.182766,37.946388,6877.0609728,126.587,-8.108,175.727
8.0828,128.182772,37.946341,6876.154802399999,124.22,-8.405,176.081
8.0994,128.182778,37.946294,6875.2416216,121.985,-8.729,176.489
8.1161,128.182784,37.946247,6874.3214304,119.908,-9.066,176.941
8.1329,128.18279,37.9462,6873.3948384000005,117.999,-9.4,177.42
8.1496,128.182796,37.946153,6872.461236,116.264,-9.719,177.908
8.1663,128.182802,37.946106,6871.521232800001,114.699,-10.014,178.386
8.183,128.182808,37.946059,6870.574524000001,113.305,-10.275,178.836
8.1997,128.182813,37.946012,6869.6214144000005,112.072,-10.503,179.253
8.2164,128.182819,37.945965,6868.6619040000005,110.991,-10.701,179.64
8.2331,128.182825,37.945918,6867.6962976,110.046,-10.875,180.0
8.2498,128.18283,37.945871,6866.7245952,109.223,-11.028,180.337
8.2665,128.182835,37.945824,6865.746796800001,108.509,-11.162,180.655
8.2831,128.18284,37.945777,6864.762597600001,107.888,-11.282,180.955
8.2998,128.182845,37.94573,6863.7726072,107.349,-11.389,181.239
8.3166,128.18285,37.945683,6862.776216,106.881,-11.485,181.509
8.3333,128.182855,37.945636,6861.773728800001,106.472,-11.572,181.766
8.35,128.18286,37.945589,6860.7651456,106.115,-11.651,182.012
8.3667,128.182864,37.945541,6859.7504664,105.803,-11.725,182.247
8.3834,128.182869,37.945494,6858.7293864,105.528,-11.792,182.473
8.4001,128.182873,37.945447,6857.70282,105.284,-11.857,182.69
8.4168,128.182877,37.9454,6856.6698528,105.066,-11.919,182.9
8.4335,128.182881,37.945353,6855.6310944,104.871,-11.979,183.103
8.4502,128.182885,37.945306,6854.5862400000005,104.697,-12.036,183.3
8.4668,128.182889,37.945259,6853.5352896,104.54,-12.091,183.492
8.4835,128.182892,37.945212,6852.4782432,104.4,-12.145,183.68
8.5003,128.182896,37.945165,6851.415405600001,104.273,-12.196,183.863
8.517,128.182899,37.945117,6850.346472,104.158,-12.246,184.044
8.5337,128.182902,37.94507,6849.2714424000005,104.053,-12.295,184.221
8.5504,128.182905,37.945023,6848.1906216,103.958,-12.343,184.395
8.5671,128.182908,37.944976,6847.103704800001,103.87,-12.389,184.567
8.5838,128.182911,37.944929,6846.010996800001,103.789,-12.435,184.736
8.6005,128.182913,37.944882,6844.9121928,103.714,-12.48,184.903
8.6172,128.182915,37.944835,6843.8079024,103.645,-12.525,185.068
8.6339,128.182918,37.944788,6842.697211200001,103.579,-12.568,185.231
8.6505,128.18292,37.944741,6841.5810336,103.518,-12.612,185.393
8.6672,128.182922,37.944693,6840.45876,103.46,-12.655,185.553
8.684,128.182923,37.944646,6839.3306952,103.405,-12.698,185.713
8.7007,128.182925,37.944599,6838.1968392,103.353,-12.741,185.871
8.7174,128.182926,37.944552,6837.057192,103.303,-12.783,186.029
8.7341,128.182928,37.944505,6835.9117536,103.255,-12.826,186.186
8.7508,128.182929,37.944458,6834.760524,103.21,-12.868,186.343
8.7675,128.18293,37.944411,6833.6035032,103.166,-12.911,186.498
8.7842,128.182931,37.944364,6832.4406912,103.123,-12.953,186.654
8.8009,128.182931,37.944317,6831.272088000001,103.083,-12.995,186.809
8.8176,128.182932,37.94427,6830.0976936,103.043,-13.038,186.964
8.8342,128.182932,37.944223,6828.917508,103.005,-13.08,187.119
8.8509,128.182933,37.944176,6827.731836,102.967,-13.123,187.273
8.8676,128.182933,37.944129,6826.5403728,102.931,-13.165,187.428
8.8844,128.182933,37.944082,6825.3431184,102.895,-13.208,187.582
8.9011,128.182932,37.944035,6824.140072800001,102.86,-13.251,187.736
8.9178,128.182932,37.943988,6822.9315408,102.826,-13.294,187.89
8.9345,128.182931,37.943941,6821.7172176,102.793,-13.337,188.045
8.9512,128.182931,37.943894,6820.4971032,102.761,-13.38,188.199
8.9679,128.18293,37.943847,6819.2715024,102.729,-13.423,188.353
8.9846,128.182929,37.9438,6818.040415200001,102.697,-13.467,188.507
9.0013,128.182928,37.943753,6816.8035368,102.667,-13.51,188.661
9.0179,128.182926,37.943706,6815.5608672,102.636,-13.554,188.815
9.0346,128.182925,37.943659,6814.312711200001,102.607,-13.597,188.969
9.0513,128.182923,37.943612,6813.0590688,102.578,-13.641,189.124
9.0681,128.182921,37.943565,6811.7996352,102.55,-13.685,189.278
9.0848,128.182919,37.943518,6810.5347152,102.522,-13.729,189.432
9.1015,128.182917,37.943471,6809.2643088,102.494,-13.774,189.586
9.1182,128.182915,37.943424,6807.988111200001,102.467,-13.818,189.741
9.1349,128.182913,37.943378,6806.706427200001,102.441,-13.863,189.895
9.1516,128.18291,37.943331,6805.419256800001,102.415,-13.907,190.05
9.1683,128.182907,37.943284,6804.1266000000005,102.389,-13.952,190.205
9.185,128.182905,37.943237,6802.828456800001,102.363,-13.997,190.359
9.2016,128.182902,37.94319,6801.5245224,102.338,-14.042,190.514
9.2183,128.182898,37.943144,6800.215101600001,102.313,-14.087,190.669
9.235,128.182895,37.943097,6798.9001944,102.289,-14.132,190.824
9.2518,128.182891,37.94305,6797.5798008,102.264,-14.177,190.979
9.2685,128.182888,37.943003,6796.2539208,102.24,-14.223,191.134
9.2852,128.182884,37.942957,6794.9225544,102.216,-14.268,191.289
9.3019,128.18288,37.94291,6793.585701600001,102.193,-14.314,191.444
9.3186,128.182876,37.942863,6792.2433624000005,102.17,-14.36,191.599
9.3353,128.182872,37.942817,6790.895536800001,102.147,-14.406,191.755
9.352,128.182867,37.94277,6789.5422248,102.124,-14.452,191.91
9.3687,128.182863,37.942723,6788.1834264,102.102,-14.498,192.065
9.3854,128.182858,37.942677,6786.819141600001,102.079,-14.544,192.221
9.402,128.182853,37.94263,6785.449370400001,102.057,-14.59,192.377
9.4187,128.182848,37.942584,6784.0744176,102.035,-14.637,192.532
9.4355,128.182843,37.942537,6782.693673600001,102.013,-14.683,192.688
9.4522,128.182837,37.942491,6781.307748,101.992,-14.73,192.844
9.4689,128.182832,37.942444,6779.916336,101.971,-14.776,193.0
9.4856,128.182826,37.942398,6778.519437600001,101.949,-14.823,193.156
9.5023,128.18282,37.942351,6777.1173576,101.928,-14.87,193.312
9.519,128.182814,37.942305,6775.7094864,101.908,-14.917,193.468
9.5357,128.182808,37.942258,6774.2964336000005,101.887,-14.964,193.624
9.5524,128.182802,37.942212,6772.8781992,101.866,-15.011,193.781
9.5691,128.182795,37.942166,6771.4541736,101.845,-15.058,193.937
9.5857,128.182789,37.942119,6770.0249664,101.825,-15.106,194.094
9.6024,128.182782,37.942073,6768.590577600001,101.805,-15.153,194.25
9.6192,128.182775,37.942027,6767.150397600001,101.784,-15.2,194.407
9.6359,128.182768,37.94198,6765.705036,101.764,-15.248,194.564
9.6526,128.182761,37.941934,6764.254492800001,101.744,-15.296,194.72
9.6693,128.182753,37.941888,6762.7984632,101.724,-15.343,194.877
9.686,128.182746,37.941842,6761.3369472,101.704,-15.391,195.034
9.7027,128.182738,37.941795,6759.8702496000005,101.684,-15.439,195.191
9.7194,128.18273,37.941749,6758.398370400001,101.665,-15.487,195.348
9.7361,128.182722,37.941703,6756.920700000001,101.645,-15.535,195.506
9.7528,128.182714,37.941657,6755.4381528,101.626,-15.583,195.663
9.7694,128.182706,37.941611,6753.950119200001,101.607,-15.631,195.82
9.7861,128.182697,37.941565,6752.4565992,101.587,-15.679,195.978
9.8029,128.182689,37.941519,6750.957897600001,101.568,-15.727,196.135
9.8196,128.18268,37.941473,6749.4540144,101.549,-15.776,196.293
9.8363,128.182671,37.941427,6747.9446448,101.53,-15.824,196.451
9.853,128.182662,37.941381,6746.4300936,101.511,-15.873,196.609
9.8697,128.182653,37.941335,6744.9103608000005,101.492,-15.921,196.767
9.8864,128.182643,37.941289,6743.385141600001,101.473,-15.97,196.925
9.9031,128.182634,37.941243,6741.8547408,101.455,-16.018,197.083
9.9198,128.182624,37.941198,6740.3188536,101.436,-16.067,197.241
9.9365,128.182614,37.941152,6738.7777848,101.417,-16.116,197.399
9.9531,128.182604,37.941106,6737.2315344,101.399,-16.164,197.558
9.9698,128.182594,37.94106,6735.6801024,101.38,-16.213,197.716
9.9865,128.182583,37.941015,6734.1234888,101.362,-16.262,197.875
10.0033,128.182573,37.940969,6732.5613888,101.344,-16.311,198.033
10.02,128.182562,37.940923,6730.9941072,101.325,-16.36,198.192
10.0367,128.182551,37.940878,6729.421644,101.307,-16.409,198.351
10.0534,128.18254,37.940832,6727.8436944000005,101.289,-16.458,198.51
10.0701,128.182529,37.940787,6726.260868,101.271,-16.507,198.669
10.0868,128.182518,37.940741,6724.672555200001,101.253,-16.556,198.828
10.1035,128.182507,37.940696,6723.079060800001,101.235,-16.606,198.987
10.1202,128.182495,37.94065,6721.4803848,101.217,-16.655,199.146
10.1368,128.182483,37.940605,6719.8765272,101.199,-16.704,199.305
10.1535,128.182471,37.94056,6718.267488,101.182,-16.753,199.465
10.1702,128.182459,37.940514,6716.6529624,101.164,-16.803,199.624
10.187,128.182447,37.940469,6715.033560000001,101.146,-16.852,199.784
10.2037,128.182435,37.940424,6713.408976,101.128,-16.901,199.944
10.2204,128.182422,37.940379,6711.7789056,101.11,-16.951,200.104
10.2371,128.18241,37.940334,6710.1436536,101.093,-17.0,200.263
10.2538,128.182397,37.940288,6708.503524800001,101.075,-17.05,200.423
10.2705,128.182384,37.940243,6706.8579096,101.057,-17.1,200.584
10.2872,128.182371,37.940198,6705.207417600001,101.04,-17.149,200.744
10.3039,128.182357,37.940153,6703.5514392,101.022,-17.199,200.904
10.3205,128.182344,37.940108,6701.890584000001,101.004,-17.248,201.064
10.3372,128.18233,37.940063,6700.224242400001,100.987,-17.298,201.225
10.3539,128.182317,37.940018,6698.553024000001,100.969,-17.348,201.385
10.3707,128.182303,37.939974,6696.876624,100.951,-17.397,201.546
10.3874,128.182289,37.939929,6695.195042400001,100.934,-17.447,201.707
10.4041,128.182275,37.939884,6693.508279200001,100.916,-17.497,201.868
10.4208,128.18226,37.939839,6691.8163343999995,100.899,-17.547,202.029
10.4375,128.182246,37.939795,6690.119208,100.882,-17.597,202.19
10.4542,128.182231,37.93975,6688.4169,100.864,-17.646,202.351
10.4709,128.182216,37.939705,6686.709410400001,100.847,-17.696,202.512
10.4876,128.182201,37.939661,6684.997044,100.829,-17.746,202.674
10.5042,128.182186,37.939616,6683.279496,100.812,-17.796,202.835
10.5209,128.182171,37.939572,6681.5567664,100.794,-17.846,202.997
10.5376,128.182155,37.939527,6679.8288552,100.777,-17.896,203.158
10.5544,128.18214,37.939483,6678.0957624,100.759,-17.946,203.32
10.5711,128.182124,37.939439,6676.3577928,100.741,-17.996,203.482
10.5878,128.182108,37.939394,6674.6146416,100.724,-18.046,203.644
10.6045,128.182092,37.93935,6672.8663088,100.706,-18.096,203.806
10.6212,128.182076,37.939306,6671.1130992,100.688,-18.146,203.968
10.6379,128.18206,37.939262,6669.3544032,100.671,-18.196,204.13
10.6546,128.182043,37.939218,6667.5908304,100.653,-18.246,204.293
10.6713,128.182026,37.939174,6665.8223808,100.635,-18.296,204.455
10.6879,128.18201,37.939129,6664.0484448,100.618,-18.346,204.618
10.7046,128.181993,37.939086,6662.2696320000005,100.6,-18.396,204.781
10.7213,128.181976,37.939042,6660.485942400001,100.583,-18.446,204.943
10.7381,128.181958,37.938998,6658.6967664,100.565,-18.496,205.106
10.7548,128.181941,37.938954,6656.9027136,100.548,-18.546,205.269
10.7715,128.181923,37.93891,6655.103784000001,100.53,-18.596,205.432
10.7882,128.181906,37.938866,6653.299672800001,100.513,-18.646,205.595
10.8049,128.181888,37.938823,6651.49038,100.495,-18.696,205.759
10.8216,128.18187,37.938779,6649.676210400001,100.477,-18.746,205.922
10.8383,128.181852,37.938735,6647.8568592,100.46,-18.796,206.086
10.855,128.181833,37.938692,6646.0323264,100.442,-18.846,206.249
10.8717,128.181815,37.938648,6644.2029168,100.424,-18.896,206.413
10.8883,128.181796,37.938605,6642.3686304,100.407,-18.946,206.577
10.905,128.181777,37.938562,6640.5291624,100.389,-18.996,206.741
10.9218,128.181758,37.938518,6638.6845128,100.371,-19.047,206.905
10.9385,128.181739,37.938475,6636.8349864,100.353,-19.097,207.069
10.9552,128.18172,37.938432,6634.980583200001,100.335,-19.147,207.233
10.9719,128.181701,37.938389,6633.1209984,100.317,-19.197,207.398
10.9886,128.181681,37.938346,6631.256232000001,100.3,-19.247,207.562
11.0053,128.181662,37.938303,6629.3865888,100.282,-19.297,207.727
11.022,128.181642,37.93826,6627.512068800001,100.264,-19.347,207.892
11.0387,128.181622,37.938217,6625.6323672,100.246,-19.397,208.056
11.0554,128.181602,37.938174,6623.747788799999,100.227,-19.447,208.221
11.072,128.181581,37.938131,6621.858333600001,100.209,-19.497,208.386
11.0887,128.181561,37.938088,6619.9636968,100.191,-19.547,208.552
11.1054,128.18154,37.938045,6618.064183200001,100.173,-19.597,208.717
11.1222,128.18152,37.938003,6616.159488000001,100.154,-19.647,208.882
11.1389,128.181499,37.93796,6614.249916,100.136,-19.697,209.048
11.1556,128.181478,37.937917,6612.3354672000005,100.117,-19.747,209.213
11.1723,128.181457,37.937875,6610.415836800001,100.099,-19.797,209.379
11.189,128.181435,37.937833,6608.4913295999995,100.08,-19.847,209.545
11.2057,128.181414,37.93779,6606.5619456,100.061,-19.897,209.711
11.2224,128.181392,37.937748,6604.62738,100.042,-19.946,209.877
11.2391,128.181371,37.937706,6602.687937600001,100.023,-19.996,210.043
11.2557,128.181349,37.937663,6600.743618400001,100.004,-20.046,210.209
11.2724,128.181327,37.937621,6598.7944224,99.985,-20.096,210.376
11.2891,128.181304,37.937579,6596.8403496,99.966,-20.146,210.542
11.3059,128.181282,37.937537,6594.8810952,99.947,-20.196,210.709
11.3226,128.18126,37.937495,6592.916964,99.927,-20.245,210.876
11.3393,128.181237,37.937453,6590.947956000001,99.908,-20.295,211.042
11.356,128.181214,37.937411,6588.9737663999995,99.888,-20.345,211.209
11.3727,128.181191,37.93737,6586.9950048,99.868,-20.395,211.377
11.3894,128.181168,37.937328,6585.0110616,99.848,-20.444,211.544
11.4061,128.181145,37.937286,6583.022241600001,99.828,-20.494,211.711
11.4228,128.181122,37.937245,6581.0285448,99.808,-20.544,211.879
11.4394,128.181098,37.937203,6579.0299712,99.788,-20.593,212.046
11.4561,128.181074,37.937162,6577.0265208,99.768,-20.643,212.214
11.4728,128.181051,37.93712,6575.0181936,99.747,-20.692,212.382
11.4896,128.181027,37.937079,6573.0049896,99.726,-20.742,212.55
11.5063,128.181003,37.937038,6570.986604000001,99.706,-20.791,212.718
11.523,128.180978,37.936997,6568.9636464000005,99.685,-20.841,212.886
11.5397,128.180954,37.936956,6566.9355072,99.664,-20.89,213.054
11.5564,128.18093,37.936914,6564.9052344,99.745,-20.956,213.22
11.5731,128.180905,37.936873,6562.8700848,99.925,-21.038,213.383
11.5898,128.18088,37.936833,6560.830363200001,100.209,-21.131,213.544
11.6065,128.180855,37.936792,6558.786374400001,100.601,-21.228,213.704
11.6231,128.18083,37.936751,6556.737813600001,101.102,-21.328,213.863
11.6398,128.180805,37.93671,6554.6846808,101.708,-21.43,214.021
11.6565,128.18078,37.936669,6552.6266712,102.419,-21.532,214.178
11.6733,128.180755,37.936629,6550.5640896,103.228,-21.635,214.335
11.69,128.180729,37.936588,6548.4969360000005,104.133,-21.74,214.489
11.7067,128.180704,37.936548,6546.424600800001,105.129,-21.848,214.642
11.7234,128.180678,37.936507,6544.3476936,106.213,-21.958,214.793
11.7401,128.180652,37.936467,6542.2653,107.382,-22.072,214.942
11.7568,128.180626,37.936426,6540.177420000001,108.633,-22.19,215.089
11.7735,128.1806,37.936386,6538.0840536000005,109.963,-22.312,215.233
11.7902,128.180574,37.936346,6535.985200800001,111.37,-22.438,215.374
11.8068,128.180548,37.936306,6533.880252000001,112.851,-22.569,215.514
11.8235,128.180522,37.936266,6531.769512,114.404,-22.706,215.65
11.8402,128.180496,37.936226,6529.649932800001,115.842,-22.818,215.781
11.857,128.180469,37.936186,6527.5242576,117.174,-22.902,215.892
11.8737,128.180443,37.936146,6525.3912672,118.391,-22.965,215.986
11.8904,128.180416,37.936106,6523.2512664,119.485,-23.02,216.066
11.9071,128.18039,37.936066,6521.1039504,120.452,-23.072,216.139
11.9238,128.180363,37.936026,6518.9490144,121.293,-23.127,216.207
11.9405,128.180336,37.935986,6516.7861536,122.014,-23.186,216.274
11.9572,128.180309,37.935947,6514.615368000001,122.618,-23.249,216.341
11.9739,128.180282,37.935907,6512.4366576,123.112,-23.317,216.409
11.9905,128.180255,37.935868,6510.2494128,123.5,-23.388,216.479
12.0072,128.180228,37.935829,6508.053328800001,123.788,-23.462,216.551
12.0239,128.1802,37.935789,6505.8487104000005,123.979,-23.539,216.624
12.0407,128.180173,37.93575,6503.6352528,124.079,-23.619,216.699
12.0574,128.180145,37.935711,6501.4126512,124.091,-23.7,216.777
12.0741,128.180118,37.935672,6499.181210400001,124.019,-23.783,216.857
12.0908,128.18009,37.935633,6496.940016,123.865,-23.868,216.939
12.1075,128.180062,37.935594,6494.6896776,123.633,-23.954,217.024
12.1242,128.180034,37.935555,6492.4298904,123.326,-24.04,217.112
12.1409,128.180006,37.935517,6490.1609592,122.947,-24.128,217.203
12.1576,128.179978,37.935478,6487.882579200001,122.497,-24.216,217.298
12.1743,128.17995,37.93544,6485.59536,121.98,-24.304,217.395
12.1909,128.179921,37.935401,6483.299301600001,121.398,-24.393,217.496
12.2076,128.179893,37.935363,6480.994404,120.753,-24.48,217.6
12.2243,128.179864,37.935325,6478.6806672,120.047,-24.568,217.708
12.2411,128.179836,37.935287,6476.3583960000005,119.281,-24.654,217.819
12.2578,128.179807,37.935249,6474.0275904,118.458,-24.739,217.934
12.2745,128.179778,37.935211,6471.6885552,117.579,-24.822,218.051
12.2912,128.179749,37.935173,6469.341290400001,116.646,-24.903,218.172
12.3079,128.17972,37.935135,6466.986405600001,115.66,-24.982,218.296
12.3246,128.179691,37.935098,6464.6232912000005,114.623,-25.058,218.422
12.3413,128.179662,37.93506,6462.2528616,113.536,-25.132,218.551
12.358,128.179632,37.935023,6459.8751168,112.401,-25.202,218.682
12.3746,128.179603,37.934985,6457.490056800001,111.218,-25.268,218.814
12.3913,128.179573,37.934948,6455.0979864,109.989,-25.33,218.948
12.408,128.179543,37.934911,6452.699515200001,108.715,-25.387,219.082
12.4248,128.179513,37.934874,6450.2961672,107.597,-25.47,219.224
12.4415,128.179483,37.934837,6447.887332800001,106.62,-25.579,219.389
12.4582,128.179453,37.9348,6445.4724024,105.788,-25.709,219.584
12.4749,128.179423,37.934763,6443.0519856,105.11,-25.847,219.804
12.4916,128.179393,37.934726,6440.6257776,104.587,-25.988,220.041
12.5083,128.179362,37.93469,6438.194083200001,104.219,-26.126,220.289
12.525,128.179332,37.934653,6435.7565976000005,104.002,-26.26,220.539
12.5417,128.179301,37.934617,6433.3139304,103.93,-26.389,220.789
12.5583,128.17927,37.93458,6430.8660816,103.997,-26.514,221.035
12.575,128.17924,37.934544,6428.4127464,104.195,-26.636,221.275
12.5917,128.179209,37.934508,6425.953924800001,104.519,-26.755,221.508
12.6085,128.179177,37.934472,6423.4902264,104.963,-26.873,221.736
12.6252,128.179146,37.934436,6421.0207368,105.519,-26.99,221.956
12.6419,128.179115,37.9344,6418.5460656000005,106.184,-27.107,222.17
12.6586,128.179084,37.934364,6416.0662128,106.951,-27.225,222.378
12.6753,128.179052,37.934328,6413.5805688,107.818,-27.344,222.58
12.692,128.179021,37.934292,6411.0897432,108.778,-27.464,222.775
12.7087,128.178989,37.934256,6408.5931264,109.83,-27.587,222.964
12.7254,128.178958,37.934221,6406.090718400001,110.968,-27.713,223.148
12.742,128.178926,37.934185,6403.5825192,112.19,-27.842,223.325
12.7587,128.178894,37.934149,6401.068224000001,113.493,-27.974,223.497
12.7754,128.178862,37.934114,6398.5453944,114.684,-28.08,223.657
12.7922,128.17883,37.934079,6396.016164000001,115.775,-28.153,223.789
12.8089,128.178798,37.934043,6393.480228,116.765,-28.195,223.876
12.8256,128.178766,37.934008,6390.9372816000005,117.642,-28.218,223.929
12.8423,128.178734,37.933973,6388.387020000001,118.398,-28.234,223.962
12.859,128.178702,37.933938,6385.829748,119.031,-28.251,223.987
12.8757,128.178669,37.933903,6383.265160800001,119.542,-28.271,224.011
12.8924,128.178637,37.933868,6380.6929536,119.934,-28.296,224.04
12.9091,128.178604,37.933833,6378.1131264000005,120.214,-28.326,224.073
12.9257,128.178572,37.933798,6375.525679200001,120.387,-28.362,224.114
12.9424,128.178539,37.933763,6372.9303072,120.456,-28.401,224.16
12.9591,128.178506,37.933729,6370.3267056,120.427,-28.445,224.213
12.9759,128.178473,37.933694,6367.7151792,120.303,-28.491,224.272
12.9926,128.17844,37.93366,6365.0954232,120.089,-28.541,224.336
13.0093,128.178407,37.933626,6362.4674376,119.788,-28.592,224.405
13.026,128.178374,37.933592,6359.8312224,119.404,-28.646,224.479
13.0427,128.178341,37.933558,6357.1864728,118.939,-28.701,224.558
13.0594,128.178308,37.933524,6354.5334936,118.397,-28.757,224.642
13.0761,128.178275,37.93349,6351.8728944,117.78,-28.814,224.729
13.0928,128.178241,37.933456,6349.204065600001,117.091,-28.871,224.822
13.1095,128.178208,37.933422,6346.5276168,116.334,-28.928,224.918
13.1262,128.178174,37.933389,6343.843548,115.509,-28.985,225.018
13.1429,128.17814,37.933355,6341.1518592,114.62,-29.04,225.121
13.1596,128.178106,37.933322,6338.453160000001,113.668,-29.094,225.227
13.1763,128.178073,37.933289,6335.7471456,112.657,-29.146,225.336
13.193,128.178039,37.933256,6333.0344256,111.587,-29.196,225.446
13.2097,128.178005,37.933223,6330.3150000000005,110.462,-29.243,225.558
13.2264,128.17797,37.93319,6327.5891736,109.282,-29.287,225.67
13.2431,128.177936,37.933157,6324.857251200001,108.051,-29.327,225.782
13.2598,128.177902,37.933124,6322.119232800001,106.769,-29.363,225.893
13.2765,128.177867,37.933092,6319.377556800001,105.643,-29.426,226.012
13.2932,128.177833,37.933059,6316.6303944,104.658,-29.519,226.156
13.3099,128.177798,37.933027,6313.8783552,103.813,-29.633,226.344
13.3266,128.177763,37.932994,6311.1214392,103.115,-29.76,226.579
13.3433,128.177729,37.932962,6308.3593416,102.567,-29.891,226.849
13.36,128.177694,37.93293,6305.5920624,102.171,-30.021,227.143
13.3767,128.177659,37.932898,6302.819601600001,101.926,-30.148,227.449
13.3934,128.177624,37.932866,6300.0425688000005,101.828,-30.271,227.756
13.4101,128.177588,37.932834,6297.2606592,101.87,-30.389,228.06
13.4268,128.177553,37.932802,6294.473568,102.048,-30.505,228.356
13.4435,128.177518,37.932771,6291.681904800001,102.355,-30.618,228.642
13.4602,128.177482,37.932739,6288.8850600000005,102.784,-30.729,228.919
13.4769,128.177447,37.932707,6286.0836432,103.329,-30.839,229.186
13.4936,128.177411,37.932676,6283.2770448,103.985,-30.95,229.443
13.5103,128.177375,37.932645,6280.465264800001,104.746,-31.061,229.691
13.527,128.17734,37.932613,6277.648608,105.608,-31.173,229.93
13.5437,128.177304,37.932582,6274.8267696,106.565,-31.287,230.16
13.5604,128.177268,37.932551,6271.9997496000005,107.615,-31.403,230.382
13.5771,128.177232,37.93252,6269.166938400001,108.752,-31.522,230.596
13.5938,128.177196,37.932489,6266.3289456,109.974,-31.644,230.802
13.6105,128.17716,37.932458,6263.484856800001,111.278,-31.77,231.001
13.6272,128.177124,37.932427,6260.6328432,112.464,-31.87,231.184
13.6439,128.177087,37.932396,6257.774733600001,113.55,-31.936,231.334
13.6606,128.177051,37.932365,6254.9102232000005,114.537,-31.969,231.428
13.6773,128.177015,37.932335,6252.039312,115.419,-31.978,231.467
13.694,128.176978,37.932304,6249.1616952,116.183,-31.974,231.469
13.7107,128.176942,37.932274,6246.2773728,116.822,-31.969,231.455
13.7274,128.176905,37.932243,6243.3863448,117.334,-31.967,231.44
13.7441,128.176869,37.932213,6240.4883064000005,117.722,-31.971,231.432
13.7608,128.176832,37.932183,6237.5829527999995,117.991,-31.981,231.434
13.7775,128.176795,37.932153,6234.6705888,118.145,-31.997,231.446
13.7942,128.176758,37.932123,6231.7512144,118.191,-32.019,231.469
13.8109,128.176721,37.932093,6228.82422,118.133,-32.045,231.501
13.8276,128.176685,37.932063,6225.8899104,117.976,-32.075,231.541
13.8443,128.176648,37.932034,6222.9482856,117.723,-32.108,231.59
13.861,128.17661,37.932004,6219.9990408,117.379,-32.144,231.645
13.8777,128.176573,37.931975,6217.042176,116.948,-32.183,231.706
13.8944,128.176536,37.931945,6214.077996000001,116.432,-32.222,231.773
13.9111,128.176499,37.931916,6211.1065008000005,115.837,-32.264,231.845
13.9278,128.176462,37.931887,6208.1279952,115.164,-32.305,231.921
13.9445,128.176424,37.931858,6205.142174400001,114.418,-32.347,232.002
13.9612,128.176387,37.931829,6202.149648,113.601,-32.389,232.086
13.9779,128.176349,37.9318,6199.1504159999995,112.716,-32.429,232.174
13.9946,128.176311,37.931772,6196.1447832,111.766,-32.469,232.264
14.0113,128.176274,37.931743,6193.1327496,110.753,-32.507,232.355
14.028,128.176236,37.931715,6190.114620000001,109.68,-32.542,232.447
14.0447,128.176198,37.931686,6187.0906992,108.549,-32.575,232.539
14.0614,128.17616,37.931658,6184.0609872,107.362,-32.606,232.631
14.0781,128.176122,37.93163,6181.0257888,106.123,-32.632,232.719
14.0948,128.176084,37.931602,6177.985104,104.833,-32.655,232.805
14.1115,128.176046,37.931574,6174.9419808,103.703,-32.707,232.898
14.1282,128.176008,37.931546,6171.8939808000005,102.715,-32.789,233.021
14.1449,128.175969,37.931519,6168.8414088,101.87,-32.893,233.192
14.1616,128.175931,37.931491,6165.784874400001,101.165,-33.011,233.428
14.1783,128.175893,37.931463,6162.723768,100.605,-33.135,233.722
14.195,128.175854,37.931436,6159.6580896,100.192,-33.26,234.056
14.2117,128.175815,37.931409,6156.588144,99.929,-33.382,234.414
14.2284,128.175777,37.931381,6153.5136264,99.815,-33.501,234.78
14.2451,128.175738,37.931354,6150.4348416,99.847,-33.616,235.143
14.2618,128.175699,37.931327,6147.3514847999995,100.02,-33.727,235.496
14.2785,128.17566,37.9313,6144.263556000001,100.327,-33.836,235.836
14.2952,128.175621,37.931273,6141.17136,100.762,-33.943,236.164
14.3119,128.175582,37.931247,6138.074592000001,101.319,-34.05,236.477
14.3286,128.175543,37.93122,6134.972947200001,101.99,-34.157,236.778
14.3453,128.175504,37.931193,6131.8670352,102.771,-34.264,237.066
14.362,128.175465,37.931167,6128.7562464,103.656,-34.373,237.343
14.3787,128.175425,37.93114,6125.6405808,104.639,-34.484,237.609
14.3954,128.175386,37.931114,6122.520038400001,105.717,-34.598,237.864
14.4121,128.175347,37.931088,6119.3943144,106.886,-34.714,238.11
14.4288,128.175307,37.931061,6116.263104000001,108.141,-34.835,238.346
14.4455,128.175268,37.931035,6113.1245784,109.279,-34.928,238.562
14.4622,128.175228,37.931009,6109.9805664,110.318,-34.986,238.737
14.4789,128.175188,37.930983,6106.8304584,111.261,-35.014,238.849
14.4956,128.175149,37.930957,6103.6748640000005,112.11,-35.013,238.879
14.5123,128.175109,37.930932,6100.5131736,112.851,-34.996,238.85
14.529,128.175069,37.930906,6097.345387200001,113.475,-34.971,238.785
14.5457,128.175029,37.93088,6094.171504800001,113.974,-34.945,238.707
14.5624,128.17499,37.930855,6090.9915264,114.344,-34.927,238.641
14.5791,128.17495,37.93083,6087.805147200001,114.584,-34.917,238.597
14.5958,128.17491,37.930804,6084.612672,114.7,-34.917,238.574
14.6125,128.17487,37.930779,6081.4134912,114.7,-34.924,238.571
14.6292,128.17483,37.930754,6078.2082144000005,114.59,-34.937,238.584
14.6459,128.174789,37.930729,6074.996232,114.375,-34.955,238.609
14.6626,128.174749,37.930704,6071.7778488,114.061,-34.975,238.644
14.6793,128.174709,37.93068,6068.5530648,113.654,-34.999,238.686
14.696,128.174669,37.930655,6065.3218799999995,113.158,-35.024,238.736
14.7127,128.174628,37.93063,6062.0842944,112.576,-35.05,238.791
14.7294,128.174588,37.930606,6058.8406128,111.913,-35.078,238.851
14.7461,128.174547,37.930582,6055.5905304,111.172,-35.105,238.915
14.7628,128.174507,37.930558,6052.334656800001,110.357,-35.132,238.982
14.7795,128.174466,37.930533,6049.0732968,109.472,-35.159,239.051
14.7962,128.174426,37.93051,6045.8061456000005,108.519,-35.184,239.122
14.8129,128.174385,37.930486,6042.533508,107.501,-35.208,239.192
14.8296,128.174344,37.930462,6039.2559936,106.421,-35.229,239.262
14.8463,128.174304,37.930438,6035.9732976000005,105.283,-35.248,239.33
14.863,128.174263,37.930415,6032.6860295999995,104.089,-35.265,239.394
14.8797,128.174222,37.930392,6029.3941896,102.841,-35.278,239.453
14.8964,128.174181,37.930368,6026.0977776,101.543,-35.288,239.506
14.9131,128.17414,37.930345,6022.7998416,100.412,-35.327,239.567
14.9298,128.174099,37.930322,6019.497638400001,99.426,-35.398,239.662
14.9465,128.174058,37.930299,6016.192082400001,98.586,-35.489,239.809
14.9632,128.174016,37.930276,6012.8831736,97.887,-35.593,240.027
14.9799,128.173975,37.930253,6009.570912,97.323,-35.702,240.33
14.9966,128.173934,37.930231,6006.254992800001,96.898,-35.812,240.699
15.0133,128.173892,37.930208,6002.935415999999,96.615,-35.92,241.114
15.03,128.173851,37.930186,5999.611876800001,96.477,-36.025,241.553
15.0467,128.17381,37.930163,5996.28468,96.49,-36.127,241.991
15.0634,128.173768,37.930141,5992.9538256,96.651,-36.226,242.413
15.0801,128.173726,37.930119,5989.6190088,96.955,-36.322,242.817
15.0968,128.173685,37.930097,5986.2802296,97.394,-36.416,243.202
15.1135,128.173643,37.930075,5982.9377928,97.962,-36.511,243.568
15.1302,128.173601,37.930053,5979.5910888,98.65,-36.606,243.917
15.1469,128.173559,37.930031,5976.2401176,99.453,-36.703,244.251
15.1636,128.173517,37.930009,5972.885184000001,100.363,-36.801,244.57
