Time,Longitude,Latitude,Altitude,Roll (deg),Pitch (deg),Yaw (deg)
0.0,128.181881,37.923466,7000.0816056,0.0,-0.003,179.999
0.0167,128.181881,37.923421,7000.0630128,0.0,-0.012,180.0
0.0334,128.181881,37.923376,7000.042896000001,0.087,-0.013,180.011
0.0501,128.181881,37.923331,7000.02156,0.258,0.007,180.034
0.0668,128.181881,37.923286,6999.9987,0.516,0.062,180.064
0.0834,128.181881,37.923241,6999.976449600001,0.69,0.166,180.076
0.1002,128.181881,37.923196,6999.9551136,0.783,0.328,180.067
0.1169,128.181881,37.923151,6999.935606400001,0.79,0.556,180.045
0.1336,128.181881,37.923106,6999.9188424,0.702,0.859,180.017
0.1503,128.181881,37.923062,6999.905736000001,0.519,1.238,179.985
0.1669,128.181881,37.923017,6999.896896800001,0.239,1.68,179.951
0.1837,128.181881,37.922972,6999.8932392,-0.133,2.172,179.916
0.2004,128.181881,37.922927,6999.893544,-0.422,2.702,179.903
0.2171,128.181881,37.922882,6999.8987256,-0.631,3.252,179.912
0.2338,128.181881,37.922837,6999.908479200001,-0.749,3.805,179.933
0.2505,128.181881,37.922792,6999.9234144,-0.77,4.344,179.962
0.2672,128.181881,37.922747,6999.9429216,-0.692,4.854,179.994
0.2839,128.181881,37.922702,6999.967305600001,-0.517,5.33,180.027
0.3006,128.181881,37.922657,6999.999309600001,-0.417,5.773,180.038
0.3172,128.181881,37.922612,7000.038324000001,-0.39,6.188,180.028
0.3339,128.181881,37.922567,7000.085568,-0.443,6.576,180.003
0.3507,128.181881,37.922522,7000.1416512000005,-0.583,6.94,179.97
0.3674,128.181881,37.922477,7000.2068784,-0.811,7.281,179.932
0.3841,128.181881,37.922432,7000.282164,-1.126,7.603,179.891
0.4008,128.181881,37.922387,7000.3681176,-1.526,7.907,179.85
0.4175,128.181881,37.922342,7000.4653488,-2.008,8.194,179.806
0.4342,128.181881,37.922297,7000.5738576,-2.569,8.468,179.762
0.4509,128.181881,37.922252,7000.6948632,-3.206,8.728,179.715
0.4676,128.181881,37.922208,7000.828365600001,-3.915,8.977,179.667
0.4843,128.181881,37.922163,7000.9740600000005,-4.695,9.215,179.616
0.501,128.181881,37.922118,7001.131946400001,-5.543,9.445,179.563
0.5176,128.181881,37.922073,7001.3026344,-6.455,9.666,179.506
0.5344,128.181881,37.922028,7001.4858192,-7.431,9.88,179.446
0.5511,128.181881,37.921983,7001.6815008,-8.467,10.086,179.382
0.5678,128.181881,37.921939,7001.889984000001,-9.563,10.287,179.314
0.5845,128.181881,37.921894,7002.110964,-10.716,10.482,179.242
0.6012,128.181881,37.921849,7002.3444408000005,-11.926,10.672,179.165
0.6179,128.181882,37.921804,7002.590414400001,-13.189,10.857,179.083
0.6345,128.181882,37.92176,7002.8488848,-14.507,11.037,178.996
0.6513,128.181882,37.921715,7003.120156800001,-15.876,11.212,178.903
0.6679,128.181883,37.92167,7003.403316,-17.297,11.383,178.805
0.6847,128.181883,37.921626,7003.6992768,-18.768,11.551,178.701
0.7014,128.181883,37.921581,7004.007124800001,-20.288,11.714,178.591
0.7181,128.181884,37.921536,7004.32686,-21.858,11.873,178.474
0.7348,128.181884,37.921492,7004.658787200001,-23.475,12.028,178.351
0.7514,128.181885,37.921447,7005.0022968,-25.139,12.179,178.22
0.7682,128.181886,37.921403,7005.3573888,-26.851,12.326,178.083
0.7848,128.181886,37.921358,7005.7240632,-28.609,12.468,177.938
0.8016,128.181887,37.921314,7006.100491200001,-30.384,12.608,177.788
0.8183,128.181888,37.921269,7006.4869776000005,-32.146,12.745,177.633
0.835,128.181889,37.921225,7006.8829128,-33.865,12.88,177.476
0.8517,128.18189,37.92118,7007.287687200001,-35.52,13.014,177.315
0.8684,128.181891,37.921136,7007.700691200001,-37.092,13.146,177.151
0.8851,128.181893,37.921091,7008.121620000001,-38.568,13.276,176.984
0.9018,128.181894,37.921047,7008.5498640000005,-39.94,13.404,176.813
0.9185,128.181895,37.921002,7008.985423200001,-41.205,13.529,176.638
0.9352,128.181897,37.920958,7009.427383200001,-42.362,13.65,176.458
0.9519,128.181898,37.920914,7009.875744,-43.417,13.768,176.274
0.9686,128.1819,37.920869,7010.329896,-44.373,13.88,176.086
0.9853,128.181901,37.920825,7010.7895344,-45.241,13.989,175.894
1.002,128.181903,37.920781,7011.254659200001,-46.028,14.092,175.699
1.0187,128.181905,37.920736,7011.7246608000005,-46.743,14.191,175.502
1.0353,128.181907,37.920692,7012.1992344,-47.395,14.284,175.303
1.0521,128.181909,37.920648,7012.6789896,-47.992,14.371,175.102
1.0688,128.181911,37.920603,7013.1639264000005,-48.542,14.454,174.901
1.0855,128.181913,37.920559,7013.65374,-49.055,14.534,174.702
1.1022,128.181915,37.920515,7014.1487352,-49.539,14.613,174.506
1.1189,128.181917,37.920471,7014.648912,-49.997,14.689,174.313
1.1356,128.18192,37.920426,7015.154270400001,-50.431,14.763,174.123
1.1522,128.181922,37.920382,7015.6651152,-50.842,14.835,173.935
1.169,128.181925,37.920338,7016.1808368,-51.232,14.904,173.75
1.1857,128.181927,37.920294,7016.7020448,-51.601,14.969,173.566
1.2024,128.18193,37.920249,7017.2281296,-51.953,15.032,173.383
1.2191,128.181933,37.920205,7017.7597008,-52.288,15.092,173.202
1.2358,128.181936,37.920161,7018.2964536,-52.608,15.149,173.023
1.2525,128.181939,37.920117,7018.838388000001,-52.913,15.204,172.844
1.2691,128.181942,37.920073,7019.385808800001,-53.206,15.257,172.667
1.2859,128.181945,37.920029,7019.938106400001,-53.486,15.307,172.492
1.3026,128.181949,37.919984,7020.495585600001,-53.755,15.355,172.317
1.3193,128.181952,37.91994,7021.058246400001,-54.014,15.402,172.144
1.3359,128.181955,37.919896,7021.625784000001,-54.264,15.447,171.971
1.3527,128.181959,37.919852,7022.198808,-54.505,15.49,171.8
1.3694,128.181963,37.919808,7022.7767088,-54.737,15.532,171.63
1.386,128.181967,37.919764,7023.359486400001,-54.962,15.573,171.461
1.4028,128.181971,37.91972,7023.947445600001,-55.18,15.612,171.292
1.4195,128.181975,37.919676,7024.5405864,-55.391,15.65,171.125
1.4362,128.181979,37.919632,7025.138604000001,-55.595,15.688,170.958
1.4528,128.181983,37.919588,7025.7414984,-55.794,15.724,170.793
1.4696,128.181987,37.919544,7026.349574400001,-55.987,15.759,170.628
1.4863,128.181992,37.9195,7026.9622224,-56.176,15.794,170.464
1.5029,128.181996,37.919456,7027.580052000001,-56.359,15.828,170.3
1.5197,128.182001,37.919413,7028.2027584,-56.538,15.861,170.137
1.5364,128.182006,37.919369,7028.830341600001,-56.712,15.894,169.975
1.5531,128.18201,37.919325,7029.462496800001,-56.883,15.926,169.814
1.5697,128.182015,37.919281,7030.099833600001,-57.049,15.957,169.653
1.5865,128.18202,37.919237,7030.7417424000005,-57.212,15.988,169.492
1.6032,128.182026,37.919193,7031.388528,-57.372,16.019,169.332
1.6198,128.182031,37.91915,7032.0398856,-57.529,16.049,169.173
1.6366,128.182036,37.919106,7032.6961200000005,-57.683,16.079,169.014
1.6533,128.182042,37.919062,7033.357231200001,-57.834,16.109,168.856
1.67,128.182047,37.919019,7034.0229144,-57.982,16.138,168.698
1.6867,128.182053,37.918975,7034.693169600001,-58.128,16.167,168.54
1.7034,128.182059,37.918931,7035.367996800001,-58.272,16.195,168.383
1.7201,128.182065,37.918888,7036.047396000001,-58.414,16.224,168.226
1.7368,128.182071,37.918844,7036.7328912,-58.563,16.247,168.066
1.7535,128.182077,37.9188,7037.4229584,-58.72,16.265,167.903
1.7702,128.182083,37.918757,7038.1179024,-58.886,16.279,167.738
1.7869,128.18209,37.918713,7038.817723200001,-59.062,16.291,167.572
1.8036,128.182096,37.91867,7039.5224208,-59.248,16.301,167.405
1.8203,128.182103,37.918626,7040.2316904,-59.445,16.311,167.237
1.837,128.18211,37.918583,7040.9458368000005,-59.651,16.32,167.069
1.8537,128.182117,37.91854,7041.6642504,-59.865,16.329,166.901
1.8704,128.182124,37.918496,7042.3872360000005,-60.087,16.338,166.733
1.8871,128.182131,37.918453,7043.1147936,-60.316,16.348,166.564
1.9038,128.182138,37.91841,7043.846618400001,-60.549,16.357,166.396
1.9205,128.182145,37.918366,7044.582710400001,-60.787,16.367,166.228
1.9372,128.182153,37.918323,7045.323069600001,-61.029,16.377,166.06
1.9539,128.18216,37.91828,7046.0673912,-61.272,16.386,165.891
1.9706,128.182168,37.918236,7046.81598,-61.518,16.396,165.723
1.9873,128.182176,37.918193,7047.568836,-61.765,16.406,165.555
2.004,128.182184,37.91815,7048.3256544000005,-62.012,16.416,165.386
2.0207,128.182192,37.918107,7049.0864352,-62.259,16.426,165.218
2.0374,128.1822,37.918064,7049.8511784,-62.506,16.435,165.049
2.0541,128.182208,37.918021,7050.619579200001,-62.753,16.444,164.881
2.0707,128.182216,37.917978,7051.3919424000005,-62.998,16.453,164.713
2.0875,128.182225,37.917935,7052.168268,-63.243,16.462,164.544
2.1042,128.182233,37.917892,7052.9482512,-63.486,16.471,164.376
2.1208,128.182242,37.917849,7053.731587200001,-63.727,16.479,164.207
2.1376,128.182251,37.917806,7054.5188856,-63.967,16.487,164.039
2.1543,128.18226,37.917763,7055.3098416,-64.205,16.495,163.871
2.171,128.182269,37.91772,7056.1041504,-64.442,16.502,163.702
2.1877,128.182278,37.917677,7056.9021168,-64.676,16.509,163.534
2.2044,128.182288,37.917634,7057.703436000001,-64.909,16.515,163.366
2.2211,128.182297,37.917591,7058.508108,-65.14,16.522,163.197
2.2378,128.182307,37.917549,7059.316132800001,-65.369,16.527,163.029
2.2544,128.182316,37.917506,7060.1278152,-65.596,16.533,162.861
2.2712,128.182326,37.917463,7060.942545600001,-65.821,16.538,162.693
2.2879,128.182336,37.917421,7061.760324000001,-66.045,16.543,162.525
2.3045,128.182346,37.917378,7062.5814552,-66.266,16.547,162.357
2.3213,128.182356,37.917335,7063.4059392,-66.487,16.551,162.189
2.338,128.182366,37.917293,7064.2331664,-66.706,16.555,162.022
2.3546,128.182377,37.91725,7065.063746400001,-66.924,16.56,161.854
2.3714,128.182387,37.917208,7065.8973744,-67.14,16.564,161.687
2.3881,128.182398,37.917165,7066.7337456000005,-67.356,16.568,161.52
2.4048,128.182409,37.917123,7067.573164800001,-67.57,16.572,161.354
2.4215,128.18242,37.91708,7068.415632,-67.783,16.576,161.187
2.4382,128.182431,37.917038,7069.260842400001,-67.995,16.58,161.021
2.4549,128.182442,37.916995,7070.108796,-68.206,16.584,160.854
2.4716,128.182453,37.916953,7070.959492800001,-68.416,16.588,160.689
2.4882,128.182464,37.916911,7071.8129328,-68.625,16.593,160.523
2.505,128.182476,37.916869,7072.669116,-68.833,16.597,160.357
2.5217,128.182487,37.916826,7073.528042400001,-69.04,16.601,160.192
2.5383,128.182499,37.916784,7074.3894072,-69.246,16.605,160.027
2.5551,128.182511,37.916742,7075.253515200001,-69.452,16.609,159.861
2.5718,128.182523,37.9167,7076.1200616,-69.656,16.613,159.697
2.5884,128.182535,37.916658,7076.989351200001,-69.86,16.618,159.532
2.6052,128.182547,37.916616,7077.860774400001,-70.063,16.622,159.367
2.6219,128.18256,37.916574,7078.7349408,-70.265,16.626,159.203
2.6386,128.182572,37.916532,7079.6112408,-70.466,16.63,159.038
2.6553,128.182585,37.91649,7080.489979200001,-70.667,16.634,158.874
2.6719,128.182597,37.916448,7081.3708512,-70.867,16.638,158.71
2.6887,128.18261,37.916406,7082.2541616,-71.067,16.642,158.545
2.7054,128.182623,37.916364,7083.1396056,-71.266,16.646,158.381
2.722,128.182636,37.916322,7084.027488000001,-71.465,16.65,158.218
2.7388,128.182649,37.916281,7084.9171992,-71.662,16.654,158.054
2.7555,128.182663,37.916239,7085.8093488,-71.859,16.658,157.89
2.7721,128.182676,37.916197,7086.703327200001,-72.056,16.662,157.726
2.7889,128.18269,37.916156,7087.5994392,-72.252,16.665,157.563
2.8056,128.182703,37.916114,7088.4976848,-72.447,16.669,157.399
2.8222,128.182717,37.916072,7089.3977592,-72.641,16.673,157.236
2.839,128.182731,37.916031,7090.2996624,-72.835,16.677,157.072
2.8557,128.182745,37.915989,7091.2036992,-73.028,16.68,156.909
2.8724,128.182759,37.915948,7092.109564800001,-73.22,16.683,156.745
2.8891,128.182774,37.915906,7093.0169544,-73.41,16.686,156.582
2.9057,128.182788,37.915865,7093.9264776,-73.6,16.688,156.418
2.9225,128.182803,37.915824,7094.837524800001,-73.788,16.69,156.255
2.9392,128.182817,37.915782,7095.7504008000005,-73.975,16.692,156.091
2.9558,128.182832,37.915741,7096.665105600001,-74.16,16.693,155.928
2.9726,128.182847,37.9157,7097.5813344,-74.345,16.694,155.764
2.9893,128.182862,37.915659,7098.499087200001,-74.528,16.694,155.6
3.0059,128.182878,37.915617,7099.418668800001,-74.709,16.693,155.436
3.0227,128.182893,37.915576,7100.3394696000005,-74.89,16.692,155.272
3.0394,128.182908,37.915535,7101.2620992,-75.069,16.691,155.108
3.056,128.182924,37.915494,7102.185948,-75.247,16.689,154.944
3.0728,128.18294,37.915453,7103.1113208,-75.424,16.687,154.78
3.0895,128.182955,37.915412,7104.0382176,-75.599,16.684,154.615
3.1062,128.182971,37.915371,7104.966333600001,-75.774,16.68,154.451
3.1229,128.182987,37.91533,7105.895973600001,-75.947,16.677,154.287
3.1395,128.183004,37.91529,7106.8268328,-76.118,16.672,154.123
3.1563,128.18302,37.915249,7107.7589112000005,-76.289,16.668,153.958
3.173,128.183036,37.915208,7108.6922088,-76.458,16.663,153.794
3.1896,128.183053,37.915167,7109.6267256,-76.626,16.657,153.63
3.2064,128.183069,37.915127,7110.562156800001,-76.792,16.651,153.465
3.2231,128.183086,37.915086,7111.4991119999995,-76.958,16.645,153.301
3.2397,128.183103,37.915046,7112.4369816,-77.121,16.638,153.136
3.2565,128.18312,37.915005,7113.376070400001,-77.284,16.631,152.972
3.2732,128.183137,37.914965,7114.316073600001,-77.445,16.623,152.807
3.2899,128.183155,37.914924,7115.256991200001,-77.605,16.615,152.643
3.3066,128.183172,37.914884,7116.1988232,-77.763,16.607,152.478
3.3233,128.18319,37.914843,7117.141874400001,-77.92,16.598,152.314
3.34,128.183207,37.914803,7118.08584,-78.075,16.589,152.15
3.3567,128.183225,37.914763,7119.030415200001,-78.229,16.579,151.985
3.3734,128.183243,37.914722,7119.9759048000005,-78.381,16.569,151.821
3.3901,128.183261,37.914682,7120.9223088,-78.532,16.559,151.656
3.4068,128.183279,37.914642,7121.869627200001,-78.682,16.548,151.492
3.4235,128.183298,37.914602,7122.8172504,-78.83,16.537,151.328
3.4402,128.183316,37.914562,7123.7660928000005,-78.976,16.525,151.163
3.4569,128.183335,37.914522,7124.71524,-79.121,16.514,150.999
3.4736,128.183353,37.914482,7125.665301600001,-79.265,16.501,150.835
3.4903,128.183372,37.914442,7126.6159728,-79.407,16.489,150.671
3.507,128.183391,37.914402,7127.5672536,-79.548,16.476,150.506
3.5237,128.18341,37.914362,7128.5188392,-79.687,16.463,150.342
3.5404,128.183429,37.914323,7129.4713392,-79.824,16.449,150.178
3.5571,128.183449,37.914283,7130.424144,-79.96,16.436,150.014
3.5738,128.183468,37.914243,7131.3775584,-80.095,16.421,149.85
3.5905,128.183488,37.914204,7132.3312776,-80.228,16.407,149.686
3.6072,128.183507,37.914164,7133.285606400001,-80.36,16.392,149.522
3.6239,128.183527,37.914125,7134.24024,-80.49,16.377,149.358
3.6406,128.183547,37.914085,7135.195483200001,-80.619,16.362,149.195
3.6573,128.183567,37.914046,7136.1507264,-80.746,16.346,149.031
3.674,128.183587,37.914006,7137.106579200001,-80.872,16.33,148.867
3.6907,128.183607,37.913967,7138.0627368000005,-80.997,16.314,148.703
3.7074,128.183628,37.913928,7139.0188944,-81.12,16.298,148.54
3.7241,128.183648,37.913888,7139.9756615999995,-81.242,16.281,148.376
3.7408,128.183669,37.913849,7140.932428800001,-81.362,16.264,148.213
3.7575,128.18369,37.91381,7141.889500800001,-81.481,16.247,148.049
3.7742,128.183711,37.913771,7142.8465728,-81.599,16.23,147.886
3.7909,128.183732,37.913732,7143.8039496,-81.715,16.212,147.722
3.8076,128.183753,37.913693,7144.7616312,-81.831,16.194,147.559
3.8243,128.183774,37.913654,7145.7193128,-81.944,16.176,147.396
3.841,128.183795,37.913615,7146.6769944,-82.057,16.157,147.232
3.8577,128.183817,37.913576,7147.634676,-82.168,16.139,147.069
3.8744,128.183839,37.913537,7148.5923576,-82.278,16.12,146.906
3.8911,128.18386,37.913499,7149.550344,-82.387,16.101,146.743
3.9078,128.183882,37.91346,7150.5080256,-82.495,16.081,146.58
3.9245,128.183904,37.913421,7151.4657072,-82.601,16.062,146.417
3.9412,128.183926,37.913383,7152.4233888,-82.707,16.042,146.254
3.9579,128.183949,37.913344,7153.381070400001,-82.811,16.022,146.091
3.9746,128.183971,37.913306,7154.338752000001,-82.914,16.002,145.929
3.9913,128.183994,37.913267,7155.296128800001,-83.016,15.982,145.766
4.008,128.184016,37.913229,7156.253505600001,-83.117,15.961,145.603
4.0247,128.184039,37.91319,7157.210577600001,-83.217,15.941,145.441
4.0414,128.184062,37.913152,7158.1673448,-83.315,15.92,145.278
4.058,128.184085,37.913114,7159.1241119999995,-83.413,15.899,145.115
4.0748,128.184108,37.913076,7160.080574400001,-83.51,15.878,144.953
4.0915,128.184131,37.913038,7161.0367320000005,-83.606,15.856,144.79
4.1082,128.184154,37.913,7161.9928896,-83.701,15.835,144.628
4.1249,128.184178,37.912962,7162.948437600001,-83.795,15.813,144.466
4.1415,128.184201,37.912924,7163.9036808,-83.887,15.791,144.303
4.1583,128.184225,37.912886,7164.858924000001,-83.979,15.769,144.141
4.175,128.184249,37.912848,7165.8135576,-84.071,15.747,143.979
4.1917,128.184273,37.91281,7166.7678864,-84.161,15.725,143.816
4.2084,128.184297,37.912772,7167.7219104000005,-84.25,15.702,143.654
4.2251,128.184321,37.912735,7168.6753248,-84.339,15.679,143.492
4.2417,128.184346,37.912697,7169.6284344,-84.427,15.657,143.33
4.2585,128.18437,37.912659,7170.5809344,-84.514,15.634,143.168
4.2752,128.184395,37.912622,7171.5331295999995,-84.6,15.611,143.006
4.2919,128.184419,37.912584,7172.485020000001,-84.685,15.587,142.844
4.3086,128.184444,37.912547,7173.435996,-84.77,15.564,142.682
4.3252,128.184469,37.91251,7174.3866672,-84.854,15.54,142.52
4.342,128.184494,37.912472,7175.336728800001,-84.937,15.517,142.358
4.3587,128.184519,37.912435,7176.286485600001,-85.019,15.493,142.196
4.3754,128.184544,37.912398,7177.235328000001,-85.101,15.469,142.034
4.3921,128.18457,37.912361,7178.183865600001,-85.182,15.445,141.873
4.4088,128.184595,37.912324,7179.1314888,-85.262,15.421,141.711
4.4254,128.184621,37.912287,7180.0788072,-85.342,15.397,141.549
4.4422,128.184647,37.91225,7181.025211200001,-85.421,15.372,141.387
4.4589,128.184673,37.912213,7181.9710056,-85.5,15.348,141.226
4.4756,128.184699,37.912176,7182.9161904,-85.578,15.323,141.064
4.4923,128.184725,37.912139,7183.860765600001,-85.655,15.298,140.902
4.5089,128.184751,37.912103,7184.8044264,-85.732,15.273,140.741
4.5256,128.184777,37.912066,7185.747477600001,-85.808,15.248,140.579
4.5424,128.184804,37.912029,7186.6896144,-85.884,15.223,140.418
4.5591,128.18483,37.911993,7187.631141600001,-85.959,15.198,140.256
4.5758,128.184857,37.911956,7188.5717544,-86.033,15.173,140.095
4.5925,128.184884,37.91192,7189.5117576,-86.107,15.147,139.933
4.6091,128.184911,37.911884,7190.450846400001,-86.181,15.122,139.772
4.6259,128.184938,37.911847,7191.3890208,-86.254,15.096,139.61
4.6426,128.184965,37.911811,7192.3262808,-86.326,15.07,139.449
4.6593,128.184993,37.911775,7193.2629312,-86.398,15.044,139.287
4.676,128.18502,37.911739,7194.1986672,-86.47,15.018,139.126
4.6927,128.185047,37.911703,7195.133184000001,-86.541,14.992,138.965
4.7093,128.185075,37.911667,7196.0670912000005,-86.611,14.966,138.803
4.7261,128.185103,37.911631,7197.000084000001,-86.681,14.939,138.642
4.7428,128.185131,37.911595,7197.9318576,-86.751,14.913,138.48
4.7595,128.185159,37.911559,7198.8630216,-86.82,14.886,138.319
4.7762,128.185187,37.911524,7199.7929664,-86.889,14.86,138.158
4.7928,128.185215,37.911488,7200.721996800001,-86.957,14.833,137.997
4.8096,128.185244,37.911452,7201.6501128,-87.025,14.806,137.835
4.8263,128.185272,37.911417,7202.577009600001,-87.093,14.779,137.674
4.843,128.185301,37.911381,7203.502992000001,-87.16,14.752,137.513
4.8597,128.185329,37.911346,7204.4277552,-87.227,14.724,137.352
4.8764,128.185358,37.911311,7205.351604,-87.293,14.697,137.19
4.893,128.185387,37.911275,7206.274538400001,-87.36,14.67,137.029
4.9098,128.185416,37.91124,7207.1959488,-87.425,14.642,136.868
4.9265,128.185445,37.911205,7208.1164448,-87.49,14.614,136.707
4.9432,128.185475,37.91117,7209.0360264,-87.555,14.587,136.546
4.9599,128.185504,37.911135,7209.954084000001,-87.62,14.559,136.384
4.9765,128.185534,37.9111,7210.8712272,-87.684,14.531,136.223
4.9932,128.185563,37.911065,7211.787151200001,-87.748,14.503,136.062
5.01,128.185593,37.91103,7212.701856000001,-87.812,14.475,135.901
5.0267,128.185623,37.910996,7213.615341600001,-87.875,14.446,135.74
5.0434,128.185653,37.910961,7214.5279128,-87.938,14.418,135.579
5.0601,128.185683,37.910926,7215.43896,-88.001,14.39,135.418
5.0767,128.185713,37.910892,7216.348788000001,-88.063,14.361,135.257
5.0935,128.185743,37.910857,7217.257396800001,-88.125,14.332,135.095
5.1102,128.185774,37.910823,7218.164481600001,-88.187,14.303,134.934
5.1269,128.185804,37.910788,7219.070652000001,-88.248,14.275,134.773
5.1436,128.185835,37.910754,7219.9752984,-88.309,14.246,134.612
5.1602,128.185866,37.91072,7220.8787256,-88.37,14.216,134.451
5.1769,128.185897,37.910686,7221.780628800001,-88.43,14.187,134.29
5.1937,128.185928,37.910652,7222.6813128,-88.49,14.158,134.129
5.2104,128.185959,37.910618,7223.5807776,-88.55,14.129,133.968
5.2271,128.18599,37.910584,7224.478718400001,-88.61,14.099,133.807
5.2438,128.186021,37.91055,7225.3751352,-88.669,14.069,133.645
5.2604,128.186053,37.910516,7226.270332800001,-88.728,14.04,133.484
5.2772,128.186084,37.910482,7227.164311200001,-88.787,14.01,133.323
5.2939,128.186116,37.910449,7228.0564608,-88.846,13.98,133.162
5.3106,128.186148,37.910415,7228.9473912,-88.904,13.95,133.0
5.3273,128.18618,37.910382,7229.836797600001,-88.962,13.92,132.839
5.3439,128.186212,37.910348,7230.72468,-89.019,13.89,132.678
5.3606,128.186244,37.910315,7231.6113432,-89.077,13.859,132.516
5.3774,128.186276,37.910281,7232.4961776,-89.134,13.829,132.355
5.3941,128.186308,37.910248,7233.379792800001,-89.191,13.798,132.193
5.4108,128.186341,37.910215,7234.261579200001,-89.247,13.768,132.031
5.4275,128.186373,37.910182,7235.141841600001,-89.303,13.737,131.87
5.4441,128.186406,37.910149,7236.0208848,-89.359,13.706,131.708
5.4609,128.186439,37.910116,7236.898099200001,-89.415,13.675,131.546
5.4776,128.186471,37.910083,7237.7737896,-89.47,13.644,131.384
5.4943,128.186504,37.91005,7238.647956000001,-89.525,13.613,131.222
5.511,128.186538,37.910018,7239.5202936,-89.58,13.582,131.06
5.5277,128.186571,37.909985,7240.391412,-89.635,13.55,130.898
5.5443,128.186604,37.909952,7241.2603968,-89.689,13.519,130.736
5.5611,128.186637,37.90992,7242.1281624,-89.743,13.487,130.574
5.5778,128.186671,37.909887,7242.9940992,-89.797,13.456,130.412
5.5945,128.186705,37.909855,7243.858512,-89.85,13.424,130.249
5.6112,128.186738,37.909823,7244.721096,-89.903,13.392,130.087
5.6278,128.186772,37.909791,7245.5818512000005,-89.956,13.36,129.925
5.6445,128.186806,37.909758,7246.441082400001,-90.009,13.328,129.762
5.6613,128.18684,37.909726,7247.2987896,-90.061,13.296,129.6
5.678,128.186874,37.909694,7248.1543632,-90.113,13.264,129.438
5.6947,128.186909,37.909662,7249.0084128,-90.165,13.231,129.275
5.7114,128.186943,37.909631,7249.860633600001,-90.216,13.199,129.112
5.728,128.186978,37.909599,7250.7113304,-90.267,13.166,128.95
5.7448,128.187012,37.909567,7251.5598936,-90.318,13.134,128.787
5.7615,128.187047,37.909536,7252.4069328000005,-90.369,13.101,128.625
5.7782,128.187082,37.909504,7253.2518384,-90.419,13.068,128.462
5.7949,128.187117,37.909473,7254.095220000001,-90.47,13.035,128.299
5.8115,128.187152,37.909441,7254.936772800001,-90.52,13.002,128.136
5.8282,128.187187,37.90941,7255.776496800001,-90.569,12.969,127.973
5.845,128.187222,37.909379,7256.6140872000005,-90.619,12.936,127.811
5.8617,128.187257,37.909348,7257.4501536,-90.668,12.902,127.648
5.8784,128.187293,37.909317,7258.2840864,-90.717,12.869,127.485
5.8951,128.187328,37.909286,7259.1161904,-90.765,12.835,127.322
5.9117,128.187364,37.909255,7259.946465600001,-90.814,12.802,127.159
5.9285,128.1874,37.909224,7260.774912,-90.862,12.768,126.996
5.9452,128.187435,37.909193,7261.601224800001,-90.91,12.734,126.833
5.9619,128.187471,37.909162,7262.4257088,-90.957,12.7,126.669
5.9786,128.187507,37.909132,7263.248364,-91.005,12.666,126.506
5.9952,128.187544,37.909101,7264.068885600001,-91.052,12.632,126.343
6.0119,128.18758,37.909071,7264.8872736,-91.099,12.598,126.18
6.0287,128.187616,37.909041,7265.704137600001,-91.146,12.563,126.016
6.0454,128.187653,37.90901,7266.5185632,-91.192,12.529,125.853
6.0621,128.187689,37.90898,7267.331160000001,-91.239,12.494,125.69
6.0788,128.187726,37.90895,7268.141928000001,-91.285,12.46,125.526
6.0954,128.187763,37.90892,7268.9505624,-91.33,12.425,125.363
6.1121,128.1878,37.90889,7269.757063200001,-91.376,12.39,125.2
6.1289,128.187836,37.90886,7270.5614304,-91.421,12.355,125.036
6.1456,128.187874,37.90883,7271.3639688,-91.467,12.32,124.872
6.1623,128.187911,37.908801,7272.1643736000005,-91.511,12.285,124.709
6.179,128.187948,37.908771,7272.9626448,-91.556,12.25,124.545
6.1956,128.187985,37.908741,7273.7587824,-91.601,12.215,124.382
6.2124,128.188023,37.908712,7274.5527864000005,-91.645,12.179,124.218
6.2291,128.18806,37.908683,7275.3449616,-91.689,12.144,124.054
6.2458,128.188098,37.908653,7276.1346984,-91.733,12.108,123.89
6.2625,128.188136,37.908624,7276.9223016000005,-91.776,12.072,123.727
6.2791,128.188174,37.908595,7277.708076,-91.82,12.036,123.563
6.2958,128.188212,37.908566,7278.491412,-91.863,12.001,123.399
6.3126,128.18825,37.908537,7279.272614400001,-91.906,11.965,123.235
6.3293,128.188288,37.908508,7280.0516832,-91.949,11.928,123.071
6.346,128.188326,37.908479,7280.8283136,-91.991,11.892,122.907
6.3627,128.188364,37.908451,7281.6031152000005,-92.033,11.856,122.743
6.3793,128.188403,37.908422,7282.3754784,-92.076,11.82,122.579
6.3961,128.188441,37.908394,7283.145708,-92.118,11.783,122.415
6.4128,128.18848,37.908365,7283.913804,-92.159,11.746,122.251
6.4295,128.188519,37.908337,7284.6794616,-92.201,11.71,122.087
6.4462,128.188557,37.908309,7285.442985600001,-92.242,11.673,121.923
6.4628,128.188596,37.90828,7286.2040712,-92.283,11.636,121.758
6.4795,128.188635,37.908252,7286.963023200001,-92.324,11.599,121.594
6.4963,128.188674,37.908224,7287.7198416,-92.365,11.562,121.43
6.513,128.188714,37.908196,7288.4742216,-92.405,11.525,121.266
6.5297,128.188753,37.908168,7289.2261632,-92.446,11.488,121.101
6.5464,128.188792,37.908141,7289.9759712,-92.486,11.45,120.937
6.5631,128.188832,37.908113,7290.7233408,-92.526,11.413,120.772
6.5798,128.188871,37.908085,7291.4685768,-92.565,11.375,120.608
6.5965,128.188911,37.908058,7292.211069600001,-92.605,11.338,120.443
6.6132,128.188951,37.908031,7292.951428800001,-92.644,11.3,120.279
6.6299,128.188991,37.908003,7293.6896544,-92.683,11.262,120.114
6.6466,128.189031,37.907976,7294.4251368000005,-92.722,11.224,119.95
6.6633,128.189071,37.907949,7295.1584856,-92.761,11.186,119.785
6.68,128.189111,37.907922,7295.8893960000005,-92.799,11.148,119.62
6.6967,128.189151,37.907895,7296.6175632,-92.838,11.11,119.456
6.7134,128.189191,37.907868,7297.3435968,-92.876,11.072,119.291
6.7301,128.189232,37.907841,7298.067192,-92.914,11.034,119.126
6.7468,128.189272,37.907815,7298.7883488,-92.951,10.995,118.961
6.7635,128.189313,37.907788,7299.5070672,-92.989,10.957,118.796
6.7802,128.189353,37.907761,7300.223347200001,-93.026,10.918,118.631
6.7969,128.189394,37.907735,7300.9371888,-93.064,10.879,118.466
6.8136,128.189435,37.907709,7301.6485920000005,-93.101,10.84,118.301
6.8303,128.189476,37.907682,7302.357252000001,-93.137,10.801,118.136
6.847,128.189517,37.907656,7303.063778400001,-93.174,10.762,117.971
6.8637,128.189558,37.90763,7303.7675616,-93.21,10.723,117.806
6.8804,128.189599,37.907604,7304.4689064,-93.246,10.684,117.641
6.8971,128.189641,37.907578,7305.167508,-93.282,10.645,117.476
6.9138,128.189682,37.907553,7305.863976,-93.318,10.606,117.311
6.9305,128.189724,37.907527,7306.557700800001,-93.354,10.566,117.146
6.9472,128.189765,37.907501,7307.248682400001,-93.389,10.527,116.98
6.9639,128.189807,37.907476,7307.9372256,-93.425,10.487,116.815
6.9806,128.189848,37.90745,7308.6233304,-93.46,10.447,116.65
6.9973,128.18989,37.907425,7309.306996800001,-93.495,10.407,116.484
7.014,128.189932,37.9074,7309.987615200001,-93.529,10.367,116.319
7.0307,128.189974,37.907375,7310.6661,-93.564,10.327,116.153
7.0474,128.190016,37.90735,7311.3415368000005,-93.598,10.287,115.988
7.0641,128.190058,37.907325,7312.0145352,-93.632,10.247,115.822
7.0808,128.190101,37.9073,7312.6850952,-93.666,10.207,115.657
7.0975,128.190143,37.907275,7313.352912,-93.7,10.167,115.491
7.1142,128.190185,37.90725,7314.0179856,-93.733,10.126,115.325
7.1309,128.190228,37.907226,7314.6806208,-93.767,10.086,115.16
7.1476,128.19027,37.907201,7315.3402080000005,-93.8,10.045,114.994
7.1643,128.190313,37.907177,7315.9973568000005,-93.833,10.004,114.828
7.181,128.190356,37.907153,7316.6520672,-93.866,9.964,114.663
7.1977,128.190399,37.907129,7317.3037296,-93.898,9.923,114.497
7.2144,128.190442,37.907104,7317.9526488,-93.931,9.882,114.331
7.2311,128.190485,37.90708,7318.5991296,-93.963,9.841,114.165
7.2478,128.190528,37.907057,7319.242867200001,-93.995,9.8,113.999
7.2645,128.190571,37.907033,7319.8838616,-94.027,9.759,113.833
7.2812,128.190614,37.907009,7320.5221128,-94.058,9.717,113.667
7.2979,128.190657,37.906985,7321.157316,-94.09,9.676,113.501
7.3146,128.190701,37.906962,7321.7900808,-94.121,9.634,113.335
7.3313,128.190744,37.906938,7322.420102399999,-94.152,9.593,113.169
7.348,128.190788,37.906915,7323.0473808,-94.183,9.551,113.002
7.3647,128.190831,37.906892,7323.671611200001,-94.214,9.51,112.836
7.3814,128.190875,37.906869,7324.2934032,-94.244,9.468,112.67
7.3981,128.190919,37.906846,7324.912147200001,-94.275,9.426,112.504
7.4148,128.190963,37.906823,7325.528148,-94.305,9.384,112.337
7.4315,128.191007,37.9068,7326.1414056,-94.335,9.342,112.171
7.4482,128.191051,37.906777,7326.751920000001,-94.365,9.3,112.005
7.4649,128.191095,37.906755,7327.3593864,-94.394,9.258,111.838
7.4816,128.191139,37.906732,7327.9641096000005,-94.423,9.216,111.672
7.4983,128.191183,37.90671,7328.5660896,-94.453,9.173,111.506
7.515,128.191228,37.906687,7329.1650216,-94.482,9.131,111.339
7.5317,128.191272,37.906665,7329.761210400001,-94.51,9.089,111.173
7.5484,128.191316,37.906643,7330.354656,-94.539,9.046,111.007
7.5651,128.191361,37.906621,7330.9450536,-94.567,9.004,110.841
7.5818,128.191406,37.906599,7331.532708,-94.595,8.961,110.675
7.5985,128.19145,37.906577,7332.1173144,-94.623,8.918,110.509
7.6152,128.191495,37.906555,7332.6991776,-94.651,8.876,110.343
7.6319,128.19154,37.906534,7333.277992800001,-94.678,8.833,110.177
7.6486,128.191585,37.906512,7333.853760000001,-94.705,8.79,110.011
7.6653,128.19163,37.906491,7334.426784000001,-94.732,8.747,109.845
7.682,128.191675,37.906469,7334.997064800001,-94.759,8.704,109.679
7.6987,128.19172,37.906448,7335.564297600001,-94.786,8.661,109.513
7.7154,128.191765,37.906427,7336.1284824,-94.812,8.618,109.347
7.7321,128.191811,37.906406,7336.6896192,-94.838,8.575,109.181
7.7488,128.191856,37.906385,7337.2480128,-94.864,8.532,109.016
7.7655,128.191901,37.906364,7337.8033584,-94.89,8.489,108.85
7.7822,128.191947,37.906343,7338.355656000001,-94.915,8.445,108.684
7.7989,128.191992,37.906323,7338.9049056,-94.94,8.402,108.519
7.8156,128.192038,37.906302,7339.451412,-94.965,8.359,108.353
7.8323,128.192084,37.906282,7339.994870400001,-94.99,8.315,108.187
7.849,128.19213,37.906261,7340.5352808,-95.015,8.272,108.021
7.8657,128.192175,37.906241,7341.0726432,-95.039,8.228,107.856
7.8824,128.192221,37.906221,7341.6069576,-95.063,8.185,107.69
7.8991,128.192267,37.906201,7342.138224,-95.088,8.141,107.525
7.9158,128.192313,37.906181,7342.666442400001,-95.111,8.097,107.359
7.9325,128.19236,37.906161,7343.1916128,-95.135,8.054,107.193
7.9492,128.192406,37.906142,7343.71404,-95.158,8.01,107.028
7.9659,128.192452,37.906122,7344.233114400001,-95.182,7.966,106.862
7.9826,128.192498,37.906102,7344.7491408000005,-95.205,7.922,106.697
7.9993,128.192545,37.906083,7345.262119200001,-95.228,7.878,106.531
8.016,128.192591,37.906064,7345.7720496,-95.25,7.834,106.365
8.0327,128.192638,37.906045,7346.278932,-95.273,7.79,106.2
8.0494,128.192684,37.906026,7346.7827664,-95.295,7.746,106.034
8.0661,128.192731,37.906007,7347.2835528,-95.317,7.702,105.869
8.0828,128.192778,37.905988,7347.7809864,-95.339,7.657,105.703
8.0994,128.192824,37.905969,7348.275372,-95.361,7.613,105.537
8.1161,128.192871,37.90595,7348.7667096000005,-95.382,7.569,105.372
8.1329,128.192918,37.905932,7349.2549992,-95.404,7.524,105.206
8.1496,128.192965,37.905913,7349.740240800001,-95.425,7.48,105.04
8.1663,128.193012,37.905895,7350.2221296,-95.446,7.435,104.875
8.183,128.193059,37.905877,7350.700970400001,-95.467,7.391,104.709
8.1997,128.193106,37.905858,7351.1767632,-95.487,7.346,104.544
8.2164,128.193154,37.90584,7351.6492032,-95.508,7.302,104.378
8.2331,128.193201,37.905822,7352.1185952000005,-95.528,7.257,104.212
8.2498,128.193248,37.905805,7352.5846344,-95.548,7.212,104.047
8.2665,128.193296,37.905787,7353.0479304,-95.568,7.167,103.881
8.2831,128.193343,37.905769,7353.507568800001,-95.588,7.123,103.715
8.2998,128.193391,37.905752,7353.964159200001,-95.607,7.078,103.55
8.3166,128.193438,37.905734,7354.4177016,-95.627,7.033,103.384
8.3333,128.193486,37.905717,7354.868196,-95.646,6.988,103.218
8.35,128.193534,37.9057,7355.315032800001,-95.665,6.943,103.052
8.3667,128.193581,37.905683,7355.7591264,-95.684,6.898,102.887
8.3834,128.193629,37.905666,7356.1995624,-95.703,6.853,102.721
8.4001,128.193677,37.905649,7356.6369504,-95.721,6.808,102.555
8.4168,128.193725,37.905632,7357.0712904,-95.74,6.762,102.389
8.4335,128.193773,37.905616,7357.5022776000005,-95.758,6.717,102.224
8.4502,128.193821,37.905599,7357.929912,-95.776,6.672,102.058
8.4668,128.193869,37.905583,7358.3544984,-95.794,6.626,101.892
8.4835,128.193917,37.905566,7358.775732,-95.811,6.581,101.726
8.5003,128.193965,37.90555,7359.1936128,-95.829,6.536,101.56
8.517,128.194014,37.905534,7359.608445600001,-95.846,6.49,101.395
8.5337,128.194062,37.905518,7360.0196208,-95.863,6.445,101.229
8.5504,128.19411,37.905502,7360.4280528,-95.88,6.399,101.063
8.5671,128.194159,37.905486,7360.832827200001,-95.897,6.354,100.897
8.5838,128.194207,37.905471,7361.2345536,-95.914,6.308,100.731
8.6005,128.194256,37.905455,7361.6326224,-95.93,6.262,100.565
8.6172,128.194304,37.90544,7362.0276432,-95.947,6.217,100.399
8.6339,128.194353,37.905424,7362.419616,-95.963,6.171,100.233
8.6505,128.194402,37.905409,7362.8079312,-95.979,6.125,100.067
8.6672,128.19445,37.905394,7363.1928935999995,-95.995,6.079,99.901
8.684,128.194499,37.905379,7363.574808,-96.01,6.033,99.735
8.7007,128.194548,37.905364,7363.953369600001,-96.026,5.987,99.569
8.7174,128.194597,37.905349,7364.328273600001,-96.041,5.941,99.403
8.7341,128.194646,37.905335,7364.7001296,-96.056,5.895,99.237
8.7508,128.194695,37.90532,7365.0686328,-96.071,5.849,99.071
8.7675,128.194744,37.905305,7365.433783200001,-96.086,5.803,98.905
8.7842,128.194793,37.905291,7365.7955808,-96.1,5.757,98.739
8.8009,128.194842,37.905277,7366.1540256,-96.115,5.711,98.573
8.8176,128.194891,37.905263,7366.5088128,-96.129,5.665,98.407
8.8342,128.19494,37.905249,7366.860552000001,-96.143,5.619,98.241
8.8509,128.19499,37.905235,7367.208938400001,-96.157,5.572,98.074
8.8676,128.195039,37.905221,7367.553972000001,-96.171,5.526,97.908
8.8844,128.195088,37.905207,7367.895348,-96.184,5.48,97.742
8.9011,128.195138,37.905194,7368.233676,-96.198,5.433,97.576
8.9178,128.195187,37.90518,7368.5683464,-96.211,5.387,97.41
8.9345,128.195237,37.905167,7368.8996640000005,-96.224,5.34,97.243
8.9512,128.195286,37.905154,7369.227933600001,-96.237,5.294,97.077
8.9679,128.195336,37.905141,7369.552240800001,-96.25,5.247,96.911
8.9846,128.195385,37.905128,7369.873500000001,-96.262,5.201,96.745
9.0013,128.195435,37.905115,7370.191406400001,-96.275,5.154,96.578
9.0179,128.195485,37.905102,7370.505655200001,-96.287,5.108,96.412
9.0346,128.195534,37.905089,7370.8165512000005,-96.299,5.061,96.246
9.0513,128.195584,37.905077,7371.1240944,-96.311,5.014,96.079
9.0681,128.195634,37.905064,7371.4282848,-96.323,4.968,95.913
9.0848,128.195684,37.905052,7371.7288176,-96.334,4.921,95.746
9.1015,128.195734,37.905039,7372.025997600001,-96.346,4.874,95.58
9.1182,128.195784,37.905027,7372.319824800001,-96.357,4.827,95.413
9.1349,128.195834,37.905015,7372.6099944,-96.368,4.781,95.247
9.1516,128.195884,37.905003,7372.896811200001,-96.379,4.734,95.08
9.1683,128.195934,37.904992,7373.180275199999,-96.389,4.687,94.914
9.185,128.195984,37.90498,7373.4603864,-96.4,4.64,94.747
9.2016,128.196034,37.904968,7373.7368400000005,-96.41,4.593,94.581
9.2183,128.196084,37.904957,7374.009636000001,-96.42,4.546,94.414
9.235,128.196134,37.904946,7374.2790792000005,-96.43,4.499,94.248
9.2518,128.196185,37.904934,7374.545169600001,-96.44,4.452,94.081
9.2685,128.196235,37.904923,7374.8079072,-96.45,4.405,93.914
9.2852,128.196285,37.904912,7375.066987200001,-96.459,4.358,93.748
9.3019,128.196336,37.904901,7375.3224096,-96.468,4.311,93.581
9.3186,128.196386,37.904891,7375.5744792000005,-96.478,4.264,93.414
9.3353,128.196437,37.90488,7375.823196,-96.486,4.216,93.248
9.352,128.196487,37.904869,7376.068255200001,-96.495,4.169,93.081
9.3687,128.196538,37.904859,7376.309656800001,-96.504,4.122,92.914
9.3854,128.196588,37.904849,7376.547705600001,-96.512,4.075,92.747
9.402,128.196639,37.904838,7376.7824016,-96.521,4.027,92.581
9.4187,128.196689,37.904828,7377.01344,-96.529,3.98,92.414
9.4355,128.19674,37.904818,7377.2408208,-96.537,3.933,92.247
9.4522,128.196791,37.904809,7377.4648488,-96.544,3.886,92.08
9.4689,128.196841,37.904799,7377.685219200001,-96.552,3.838,91.913
9.4856,128.196892,37.904789,7377.9022368000005,-96.559,3.791,91.746
9.5023,128.196943,37.90478,7378.1155968,-96.566,3.743,91.579
9.519,128.196994,37.90477,7378.3252992,-96.573,3.696,91.412
9.5357,128.197044,37.904761,7378.5316488,-96.58,3.649,91.245
9.5524,128.197095,37.904752,7378.734340800001,-96.587,3.601,91.078
9.5691,128.197146,37.904743,7378.93368,-96.594,3.554,90.911
9.5857,128.197197,37.904734,7379.1293616,-96.6,3.506,90.744
9.6024,128.197248,37.904725,7379.3213856,-96.606,3.459,90.577
9.6192,128.197299,37.904716,7379.509752000001,-96.612,3.411,90.41
9.6359,128.19735,37.904708,7379.694765600001,-96.618,3.364,90.243
9.6526,128.197401,37.904699,7379.8761216,-96.624,3.316,90.076
9.6693,128.197452,37.904691,7380.053820000001,-96.629,3.269,89.909
9.686,128.197503,37.904683,7380.2281656000005,-96.634,3.221,89.741
9.7027,128.197554,37.904674,7380.3988536,-96.639,3.173,89.574
9.7194,128.197605,37.904666,7380.565884000001,-96.644,3.126,89.407
9.7361,128.197656,37.904659,7380.729256800001,-96.649,3.078,89.24
9.7528,128.197708,37.904651,7380.8892768000005,-96.654,3.03,89.072
9.7694,128.197759,37.904643,7381.0456392,-96.658,2.983,88.905
9.7861,128.19781,37.904636,7381.198344,-96.663,2.935,88.738
9.8029,128.197861,37.904628,7381.347391200001,-96.667,2.887,88.57
9.8196,128.197912,37.904621,7381.4927808,-96.671,2.84,88.403
9.8363,128.197964,37.904614,7381.6348176,-96.674,2.792,88.236
9.853,128.198015,37.904606,7381.773196800001,-96.678,2.744,88.068
9.8697,128.198066,37.9046,7381.9079184,-96.681,2.697,87.901
9.8864,128.198118,37.904593,7382.0389824,-96.685,2.649,87.733
9.9031,128.198169,37.904586,7382.1663888,-96.688,2.601,87.566
9.9198,128.19822,37.904579,7382.290137600001,-96.69,2.553,87.398
9.9365,128.198272,37.904573,7382.410533600001,-96.693,2.506,87.231
9.9531,128.198323,37.904566,7382.527272,-96.696,2.458,87.063
9.9698,128.198375,37.90456,7382.640048,-96.698,2.41,86.896
9.9865,128.198426,37.904554,7382.7494712,-96.7,2.362,86.728
10.0033,128.198478,37.904548,7382.8552368,-96.702,2.315,86.56
10.02,128.198529,37.904542,7382.9573448,-96.704,2.267,86.393
10.0367,128.198581,37.904536,7383.0557952,-96.706,2.219,86.225
10.0534,128.198632,37.90453,7383.150588,-96.707,2.171,86.057
10.0701,128.198684,37.904525,7383.241723200001,-96.709,2.123,85.889
10.0868,128.198735,37.904519,7383.329505600001,-96.71,2.076,85.722
10.1035,128.198787,37.904514,7383.4133256,-96.711,2.028,85.554
10.1202,128.198839,37.904509,7383.493488000001,-96.712,1.98,85.386
10.1368,128.19889,37.904504,7383.570297600001,-96.712,1.932,85.218
10.1535,128.198942,37.904499,7383.6431448,-96.713,1.884,85.05
10.1702,128.198993,37.904494,7383.7126392,-96.713,1.837,84.882
10.187,128.199045,37.904489,7383.7781712,-96.713,1.789,84.714
10.2037,128.199097,37.904484,7383.840045600001,-96.713,1.741,84.546
10.2204,128.199148,37.90448,7383.8985672,-96.713,1.693,84.378
10.2371,128.1992,37.904476,7383.9531264,-96.712,1.645,84.21
10.2538,128.199252,37.904471,7384.004332800001,-96.712,1.598,84.042
10.2705,128.199303,37.904467,7384.0515768000005,-96.711,1.55,83.874
10.2872,128.199355,37.904463,7384.095163200001,-96.71,1.502,83.706
10.3039,128.199407,37.904459,7384.1353968,-96.709,1.454,83.538
10.3205,128.199459,37.904455,7384.171668,-96.708,1.406,83.37
10.3372,128.19951,37.904452,7384.2042816,-96.706,1.358,83.202
10.3539,128.199562,37.904448,7384.2332376,-96.705,1.311,83.033
10.3707,128.199614,37.904445,7384.258536,-96.703,1.263,82.865
10.3874,128.199666,37.904441,7384.2801768,-96.701,1.215,82.697
10.4041,128.199717,37.904438,7384.29816,-96.699,1.167,82.529
10.4208,128.199769,37.904435,7384.3124856,-96.697,1.12,82.36
10.4375,128.199821,37.904432,7384.3231536,-96.694,1.072,82.192
10.4542,128.199873,37.904429,7384.330164000001,-96.691,1.024,82.023
10.4709,128.199925,37.904426,7384.3335168,-96.689,0.976,81.855
10.4876,128.199976,37.904424,7384.3329072,-96.686,0.929,81.687
10.5042,128.200028,37.904421,7384.3289448000005,-96.683,0.881,81.518
10.5209,128.20008,37.904419,7384.321020000001,-96.679,0.833,81.35
10.5376,128.200132,37.904416,7384.309437600001,-96.676,0.785,81.181
10.5544,128.200184,37.904414,7384.294197600001,-96.672,0.738,81.012
10.5711,128.200235,37.904412,7384.2753,-96.668,0.69,80.844
10.5878,128.200287,37.90441,7384.2527448,-96.664,0.642,80.675
10.6045,128.200339,37.904408,7384.226532000001,-96.66,0.595,80.507
10.6212,128.200391,37.904407,7384.1966616,-96.656,0.547,80.338
10.6379,128.200443,37.904405,7384.162828800001,-96.651,0.499,80.169
10.6546,128.200495,37.904404,7384.1256432,-96.646,0.452,80.0
10.6713,128.200546,37.904402,7384.084495200001,-96.642,0.404,79.832
10.6879,128.200598,37.904401,7384.0396896,-96.637,0.357,79.663
10.7046,128.20065,37.9044,7383.9912264,-96.631,0.309,79.494
10.7213,128.200702,37.904399,7383.9391056,-96.626,0.261,79.325
10.7381,128.200754,37.904398,7383.8830224,-96.62,0.214,79.156
10.7548,128.200806,37.904397,7383.823586400001,-96.615,0.166,78.987
10.7715,128.200857,37.904397,7383.760188000001,-96.609,0.119,78.818
10.7882,128.200909,37.904396,7383.6934368,-96.603,0.071,78.649
10.8049,128.200961,37.904396,7383.6227232,-96.597,0.024,78.48
10.8216,128.201013,37.904395,7383.548352000001,-96.59,-0.023,78.311
10.8383,128.201065,37.904395,7383.4700184,-96.584,-0.07,78.142
10.855,128.201116,37.904395,7383.388332,-96.577,-0.117,77.973
10.8717,128.201168,37.904395,7383.3026832000005,-96.57,-0.165,77.804
10.8883,128.20122,37.904395,7383.2133768,-96.563,-0.212,77.635
10.905,128.201272,37.904396,7383.1204128,-96.556,-0.26,77.465
10.9218,128.201324,37.904396,7383.0237912,-96.548,-0.307,77.296
10.9385,128.201375,37.904397,7382.923512,-96.541,-0.354,77.127
10.9552,128.201427,37.904397,7382.8195752,-96.533,-0.402,76.957
10.9719,128.201479,37.904398,7382.711676,-96.525,-0.449,76.788
10.9886,128.201531,37.904399,7382.6001192,-96.517,-0.496,76.619
11.0053,128.201582,37.9044,7382.484904800001,-96.509,-0.543,76.449
11.022,128.201634,37.904401,7382.3660328000005,-96.501,-0.59,76.28
11.0387,128.201686,37.904402,7382.2435032,-96.492,-0.638,76.11
11.0554,128.201738,37.904404,7382.117011200001,-96.483,-0.685,75.941
11.072,128.201789,37.904405,7381.986861599999,-96.474,-0.732,75.771
11.0887,128.201841,37.904407,7381.8530544000005,-96.465,-0.779,75.602
11.1054,128.201893,37.904409,7381.7155896,-96.456,-0.826,75.432
11.1222,128.201944,37.904411,7381.5744672,-96.447,-0.873,75.262
11.1389,128.201996,37.904412,7381.4296872,-96.437,-0.92,75.093
11.1556,128.202048,37.904415,7381.2809448,-96.427,-0.967,74.923
11.1723,128.202099,37.904417,7381.1285448,-96.418,-1.014,74.753
11.189,128.202151,37.904419,7380.972487200001,-96.407,-1.061,74.583
11.2057,128.202202,37.904421,7380.812772,-96.397,-1.108,74.414
11.2224,128.202254,37.904424,7380.6493992000005,-96.387,-1.155,74.244
11.2391,128.202306,37.904427,7380.482064000001,-96.376,-1.201,74.074
11.2557,128.202357,37.904429,7380.311376,-96.366,-1.248,73.904
11.2724,128.202409,37.904432,7380.1367256,-96.355,-1.295,73.734
11.2891,128.20246,37.904435,7379.9584176,-96.344,-1.342,73.564
11.3059,128.202512,37.904439,7379.776452000001,-96.332,-1.388,73.394
11.3226,128.202563,37.904442,7379.590524000001,-96.321,-1.435,73.224
11.3393,128.202615,37.904445,7379.4012432,-96.31,-1.482,73.054
11.356,128.202666,37.904449,7379.2080000000005,-96.298,-1.528,72.884
11.3727,128.202717,37.904452,7379.0110992,-96.286,-1.575,72.714
11.3894,128.202769,37.904456,7378.8105408,-96.274,-1.621,72.543
11.4061,128.20282,37.90446,7378.606324800001,-96.262,-1.668,72.373
11.4228,128.202872,37.904464,7378.398146400001,-96.249,-1.714,72.203
11.4394,128.202923,37.904468,7378.186615200001,-96.237,-1.761,72.033
11.4561,128.202974,37.904472,7377.9711216000005,-96.224,-1.807,71.862
11.4728,128.203026,37.904476,7377.751970400001,-96.211,-1.853,71.692
11.4896,128.203077,37.904481,7377.5294664,-96.198,-1.9,71.521
11.5063,128.203128,37.904485,7377.3026952,-96.185,-1.946,71.351
11.523,128.203179,37.90449,7377.0725712,-96.172,-1.992,71.18
11.5397,128.203231,37.904495,7376.8387896,-96.158,-2.038,71.01
11.5564,128.203282,37.9045,7376.6010456,-96.145,-2.084,70.839
11.5731,128.203333,37.904505,7376.3599488,-96.131,-2.13,70.669
11.5898,128.203384,37.90451,7376.1148896,-96.117,-2.176,70.498
11.6065,128.203435,37.904515,7375.866172800001,-96.103,-2.222,70.328
11.6231,128.203486,37.90452,7375.6137984,-96.088,-2.268,70.157
11.6398,128.203537,37.904526,7375.3577663999995,-96.074,-2.314,69.986
11.6565,128.203589,37.904532,7375.0980768,-96.059,-2.36,69.815
11.6733,128.20364,37.904537,7374.834424800001,-96.044,-2.406,69.644
11.69,128.203691,37.904543,7374.567420000001,-96.029,-2.452,69.474
11.7067,128.203741,37.904549,7374.2964528,-96.014,-2.497,69.303
11.7234,128.203792,37.904555,7374.022132800001,-95.999,-2.543,69.132
11.7401,128.203843,37.904561,7373.7438504,-95.984,-2.589,68.961
11.7568,128.203894,37.904568,7373.4619104,-95.968,-2.634,68.79
11.7735,128.203945,37.904574,7373.1763128,-95.952,-2.68,68.619
11.7902,128.203996,37.904581,7372.8870576,-95.936,-2.725,68.448
11.8068,128.204047,37.904587,7372.5941448,-95.92,-2.771,68.277
11.8235,128.204097,37.904594,7372.2975744000005,-95.904,-2.816,68.106
11.8402,128.204148,37.904601,7371.9973464,-95.888,-2.861,67.934
11.857,128.204199,37.904608,7371.693156,-95.871,-2.907,67.763
11.8737,128.204249,37.904615,7371.3856128,-95.855,-2.952,67.592
11.8904,128.2043,37.904622,7371.074412,-95.838,-2.997,67.421
11.9071,128.204351,37.90463,7370.7592488,-95.821,-3.042,67.249
11.9238,128.204401,37.904637,7370.440732800001,-95.803,-3.087,67.078
11.9405,128.204452,37.904645,7370.1185592,-95.786,-3.132,66.906
11.9572,128.204502,37.904652,7369.7924232000005,-95.769,-3.177,66.735
11.9739,128.204553,37.90466,7369.4629343999995,-95.751,-3.222,66.564
11.9905,128.204603,37.904668,7369.1294832,-95.733,-3.267,66.392
12.0072,128.204653,37.904676,7368.792679200001,-95.715,-3.312,66.22
12.0239,128.204704,37.904684,7368.4519128,-95.697,-3.357,66.049
12.0407,128.204754,37.904693,7368.1077936,-95.679,-3.401,65.877
12.0574,128.204804,37.904701,7367.7600168,-95.66,-3.446,65.706
12.0741,128.204855,37.90471,7367.4082776000005,-95.642,-3.491,65.534
12.0908,128.204905,37.904718,7367.0531856,-95.623,-3.535,65.362
12.1075,128.204955,37.904727,7366.694436000001,-95.604,-3.58,65.19
12.1242,128.205005,37.904736,7366.331724000001,-95.585,-3.624,65.018
12.1409,128.205055,37.904745,7365.9656592,-95.566,-3.668,64.847
12.1576,128.205105,37.904754,7365.5959368,-95.547,-3.713,64.675
12.1743,128.205155,37.904763,7365.222556800001,-95.527,-3.757,64.503
12.1909,128.205205,37.904772,7364.845519200001,-95.507,-3.801,64.331
12.2076,128.205255,37.904782,7364.464824000001,-95.488,-3.845,64.159
12.2243,128.205305,37.904791,7364.0804712,-95.468,-3.889,63.987
12.2411,128.205355,37.904801,7363.692765600001,-95.448,-3.933,63.815
12.2578,128.205405,37.904811,7363.3010976000005,-95.427,-3.977,63.642
12.2745,128.205454,37.904821,7362.9060768,-95.407,-4.021,63.47
12.2912,128.205504,37.904831,7362.5070936,-95.386,-4.065,63.298
12.3079,128.205554,37.904841,7362.1047576,-95.366,-4.109,63.126
12.3246,128.205603,37.904851,7361.698764000001,-95.345,-4.152,62.954
12.3413,128.205653,37.904861,7361.2891128,-95.324,-4.196,62.781
12.358,128.205702,37.904872,7360.8761088,-95.302,-4.239,62.609
12.3746,128.205752,37.904882,7360.459142400001,-95.281,-4.283,62.436
12.3913,128.205801,37.904893,7360.0388232000005,-95.26,-4.326,62.264
12.408,128.205851,37.904904,7359.614846400001,-95.238,-4.37,62.091
12.4248,128.2059,37.904915,7359.187212,-95.216,-4.413,61.919
12.4415,128.205949,37.904926,7358.7559200000005,-95.194,-4.456,61.746
12.4582,128.205999,37.904937,7358.3212752,-95.172,-4.499,61.574
12.4749,128.206048,37.904948,7357.8829728,-95.15,-4.542,61.401
12.4916,128.206097,37.90496,7357.4410128,-95.127,-4.585,61.228
12.5083,128.206146,37.904971,7356.9953952000005,-95.105,-4.628,61.056
12.525,128.206195,37.904983,7356.546424800001,-95.082,-4.671,60.883
12.5417,128.206244,37.904994,7356.093796800001,-95.059,-4.714,60.71
12.5583,128.206293,37.905006,7355.6375112000005,-95.036,-4.757,60.537
12.575,128.206342,37.905018,7355.177568,-95.013,-4.799,60.364
12.5917,128.206391,37.90503,7354.714272,-94.99,-4.842,60.192
12.6085,128.20644,37.905042,7354.2473184,-94.966,-4.884,60.019
12.6252,128.206488,37.905055,7353.7767072,-94.943,-4.927,59.846
12.6419,128.206537,37.905067,7353.3027432,-94.919,-4.969,59.673
12.6586,128.206586,37.90508,7352.8251216,-94.895,-5.011,59.499
12.6753,128.206634,37.905092,7352.3441472,-94.871,-5.054,59.326
12.692,128.206683,37.905105,7351.859515200001,-94.847,-5.096,59.153
12.7087,128.206731,37.905118,7351.3712256,-94.823,-5.138,58.98
12.7254,128.20678,37.905131,7350.8795832000005,-94.798,-5.18,58.807
12.742,128.206828,37.905144,7350.384283200001,-94.774,-5.222,58.633
12.7587,128.206876,37.905157,7349.8853256,-94.749,-5.263,58.46
12.7754,128.206925,37.90517,7349.383015200001,-94.724,-5.305,58.287
12.7922,128.206973,37.905184,7348.877352,-94.699,-5.347,58.113
12.8089,128.207021,37.905197,7348.368031200001,-94.674,-5.388,57.94
12.8256,128.207069,37.905211,7347.8550528,-94.648,-5.43,57.767
12.8423,128.207117,37.905225,7347.3387216,-94.623,-5.471,57.593
12.859,128.207165,37.905238,7346.8187328,-94.597,-5.513,57.419
12.8757,128.207213,37.905252,7346.2953912,-94.571,-5.554,57.246
12.8924,128.207261,37.905266,7345.768392000001,-94.545,-5.595,57.072
12.9091,128.207309,37.905281,7345.23804,-94.519,-5.636,56.899
12.9257,128.207356,37.905295,7344.7043352,-94.493,-5.677,56.725
12.9424,128.207404,37.905309,7344.166972800001,-94.467,-5.718,56.551
12.9591,128.207452,37.905324,7343.6262576,-94.44,-5.759,56.377
12.9759,128.207499,37.905338,7343.0818848,-94.414,-5.8,56.203
12.9926,128.207547,37.905353,7342.5341592,-94.387,-5.841,56.03
13.0093,128.207594,37.905368,7341.982776,-94.36,-5.881,55.856
13.026,128.207641,37.905383,7341.42804,-94.333,-5.922,55.682
13.0427,128.207689,37.905398,7340.8699512,-94.306,-5.962,55.508
13.0594,128.207736,37.905413,7340.3085096,-94.278,-6.003,55.334
13.0761,128.207783,37.905429,7339.7434104,-94.251,-6.043,55.16
13.0928,128.20783,37.905444,7339.1749584,-94.223,-6.083,54.985
13.1095,128.207877,37.905459,7338.6028488,-94.195,-6.123,54.811
13.1262,128.207924,37.905475,7338.027691200001,-94.167,-6.163,54.637
13.1429,128.207971,37.905491,7337.448876,-94.139,-6.203,54.463
13.1596,128.208018,37.905507,7336.8664032,-94.111,-6.243,54.289
13.1763,128.208065,37.905522,7336.2808824,-94.083,-6.283,54.114
13.193,128.208111,37.905539,7335.691704,-94.054,-6.322,53.94
13.2097,128.208158,37.905555,7335.099477600001,-94.026,-6.362,53.766
13.2264,128.208205,37.905571,7334.5035935999995,-93.997,-6.401,53.591
13.2431,128.208251,37.905587,7333.904052000001,-93.968,-6.441,53.417
13.2598,128.208298,37.905604,7333.3014624,-93.939,-6.48,53.242
13.2765,128.208344,37.90562,7332.695520000001,-93.91,-6.519,53.068
13.2932,128.20839,37.905637,7332.08592,-93.881,-6.558,52.893
13.3099,128.208436,37.905654,7331.4729672,-93.851,-6.597,52.718
13.3266,128.208483,37.905671,7330.8569664,-93.822,-6.636,52.544
13.3433,128.208529,37.905688,7330.237308,-93.792,-6.675,52.369
13.36,128.208575,37.905705,7329.6142968,-93.762,-6.714,52.194
13.3767,128.208621,37.905722,7328.987932800001,-93.732,-6.753,52.02
13.3934,128.208666,37.905739,7328.358216,-93.702,-6.791,51.845
13.4101,128.208712,37.905757,7327.725146400001,-93.672,-6.83,51.67
13.4268,128.208758,37.905774,7327.088724000001,-93.642,-6.868,51.495
13.4435,128.208804,37.905792,7326.4489488,-93.611,-6.906,51.32
13.4602,128.208849,37.90581,7325.8058208,-93.58,-6.944,51.145
13.4769,128.208895,37.905828,7325.1596448,-93.55,-6.983,50.97
13.4936,128.20894,37.905846,7324.5098112000005,-93.519,-7.021,50.795
13.5103,128.208985,37.905864,7323.856624800001,-93.488,-7.058,50.62
13.527,128.209031,37.905882,7323.2003904,-93.456,-7.096,50.445
13.5437,128.209076,37.9059,7322.5408032000005,-93.425,-7.134,50.27
13.5604,128.209121,37.905919,7321.8775584,-93.394,-7.171,50.094
13.5771,128.209166,37.905937,7321.211265600001,-93.362,-7.209,49.919
13.5938,128.209211,37.905956,7320.541924800001,-93.33,-7.246,49.744
13.6105,128.209256,37.905974,7319.8689264,-93.298,-7.284,49.569
13.6272,128.209301,37.905993,7319.19288,-93.266,-7.321,49.393
13.6439,128.209346,37.906012,7318.513176,-93.234,-7.358,49.218
13.6606,128.20939,37.906031,7317.8307288000005,-93.202,-7.395,49.042
13.6773,128.209435,37.90605,7317.1446240000005,-93.17,-7.432,48.867
13.694,128.209479,37.906069,7316.4554712,-93.137,-7.469,48.691
13.7107,128.209524,37.906089,7315.762965600001,-93.105,-7.505,48.516
13.7274,128.209568,37.906108,7315.0671072,-93.072,-7.542,48.34
13.7441,128.209612,37.906128,7314.3682008000005,-93.039,-7.578,48.165
13.7608,128.209656,37.906147,7313.6659416,-93.006,-7.615,47.989
13.7775,128.209701,37.906167,7312.960634399999,-92.973,-7.651,47.813
13.7942,128.209745,37.906187,7312.251669600001,-92.94,-7.687,47.637
13.8109,128.209788,37.906207,7311.5399615999995,-92.906,-7.723,47.462
13.8276,128.209832,37.906227,7310.8249008,-92.873,-7.759,47.286
13.8443,128.209876,37.906247,7310.106487200001,-92.839,-7.795,47.11
13.861,128.20992,37.906267,7309.3850256,-92.805,-7.831,46.934
13.8777,128.209963,37.906288,7308.660211200001,-92.771,-7.866,46.758
13.8944,128.210007,37.906308,7307.9323488,-92.737,-7.902,46.582
13.9111,128.21005,37.906329,7307.2011336000005,-92.703,-7.937,46.406
13.9278,128.210094,37.906349,7306.4668704000005,-92.669,-7.973,46.23
13.9445,128.210137,37.90637,7305.7295592,-92.634,-8.008,46.054
13.9612,128.21018,37.906391,7304.9888952,-92.6,-8.043,45.878
13.9779,128.210223,37.906412,7304.245183200001,-92.565,-8.078,45.702
13.9946,128.210266,37.906433,7303.498118400001,-92.53,-8.113,45.526
14.0113,128.210309,37.906454,7302.7483104,-92.495,-8.148,45.349
14.028,128.210352,37.906475,7301.9948448000005,-92.46,-8.182,45.173
14.0447,128.210395,37.906497,7301.238636,-92.425,-8.217,44.997
14.0614,128.210437,37.906518,7300.479074400001,-92.39,-8.251,44.82
14.0781,128.21048,37.90654,7299.716769600001,-92.354,-8.285,44.644
14.0948,128.210522,37.906562,7298.9508072,-92.319,-8.32,44.468
14.1115,128.210565,37.906583,7298.1821016,-92.283,-8.354,44.291
14.1282,128.210607,37.906605,7297.410347999999,-92.248,-8.388,44.115
14.1449,128.210649,37.906627,7296.635241600001,-92.212,-8.422,43.938
14.1616,128.210691,37.906649,7295.857087200001,-92.176,-8.455,43.762
14.1783,128.210733,37.906671,7295.0758848,-92.139,-8.489,43.585
14.195,128.210775,37.906694,7294.2916344,-92.103,-8.522,43.408
14.2117,128.210817,37.906716,7293.504640800001,-92.067,-8.556,43.232
14.2284,128.210859,37.906738,7292.7139896,-92.03,-8.589,43.055
14.2451,128.2109,37.906761,7291.9205952,-91.994,-8.622,42.878
14.2618,128.210942,37.906784,7291.1241528,-91.957,-8.655,42.701
14.2785,128.210983,37.906806,7290.3246624,-91.92,-8.688,42.525
14.2952,128.211025,37.906829,7289.522124000001,-91.883,-8.721,42.348
14.3119,128.211066,37.906852,7288.716842400001,-91.846,-8.754,42.171
14.3286,128.211107,37.906875,7287.908208,-91.809,-8.786,41.994
14.3453,128.211148,37.906898,7287.0965256,-91.772,-8.819,41.817
14.362,128.211189,37.906921,7286.2821,-91.734,-8.851,41.64
14.3787,128.21123,37.906945,7285.4643216,-91.697,-8.884,41.463
14.3954,128.211271,37.906968,7284.643800000001,-91.659,-8.916,41.286
14.4121,128.211311,37.906992,7283.8202304,-91.621,-8.948,41.109
14.4288,128.211352,37.907015,7282.9936128,-91.583,-8.98,40.932
14.4455,128.211393,37.907039,7282.1642520000005,-91.545,-9.011,40.755
14.4622,128.211433,37.907063,7281.3318432,-91.507,-9.043,40.577
14.4789,128.211473,37.907087,7280.4963864,-91.469,-9.074,40.4
14.4956,128.211513,37.907111,7279.6581864,-91.43,-9.106,40.223
14.5123,128.211554,37.907135,7278.8166336,-91.392,-9.137,40.046
14.529,128.211594,37.907159,7277.972642400001,-91.353,-9.168,39.868
14.5457,128.211633,37.907183,7277.1252984,-91.315,-9.199,39.691
14.5624,128.211673,37.907208,7276.275211200001,-91.276,-9.23,39.514
14.5791,128.211713,37.907232,7275.4223808,-91.237,-9.261,39.336
14.5958,128.211753,37.907257,7274.5665024,-91.198,-9.292,39.159
14.6125,128.211792,37.907281,7273.707576,-91.159,-9.322,38.981
14.6292,128.211831,37.907306,7272.845906400001,-91.119,-9.353,38.804
14.6459,128.211871,37.907331,7271.9814936,-91.08,-9.383,38.626
14.6626,128.21191,37.907356,7271.114032800001,-91.04,-9.413,38.449
14.6793,128.211949,37.907381,7270.2438288,-91.001,-9.443,38.271
14.696,128.211988,37.907406,7269.3705768,-90.961,-9.473,38.093
14.7127,128.212027,37.907431,7268.4945816,-90.921,-9.503,37.916
14.7294,128.212066,37.907456,7267.6158432,-90.881,-9.532,37.738
14.7461,128.212104,37.907482,7266.7343616,-90.841,-9.562,37.56
14.7628,128.212143,37.907507,7265.849832000001,-90.801,-9.591,37.382
14.7795,128.212181,37.907533,7264.9625592,-90.761,-9.62,37.205
14.7962,128.21222,37.907558,7264.0725432,-90.72,-9.65,37.027
14.8129,128.212258,37.907584,7263.179479200001,-90.68,-9.679,36.849
14.8296,128.212296,37.90761,7262.2839768,-90.639,-9.708,36.671
14.8463,128.212334,37.907636,7261.3854264,-90.599,-9.736,36.493
14.863,128.212372,37.907662,7260.4841328,-90.558,-9.765,36.315
14.8797,128.21241,37.907688,7259.580096000001,-90.517,-9.793,36.137
14.8964,128.212448,37.907714,7258.673315999999,-90.476,-9.822,35.959
14.9131,128.212485,37.90774,7257.7637928,-90.435,-9.85,35.781
14.9298,128.212523,37.907767,7256.8515264,-90.394,-9.878,35.603
14.9465,128.21256,37.907793,7255.9365168,-90.352,-9.906,35.425
14.9632,128.212597,37.90782,7255.018764,-90.311,-9.934,35.247
14.9799,128.212635,37.907846,7254.098268000001,-90.269,-9.962,35.069
14.9966,128.212672,37.907873,7253.1750288,-90.228,-9.989,34.89
15.0133,128.212709,37.9079,7252.249351200001,-90.186,-10.017,34.712
15.03,128.212746,37.907927,7251.3206256,-90.144,-10.044,34.534
15.0467,128.212782,37.907954,7250.3894616,-90.102,-10.071,34.356
15.0634,128.212819,37.907981,7249.4555544,-90.06,-10.098,34.177
15.0801,128.212855,37.908008,7248.5189040000005,-90.018,-10.125,33.999
15.0968,128.212892,37.908035,7247.579510400001,-89.976,-10.152,33.821
15.1135,128.212928,37.908062,7246.6376784,-89.933,-10.178,33.642
15.1302,128.212964,37.90809,7245.6931032,-89.891,-10.205,33.464
15.1469,128.213,37.908117,7244.7460896,-89.848,-10.231,33.285
15.1636,128.213036,37.908145,7243.796028000001,-89.806,-10.257,33.107
15.1803,128.213072,37.908173,7242.8438328,-89.763,-10.284,32.928
15.197,128.213108,37.9082,7241.8885896,-89.72,-10.31,32.75
15.2137,128.213144,37.908228,7240.930908,-89.677,-10.335,32.571
15.2304,128.213179,37.908256,7239.9707880000005,-89.634,-10.361,32.393
15.2471,128.213214,37.908284,7239.007924800001,-89.591,-10.387,32.214
15.2638,128.21325,37.908312,7238.042623200001,-89.548,-10.412,32.035
15.2805,128.213285,37.90834,7237.074578400001,-89.504,-10.437,31.857
15.2972,128.21332,37.908368,7236.1040952,-89.461,-10.462,31.678
15.3139,128.213355,37.908397,7235.130868800001,-89.417,-10.487,31.499
15.3306,128.21339,37.908425,7234.155204000001,-89.374,-10.512,31.321
15.3473,128.213424,37.908454,7233.1771008000005,-89.33,-10.537,31.142
15.364,128.213459,37.908482,7232.196559200001,-89.286,-10.561,30.963
15.3807,128.213493,37.908511,7231.213274400001,-89.242,-10.586,30.784
