Time,Longitude,Latitude,Altitude,Roll (deg),Pitch (deg),Yaw (deg)
0.0,128.182449,37.914482,3999.992508,0.0,-0.003,179.999
0.0167,128.182449,37.914444,3999.9763536,0.0,-0.013,180.0
0.0334,128.182449,37.914407,3999.9580656000003,0.011,-0.014,180.002
0.0501,128.182449,37.914369,3999.9385584,0.035,0.003,180.007
0.0668,128.182449,37.914332,3999.9184416000003,0.07,0.055,180.014
0.0834,128.182449,37.914294,3999.89802,0.116,0.153,180.022
0.1002,128.182449,37.914256,3999.8775984000004,0.173,0.307,180.03
0.1169,128.182449,37.914219,3999.8577864000004,0.24,0.526,180.039
0.1336,128.182449,37.914181,3999.8394984,0.317,0.818,180.048
0.1503,128.182449,37.914144,3999.8233440000004,0.403,1.187,180.057
0.1669,128.182449,37.914106,3999.8090184000002,0.498,1.623,180.068
0.1837,128.182449,37.914069,3999.7974360000003,0.602,2.115,180.08
0.2004,128.182449,37.914031,3999.7892064000002,0.715,2.654,180.094
0.2171,128.182449,37.913993,3999.7843296,0.839,3.226,180.11
0.2338,128.182449,37.913956,3999.7840248,0.973,3.818,180.127
0.2505,128.182449,37.913918,3999.7879872000003,1.118,4.416,180.147
0.2672,128.182449,37.91388,3999.7971312,1.277,5.009,180.169
0.2839,128.182449,37.913843,3999.8114568,1.449,5.583,180.193
0.3006,128.182449,37.913805,3999.8312688000005,1.636,6.132,180.219
0.3172,128.182449,37.913767,3999.8574816,1.84,6.658,180.246
0.3339,128.182449,37.91373,3999.8897904,2.063,7.164,180.276
0.3507,128.182449,37.913692,3999.9291096,2.306,7.651,180.308
0.3674,128.182449,37.913654,3999.9751344,2.57,8.123,180.343
0.3841,128.182449,37.913616,4000.0281696,2.858,8.58,180.38
0.4008,128.182449,37.913579,4000.0888248,3.171,9.024,180.419
0.4175,128.182449,37.913541,4000.1564904,3.512,9.456,180.462
0.4342,128.182449,37.913503,4000.2320808,3.883,9.876,180.508
0.4509,128.182449,37.913465,4000.3149864,4.286,10.286,180.558
0.4676,128.182449,37.913428,4000.4058168000006,4.725,10.685,180.611
0.4843,128.182449,37.91339,4000.5042672,5.201,11.073,180.669
0.501,128.182448,37.913352,4000.6100328,5.719,11.453,180.732
0.5176,128.182448,37.913314,4000.7234184000004,6.282,11.822,180.799
0.5344,128.182448,37.913276,4000.847472,6.824,12.184,180.863
0.5511,128.182448,37.913239,4000.9812792000002,7.345,12.538,180.923
0.5678,128.182448,37.913201,4001.1266688000005,7.848,12.885,180.983
0.5845,128.182448,37.913163,4001.2839456,8.336,13.225,181.044
0.6012,128.182448,37.913125,4001.4543288,8.812,13.559,181.109
0.6179,128.182447,37.913087,4001.6362943999998,9.28,13.886,181.178
0.6345,128.182447,37.91305,4001.830452,9.746,14.208,181.252
0.6513,128.182447,37.913012,4002.0364968,10.212,14.525,181.331
0.6679,128.182447,37.912974,4002.2544288,10.682,14.836,181.415
0.6847,128.182446,37.912936,4002.484248,11.16,15.142,181.503
0.7014,128.182446,37.912899,4002.7259544000003,11.648,15.445,181.596
0.7181,128.182446,37.912861,4002.9792432000004,12.149,15.742,181.694
0.7348,128.182445,37.912823,4003.2444192000003,12.665,16.036,181.797
0.7514,128.182445,37.912785,4003.5214824000004,13.197,16.326,181.903
0.7682,128.182444,37.912748,4003.8101280000005,13.746,16.611,182.014
0.7848,128.182444,37.91271,4004.110356,14.314,16.893,182.129
0.8016,128.182443,37.912672,4004.4224712000005,14.901,17.17,182.249
0.8183,128.182443,37.912635,4004.7464736000006,15.509,17.443,182.373
0.835,128.182442,37.912597,4005.0817536,16.139,17.713,182.502
0.8517,128.182441,37.912559,4005.428616,16.792,17.978,182.635
0.8684,128.182441,37.912522,4005.7870608000003,17.467,18.239,182.773
0.8851,128.18244,37.912484,4006.1567832,18.167,18.495,182.915
0.9018,128.182439,37.912446,4006.5377832,18.891,18.748,183.063
0.9185,128.182438,37.912409,4006.9303656,19.641,18.996,183.216
0.9352,128.182437,37.912371,4007.3339208,20.417,19.24,183.374
0.9519,128.182437,37.912334,4007.7484488000005,21.22,19.479,183.537
0.9686,128.182436,37.912296,4008.1739496,22.051,19.713,183.706
0.9853,128.182435,37.912258,4008.6101184000004,22.91,19.943,183.88
1.002,128.182433,37.912221,4009.0572600000005,23.8,20.168,184.059
1.0187,128.182432,37.912183,4009.5144600000003,24.72,20.387,184.245
1.0353,128.182431,37.912146,4009.9823280000005,25.671,20.602,184.436
1.0521,128.18243,37.912108,4010.4599496,26.654,20.812,184.634
1.0688,128.182429,37.912071,4010.9479344,27.669,21.016,184.837
1.0855,128.182427,37.912033,4011.445368,28.719,21.214,185.047
1.1022,128.182426,37.911996,4011.9525552000005,29.803,21.406,185.263
1.1189,128.182424,37.911959,4012.4691912000003,30.922,21.592,185.485
1.1356,128.182423,37.911921,4012.9949712000002,32.076,21.772,185.714
1.1522,128.182421,37.911884,4013.5295904,33.266,21.945,185.949
1.169,128.18242,37.911846,4014.0736584,34.489,22.111,186.191
1.1857,128.182418,37.911809,4014.6268704000004,35.743,22.271,186.439
1.2024,128.182416,37.911772,4015.1889216,37.026,22.423,186.693
1.2191,128.182414,37.911734,4015.7595072000004,38.336,22.568,186.953
1.2358,128.182412,37.911697,4016.3392368000004,39.672,22.706,187.218
1.2525,128.18241,37.91166,4016.9271960000005,41.031,22.836,187.49
1.2691,128.182408,37.911622,4017.5239944,42.413,22.957,187.769
1.2859,128.182406,37.911585,4018.1290224,43.816,23.069,188.054
1.3026,128.182404,37.911548,4018.7419752,45.238,23.17,188.348
1.3193,128.182401,37.91151,4019.3634624000006,46.677,23.261,188.649
1.3359,128.182399,37.911473,4019.9925696,48.133,23.339,188.959
1.3527,128.182396,37.911436,4020.6292968,49.603,23.405,189.277
1.3694,128.182393,37.911399,4021.2736440000003,51.088,23.458,189.604
1.386,128.182391,37.911362,4021.9253064,52.586,23.495,189.941
1.4028,128.182388,37.911324,4022.584284,54.095,23.518,190.286
1.4195,128.182385,37.911287,4023.2499672,55.616,23.523,190.639
1.4362,128.182382,37.91125,4023.9226608,57.148,23.512,191.002
1.4528,128.182379,37.911213,4024.6014504000004,58.69,23.483,191.373
1.4696,128.182376,37.911176,4025.2866408,60.241,23.435,191.751
1.4863,128.182372,37.911139,4025.9779272,61.802,23.367,192.137
1.5029,128.182369,37.911102,4026.6750048000004,63.371,23.279,192.529
1.5197,128.182365,37.911065,4027.3775688000005,64.949,23.169,192.928
1.5364,128.182361,37.911028,4028.0853144000002,66.535,23.038,193.331
1.5531,128.182358,37.910991,4028.7982416000004,68.129,22.884,193.739
1.5697,128.182354,37.910954,4029.5157408,69.731,22.708,194.15
1.5865,128.18235,37.910917,4030.2375072000004,71.342,22.508,194.563
1.6032,128.182346,37.91088,4030.9635408000004,72.96,22.285,194.977
1.6198,128.182341,37.910843,4031.6935368000004,74.587,22.038,195.39
1.6366,128.182337,37.910806,4032.4268856,76.221,21.767,195.803
1.6533,128.182333,37.910769,4033.1632824000003,77.864,21.472,196.213
1.67,128.182328,37.910732,4033.9027272000003,79.515,21.153,196.619
1.6867,128.182323,37.910695,4034.6446104,81.175,20.81,197.019
1.7034,128.182318,37.910658,4035.3889320000003,82.843,20.443,197.414
1.7201,128.182313,37.910621,4036.1350824000006,84.52,20.054,197.801
1.7368,128.182308,37.910584,4036.8824520000003,86.207,19.642,198.178
1.7535,128.182303,37.910547,4037.6310408000004,87.903,19.207,198.546
1.7702,128.182298,37.91051,4038.3805440000006,89.609,18.751,198.903
1.7869,128.182292,37.910473,4039.130352,91.324,18.275,199.247
1.8036,128.182287,37.910437,4039.8804648,93.051,17.778,199.577
1.8203,128.182281,37.9104,4040.629968,94.788,17.263,199.893
1.837,128.182275,37.910363,4041.3785568000003,96.536,16.73,200.194
1.8537,128.182269,37.910326,4042.1262312,98.296,16.179,200.479
1.8704,128.182263,37.910289,4042.8723816,100.068,15.613,200.746
1.8871,128.182257,37.910252,4043.6163984000004,101.852,15.033,200.996
1.9038,128.182251,37.910215,4044.3582816000003,103.649,14.439,201.227
1.9205,128.182244,37.910179,4045.0974216,105.46,13.833,201.439
1.9372,128.182238,37.910142,4045.8332088,107.284,13.216,201.632
1.9539,128.182231,37.910105,4046.5653384,109.123,12.59,201.804
1.9706,128.182224,37.910068,4047.2935056000006,110.976,11.955,201.957
1.9873,128.182217,37.910031,4048.0174056000005,112.844,11.314,202.089
2.004,128.18221,37.909995,4048.7364288,114.727,10.668,202.201
2.0207,128.182203,37.909958,4049.4499656000003,116.627,10.017,202.291
2.0374,128.182195,37.909921,4050.1580160000003,118.542,9.364,202.361
2.0541,128.182188,37.909884,4050.8596656,120.473,8.71,202.41
2.0707,128.18218,37.909848,4051.5552192000005,122.422,8.055,202.439
2.0875,128.182173,37.909811,4052.2431528,124.385,7.402,202.447
2.1042,128.182165,37.909774,4052.9228568000003,126.352,6.752,202.436
2.1208,128.182157,37.909737,4053.5937215999998,128.313,6.108,202.407
2.1376,128.182149,37.9097,4054.2545280000004,130.259,5.473,202.362
2.1543,128.182141,37.909664,4054.9046664,132.18,4.848,202.302
2.171,128.182132,37.909627,4055.5429176000002,134.07,4.234,202.228
2.1877,128.182124,37.90959,4056.1686720000002,135.921,3.634,202.143
2.2044,128.182115,37.909553,4056.7810152,137.728,3.047,202.047
2.2211,128.182106,37.909517,4057.3790328000005,139.487,2.475,201.943
2.2378,128.182097,37.90948,4057.9618104,141.192,1.919,201.833
2.2544,128.182088,37.909443,4058.5287384000003,142.84,1.378,201.718
2.2712,128.182079,37.909406,4059.0785976,144.43,0.853,201.6
2.2879,128.18207,37.90937,4059.6113880000003,145.958,0.344,201.48
2.3045,128.18206,37.909333,4060.1265000000003,147.425,-0.15,201.361
2.3213,128.182051,37.909296,4060.6236288,148.829,-0.629,201.243
2.338,128.182041,37.90926,4061.1024696,150.17,-1.095,201.128
2.3546,128.182031,37.909223,4061.562108,151.449,-1.547,201.017
2.3714,128.182021,37.909186,4062.0031536,152.666,-1.986,200.911
2.3881,128.182011,37.90915,4062.4246920000005,153.823,-2.412,200.811
2.4048,128.182001,37.909113,4062.827028,154.92,-2.828,200.719
2.4215,128.181991,37.909077,4063.2095520000003,155.961,-3.233,200.633
2.4382,128.18198,37.90904,4063.5725688,156.946,-3.627,200.556
2.4549,128.18197,37.909003,4063.9160784000005,157.878,-4.013,200.488
2.4716,128.181959,37.908967,4064.2394712000005,158.759,-4.39,200.428
2.4882,128.181949,37.90893,4064.5433568000003,159.59,-4.759,200.378
2.505,128.181938,37.908894,4064.8274304000006,160.375,-5.121,200.338
2.5217,128.181927,37.908857,4065.093216,161.174,-5.478,200.299
2.5383,128.181916,37.908821,4065.3407136,161.984,-5.832,200.264
2.5551,128.181906,37.908784,4065.5708376,162.796,-6.181,200.232
2.5718,128.181895,37.908747,4065.7838928,163.602,-6.527,200.206
2.5884,128.181884,37.908711,4065.9783552000004,164.395,-6.869,200.185
2.6052,128.181872,37.908674,4066.1542248,165.169,-7.207,200.171
2.6219,128.181861,37.908638,4066.3105872000006,165.918,-7.542,200.163
2.6386,128.18185,37.908601,4066.4477472,166.639,-7.873,200.164
2.6553,128.181839,37.908565,4066.5654000000004,167.326,-8.202,200.169
2.6719,128.181828,37.908528,4066.6632408,167.971,-8.528,200.176
2.6887,128.181816,37.908492,4066.7409648,168.572,-8.853,200.184
2.7054,128.181805,37.908455,4066.7991816000003,169.126,-9.177,200.19
2.722,128.181793,37.908419,4066.8372816,169.635,-9.5,200.194
2.7388,128.181782,37.908382,4066.8555696,170.1,-9.822,200.196
2.7555,128.18177,37.908346,4066.8543504000004,170.522,-10.145,200.194
2.7721,128.181759,37.908309,4066.8333192000005,170.907,-10.467,200.19
2.7889,128.181747,37.908273,4066.7927808,171.257,-10.789,200.184
2.8056,128.181735,37.908237,4066.7327352000007,171.574,-11.111,200.176
2.8222,128.181724,37.9082,4066.6531824000003,171.862,-11.433,200.166
2.839,128.181712,37.908164,4066.5544272,172.123,-11.755,200.154
2.8557,128.1817,37.908127,4066.4361648,172.358,-12.076,200.139
2.8724,128.181688,37.908091,4066.2987000000003,172.571,-12.397,200.122
2.8891,128.181676,37.908055,4066.1420328000004,172.764,-12.717,200.104
2.9057,128.181665,37.908018,4065.9658584,172.939,-13.037,200.083
2.9225,128.181653,37.907982,4065.7710912000002,173.098,-13.357,200.062
2.9392,128.181641,37.907946,4065.5568168000004,173.242,-13.676,200.039
2.9558,128.181629,37.907909,4065.3236448000002,173.374,-13.994,200.014
2.9726,128.181617,37.907873,4065.0709656,173.494,-14.312,199.989
2.9893,128.181605,37.907837,4064.7996936000004,173.605,-14.629,199.964
3.0059,128.181593,37.907801,4064.5092192000006,173.706,-14.945,199.937
3.0227,128.18158,37.907764,4064.1995424,173.798,-15.26,199.91
3.0394,128.181568,37.907728,4063.8706632000003,173.884,-15.575,199.883
3.056,128.181556,37.907692,4063.5228864,173.963,-15.889,199.856
3.0728,128.181544,37.907656,4063.1559072000005,174.036,-16.202,199.828
3.0895,128.181532,37.90762,4062.7697256,174.104,-16.514,199.801
3.1062,128.18152,37.907584,4062.3646464000003,174.167,-16.825,199.773
3.1229,128.181507,37.907547,4061.9400600000004,174.225,-17.135,199.745
3.1395,128.181495,37.907511,4061.4965760000005,174.28,-17.445,199.718
3.1563,128.181483,37.907475,4061.0338896000003,174.33,-17.753,199.691
3.173,128.181471,37.907439,4060.5520008000003,174.378,-18.061,199.664
3.1896,128.181458,37.907403,4060.0509096000005,174.422,-18.368,199.637
3.2064,128.181446,37.907367,4059.530616,174.463,-18.674,199.611
3.2231,128.181433,37.907331,4058.9908152,174.502,-18.98,199.585
3.2397,128.181421,37.907295,4058.4321168000006,174.538,-19.284,199.56
3.2565,128.181409,37.907259,4057.8539112000003,174.571,-19.588,199.535
3.2732,128.181396,37.907224,4057.256808,174.603,-19.891,199.51
3.2899,128.181384,37.907188,4056.6398928000003,174.632,-20.194,199.486
3.3066,128.181371,37.907152,4056.00408,174.66,-20.495,199.462
3.3233,128.181359,37.907116,4055.3487600000003,174.686,-20.796,199.439
3.34,128.181346,37.90708,4054.6742375999997,174.71,-21.096,199.416
3.3567,128.181334,37.907045,4053.9805128,174.733,-21.396,199.394
3.3734,128.181322,37.907009,4053.2672807999998,174.754,-21.695,199.372
3.3901,128.181309,37.906973,4052.5345416000005,174.774,-21.993,199.351
3.4068,128.181296,37.906938,4051.7826,174.792,-22.291,199.33
3.4235,128.181284,37.906902,4051.011456,174.81,-22.588,199.31
3.4402,128.181271,37.906866,4050.2208048,174.826,-22.885,199.29
3.4569,128.181259,37.906831,4049.4106464000006,174.841,-23.181,199.271
3.4736,128.181246,37.906795,4048.5812856000002,174.855,-23.476,199.252
3.4903,128.181234,37.90676,4047.7327224,174.868,-23.771,199.234
3.507,128.181221,37.906725,4046.8643472,174.881,-24.065,199.217
3.5237,128.181208,37.906689,4045.9770744,174.892,-24.359,199.2
3.5404,128.181196,37.906654,4045.0699896000006,174.903,-24.653,199.183
3.5571,128.181183,37.906618,4044.1437024,174.913,-24.946,199.167
3.5738,128.181171,37.906583,4043.1982128,174.922,-25.238,199.152
3.5905,128.181158,37.906548,4042.233216,174.931,-25.53,199.137
3.6072,128.181145,37.906513,4041.2487120000005,174.939,-25.822,199.123
3.6239,128.181133,37.906478,4040.2450056000002,174.947,-26.113,199.109
3.6406,128.18112,37.906443,4039.2217920000003,174.954,-26.403,199.096
3.6573,128.181107,37.906408,4038.1793760000005,174.96,-26.694,199.083
3.674,128.181095,37.906372,4037.1174528,174.966,-26.984,199.071
3.6907,128.181082,37.906338,4036.0360224,174.972,-27.273,199.059
3.7074,128.181069,37.906303,4034.9353896000002,174.977,-27.563,199.048
3.7241,128.181057,37.906268,4033.8155544,174.982,-27.852,199.038
3.7408,128.181044,37.906233,4032.6762120000003,174.986,-28.14,199.028
3.7575,128.181031,37.906198,4031.5176672,174.99,-28.428,199.018
3.7742,128.181019,37.906163,4030.33992,174.994,-28.716,199.009
3.7909,128.181006,37.906129,4029.1426656000003,174.998,-29.004,199.001
3.8076,128.180993,37.906094,4027.925904,175.001,-29.291,198.993
3.8243,128.180981,37.90606,4026.6902448,175.004,-29.578,198.985
3.841,128.180968,37.906025,4025.4350784000003,175.006,-29.865,198.978
3.8577,128.180955,37.905991,4024.1607096000002,175.009,-30.152,198.972
3.8744,128.180943,37.905956,4022.8671384,175.011,-30.438,198.965
3.8911,128.18093,37.905922,4021.5543648,175.013,-30.724,198.96
3.9078,128.180917,37.905887,4020.222084,175.014,-31.01,198.955
3.9245,128.180905,37.905853,4018.8709056000002,175.016,-31.295,198.95
3.9412,128.180892,37.905819,4017.5005248,175.017,-31.581,198.946
3.9579,128.180879,37.905785,4016.1106368000005,175.018,-31.866,198.942
3.9746,128.180867,37.905751,4014.7018512,175.019,-32.151,198.939
3.9913,128.180854,37.905717,4013.2738632,175.02,-32.436,198.936
4.008,128.180841,37.905683,4011.8266728000003,175.021,-32.72,198.934
4.0247,128.180829,37.905649,4010.3605848,175.021,-33.004,198.932
4.0414,128.180816,37.905615,4008.8749896000004,175.021,-33.289,198.931
4.058,128.180803,37.905581,4007.3708016,175.021,-33.572,198.93
4.0748,128.180791,37.905547,4005.8471064,175.021,-33.856,198.93
4.0915,128.180778,37.905514,4004.3045136,175.021,-34.14,198.93
4.1082,128.180765,37.90548,4002.7430232,175.021,-34.423,198.93
4.1249,128.180753,37.905447,4001.1626352000003,175.021,-34.707,198.932
4.1415,128.18074,37.905413,3999.5630448,175.02,-34.99,198.933
4.1583,128.180727,37.90538,3997.9445568,175.019,-35.273,198.935
4.175,128.180715,37.905346,3996.3071712000005,175.018,-35.556,198.937
4.1917,128.180702,37.905313,3994.650888,175.017,-35.839,198.94
4.2084,128.18069,37.90528,3992.9757072,175.016,-36.121,198.944
4.2251,128.180677,37.905247,3991.2816288,175.015,-36.404,198.947
4.2417,128.180664,37.905214,3989.5686528,175.013,-36.686,198.952
4.2585,128.180652,37.905181,3987.8367792,175.012,-36.968,198.956
4.2752,128.180639,37.905148,3986.0863128,175.01,-37.251,198.962
4.2919,128.180627,37.905115,3984.3169488000003,175.008,-37.533,198.967
4.3086,128.180614,37.905082,3982.5289920000005,175.005,-37.815,198.973
4.3252,128.180602,37.90505,3980.7224424,175.003,-38.097,198.98
4.342,128.180589,37.905017,3978.8969952,175.0,-38.378,198.987
4.3587,128.180577,37.904984,3977.0529552000003,174.997,-38.66,198.994
4.3754,128.180564,37.904952,3975.1900176,174.994,-38.942,199.002
4.3921,128.180552,37.904919,3973.3087920000003,174.991,-39.223,199.01
4.4088,128.180539,37.904887,3971.4089736000005,174.987,-39.505,199.018
4.4254,128.180527,37.904855,3969.4905624000003,174.984,-39.786,199.027
4.4422,128.180514,37.904823,3967.5535584,174.98,-40.067,199.037
4.4589,128.180502,37.904791,3965.5982664000003,174.975,-40.349,199.047
4.4756,128.180489,37.904759,3963.6243816,174.971,-40.63,199.057
4.4923,128.180477,37.904727,3961.631904,174.966,-40.911,199.068
4.5089,128.180465,37.904695,3959.6214432,174.962,-41.192,199.079
4.5256,128.180452,37.904663,3957.5923896000004,174.956,-41.473,199.091
4.5424,128.18044,37.904631,3955.5450480000004,174.951,-41.754,199.103
4.5591,128.180427,37.9046,3953.4794184,174.945,-42.035,199.115
4.5758,128.180415,37.904568,3951.3955008000003,174.94,-42.315,199.128
4.5925,128.180403,37.904537,3949.2932952,174.933,-42.596,199.141
4.6091,128.180391,37.904505,3947.1731064,174.927,-42.877,199.155
4.6259,128.180378,37.904474,3945.0346296000002,174.92,-43.158,199.169
4.6426,128.180366,37.904443,3942.8778647999998,174.913,-43.438,199.183
4.6593,128.180354,37.904412,3940.7031168000003,174.906,-43.719,199.198
4.676,128.180342,37.904381,3938.5103856,174.898,-43.999,199.214
4.6927,128.180329,37.90435,3936.2996712000004,174.891,-44.28,199.23
4.7093,128.180317,37.904319,3934.0709736000003,174.882,-44.56,199.246
4.7261,128.180305,37.904288,3931.8242928,174.874,-44.841,199.262
4.7428,128.180293,37.904257,3929.5599336,174.865,-45.121,199.279
4.7595,128.180281,37.904227,3927.2772864000003,174.856,-45.401,199.297
4.7762,128.180268,37.904196,3924.9772656,174.846,-45.682,199.315
4.7928,128.180256,37.904166,3922.6592616000003,174.837,-45.962,199.333
4.8096,128.180244,37.904136,3920.3232744,174.827,-46.242,199.352
4.8263,128.180232,37.904106,3917.9699136000004,174.816,-46.523,199.371
4.843,128.18022,37.904075,3915.5985696,174.805,-46.803,199.391
4.8597,128.180208,37.904045,3913.209852,174.794,-47.083,199.411
4.8764,128.180196,37.904016,3910.803456,174.782,-47.363,199.432
4.893,128.180184,37.903986,3908.3793816,174.771,-47.643,199.453
4.9098,128.180172,37.903956,3905.9379336,174.758,-47.924,199.474
4.9265,128.18016,37.903926,3903.4791120000004,174.745,-48.204,199.496
4.9432,128.180148,37.903897,3901.002612,174.732,-48.484,199.519
4.9599,128.180137,37.903867,3898.5090432,174.719,-48.764,199.542
4.9765,128.180125,37.903838,3895.997796,174.705,-49.044,199.565
4.9932,128.180113,37.903809,3893.46948,174.69,-49.324,199.589
5.01,128.180101,37.90378,3890.9237904,174.676,-49.604,199.614
5.0267,128.180089,37.903751,3888.3610320000003,174.66,-49.884,199.638
5.0434,128.180078,37.903722,3885.7812048,174.645,-50.164,199.664
5.0601,128.180066,37.903693,3883.184004,174.629,-50.444,199.69
5.0767,128.180054,37.903664,3880.5697344000005,174.612,-50.724,199.716
5.0935,128.180042,37.903636,3877.9387008000003,174.595,-51.004,199.743
5.1102,128.180031,37.903607,3875.2902936000005,174.577,-51.284,199.77
5.1269,128.180019,37.903579,3872.6254272,174.559,-51.564,199.798
5.1436,128.180008,37.90355,3869.9431872000005,174.54,-51.844,199.827
5.1602,128.179996,37.903522,3867.244488,174.521,-52.124,199.856
5.1769,128.179984,37.903494,3864.5287200000002,174.502,-52.404,199.885
5.1937,128.179973,37.903466,3861.7964928,174.481,-52.684,199.916
5.2104,128.179961,37.903438,3859.0475016,174.461,-52.964,199.946
5.2271,128.17995,37.903411,3856.2817464000004,174.439,-53.244,199.978
5.2438,128.179938,37.903383,3853.4995320000003,174.417,-53.524,200.009
5.2604,128.179927,37.903355,3850.7008584,174.395,-53.804,200.042
5.2772,128.179916,37.903328,3847.8854208000002,174.372,-54.084,200.075
5.2939,128.179904,37.903301,3845.0538288,174.348,-54.364,200.109
5.3106,128.179893,37.903274,3842.2057776,174.324,-54.644,200.143
5.3273,128.179882,37.903246,3839.3412672,174.299,-54.924,200.178
5.3439,128.17987,37.903219,3836.4606024000004,174.274,-55.204,200.213
5.3606,128.179859,37.903193,3833.5634784000003,174.247,-55.484,200.25
5.3774,128.179848,37.903166,3830.6505048000004,174.22,-55.764,200.287
5.3941,128.179837,37.903139,3827.7213768,174.193,-56.044,200.324
5.4108,128.179826,37.903113,3824.7760944,174.165,-56.324,200.363
5.4275,128.179815,37.903086,3821.8146576000004,174.136,-56.604,200.402
5.4441,128.179804,37.90306,3818.8373712000002,174.106,-56.884,200.441
5.4609,128.179793,37.903034,3815.8442352000006,174.075,-57.164,200.482
5.4776,128.179782,37.903008,3812.8352496,174.044,-57.444,200.523
5.4943,128.179771,37.902982,3809.8107192,174.012,-57.724,200.565
5.511,128.17976,37.902956,3806.7700344000004,173.979,-58.004,200.608
5.5277,128.179749,37.902931,3803.7138048,173.945,-58.284,200.652
5.5443,128.179738,37.902905,3800.6420304000003,173.911,-58.564,200.696
5.5611,128.179727,37.90288,3797.5547112,173.875,-58.844,200.742
5.5778,128.179716,37.902855,3794.4518472,173.839,-59.124,200.788
5.5945,128.179706,37.902829,3791.3337432000003,173.802,-59.404,200.835
5.6112,128.179695,37.902804,3788.2000944,173.764,-59.684,200.883
5.6278,128.179684,37.902779,3785.0509008000004,173.725,-59.964,200.932
5.6445,128.179673,37.902755,3781.886772,173.685,-60.244,200.982
5.6613,128.179663,37.90273,3778.7074032000005,173.644,-60.524,201.033
5.678,128.179652,37.902706,3775.5127944,173.601,-60.805,201.085
5.6947,128.179642,37.902681,3772.3029456000004,173.558,-61.085,201.138
5.7114,128.179631,37.902657,3769.0784664000003,173.514,-61.365,201.192
5.728,128.179621,37.902633,3765.8387472,173.469,-61.645,201.247
5.7448,128.17961,37.902609,3762.5840928000002,173.422,-61.925,201.304
5.7615,128.1796,37.902585,3759.314808,173.374,-62.204,201.361
5.7782,128.17959,37.902561,3756.030588,173.325,-62.484,201.42
5.7949,128.179579,37.902538,3752.7317376,173.275,-62.764,201.48
5.8115,128.179569,37.902514,3749.4182568,173.224,-63.044,201.541
5.8282,128.179559,37.902491,3746.0901456,173.171,-63.324,201.604
5.845,128.179549,37.902468,3742.7477088,173.117,-63.604,201.667
5.8617,128.179538,37.902445,3739.3906416000004,173.061,-63.884,201.733
5.8784,128.179528,37.902422,3736.0192488000002,173.004,-64.164,201.799
5.8951,128.179518,37.902399,3732.6335304000004,172.946,-64.444,201.867
5.9117,128.179508,37.902376,3729.2334864000004,172.885,-64.724,201.937
5.9285,128.179498,37.902354,3725.8194215999997,172.824,-65.004,202.008
5.9452,128.179488,37.902331,3722.3910312,172.76,-65.284,202.081
5.9619,128.179478,37.902309,3718.94862,172.695,-65.564,202.155
5.9786,128.179469,37.902287,3715.4924928,172.629,-65.844,202.232
5.9952,128.179459,37.902265,3712.0223448,172.56,-66.124,202.309
6.0119,128.179449,37.902243,3708.5381760000005,172.49,-66.403,202.389
6.0287,128.179439,37.902222,3705.0402912000004,172.417,-66.683,202.471
6.0454,128.17943,37.9022,3701.5286904,172.343,-66.963,202.555
6.0621,128.17942,37.902179,3698.0036784000004,172.266,-67.243,202.64
6.0788,128.17941,37.902157,3694.4649504000004,172.188,-67.522,202.728
6.0954,128.179401,37.902136,3690.9128112000003,172.107,-67.802,202.818
6.1121,128.179391,37.902115,3687.3472608,172.024,-68.082,202.91
6.1289,128.179382,37.902094,3683.7682992,171.938,-68.362,203.005
6.1456,128.179372,37.902074,3680.1759263999998,171.85,-68.641,203.102
6.1623,128.179363,37.902053,3676.5704472,171.76,-68.921,203.202
6.179,128.179354,37.902033,3672.9518616,171.667,-69.2,203.304
6.1956,128.179344,37.902013,3669.3204744,171.571,-69.48,203.409
6.2124,128.179335,37.901993,3665.6756760000003,171.472,-69.759,203.517
6.2291,128.179326,37.901973,3662.0180760000003,171.37,-70.039,203.628
6.2458,128.179317,37.901953,3658.3479792000003,171.265,-70.318,203.742
6.2625,128.179308,37.901933,3654.6647760000005,171.156,-70.598,203.859
6.2791,128.179298,37.901914,3650.9690760000003,171.045,-70.876,203.98
6.2958,128.179289,37.901895,3647.2605744,170.93,-71.155,204.104
6.3126,128.17928,37.901875,3643.5398808,170.811,-71.433,204.231
6.3293,128.179272,37.901856,3639.8063856,170.689,-71.71,204.362
6.346,128.179263,37.901837,3636.0606984000005,170.563,-71.987,204.496
6.3627,128.179254,37.901819,3632.3025144000003,170.434,-72.263,204.634
6.3793,128.179245,37.9018,3628.5324432,170.3,-72.539,204.777
6.3961,128.179236,37.901782,3624.7501800000005,170.162,-72.814,204.923
6.4128,128.179228,37.901764,3620.9557248,170.02,-73.088,205.074
6.4295,128.179219,37.901745,3617.1490776,169.873,-73.361,205.23
6.4462,128.179211,37.901728,3613.330848,169.721,-73.634,205.39
6.4628,128.179202,37.90171,3609.5007312000002,169.564,-73.907,205.556
6.4795,128.179194,37.901692,3605.6587272,169.401,-74.179,205.726
6.4963,128.179185,37.901675,3601.8051408,169.234,-74.45,205.902
6.513,128.179177,37.901657,3597.939972,169.06,-74.72,206.084
6.5297,128.179168,37.90164,3594.0635256000005,168.88,-74.99,206.273
6.5464,128.17916,37.901623,3590.1754968,168.693,-75.26,206.467
6.5631,128.179152,37.901606,3586.2761904,168.5,-75.528,206.669
6.5798,128.179144,37.90159,3582.3653016,168.299,-75.797,206.877
6.5965,128.179136,37.901573,3578.4437448,168.091,-76.064,207.094
6.6132,128.179128,37.901557,3574.5106056000004,167.875,-76.331,207.318
6.6299,128.17912,37.901541,3570.5667984,167.651,-76.597,207.55
6.6466,128.179112,37.901525,3566.6120184,167.417,-76.863,207.791
6.6633,128.179104,37.901509,3562.6462656,167.174,-77.128,208.042
6.68,128.179096,37.901493,3558.6701496,166.921,-77.392,208.303
6.6967,128.179088,37.901478,3554.6830608,166.658,-77.656,208.575
6.7134,128.17908,37.901462,3550.685304,166.383,-77.919,208.857
6.7301,128.179073,37.901447,3546.677184,166.096,-78.181,209.152
6.7468,128.179065,37.901432,3542.6587008000006,165.796,-78.443,209.46
6.7635,128.179057,37.901417,3538.6298544,165.483,-78.704,209.781
6.7802,128.17905,37.901402,3534.5909496,165.154,-78.964,210.117
6.7969,128.179042,37.901388,3530.5416816,164.811,-79.223,210.468
6.8136,128.179035,37.901373,3526.4823552000003,164.45,-79.482,210.836
6.8303,128.179027,37.901359,3522.4129704,164.072,-79.74,211.222
6.847,128.17902,37.901345,3518.3338320000003,163.675,-79.997,211.627
6.8637,128.179013,37.901331,3514.24494,163.257,-80.253,212.053
6.8804,128.179006,37.901318,3510.1462944,162.817,-80.508,212.5
6.8971,128.178998,37.901304,3506.0378952,162.352,-80.762,212.972
6.9138,128.178991,37.901291,3501.9200472,161.862,-81.016,213.469
6.9305,128.178984,37.901277,3497.7927504000004,161.345,-81.268,213.994
6.9472,128.178977,37.901264,3493.6560048,160.796,-81.519,214.55
6.9639,128.17897,37.901252,3489.5101152,160.215,-81.769,215.139
6.9806,128.178964,37.901239,3485.3550816,159.598,-82.018,215.763
6.9973,128.178957,37.901226,3481.190904,158.942,-82.266,216.427
7.014,128.17895,37.901214,3477.0178872000006,158.243,-82.512,217.133
7.0307,128.178943,37.901202,3472.8357264,157.497,-82.757,217.886
7.0474,128.178937,37.90119,3468.6450312,156.699,-83.001,218.691
7.0641,128.17893,37.901178,3464.4451920000006,155.844,-83.242,219.553
7.0808,128.178923,37.901166,3460.2371232000005,154.928,-83.482,220.477
7.0975,128.178917,37.901155,3456.0202152,153.942,-83.719,221.47
7.1142,128.178911,37.901143,3451.7950776000002,152.88,-83.955,222.539
7.1309,128.178904,37.901132,3447.5617104,151.733,-84.188,223.692
7.1476,128.178898,37.901121,3443.3198088,150.492,-84.418,224.941
7.1643,128.178892,37.90111,3439.0699824000003,149.146,-84.645,226.294
7.181,128.178885,37.9011,3434.8119264,147.683,-84.868,227.764
7.1977,128.178879,37.901089,3430.5459456000003,146.09,-85.088,229.364
7.2144,128.178873,37.901079,3426.27204,144.35,-85.303,231.111
7.2311,128.178867,37.901069,3421.9902096,142.447,-85.513,233.021
7.2478,128.178861,37.901059,3417.7010640000003,140.361,-85.718,235.113
7.2645,128.178855,37.901049,3413.4039936000004,138.071,-85.916,237.41
7.2812,128.17885,37.901039,3409.099608,135.555,-86.107,239.933
7.2979,128.178844,37.90103,3404.7876024,132.788,-86.289,242.707
7.3146,128.178838,37.901021,3400.4682816,129.746,-86.462,245.756
7.3313,128.178832,37.901012,3396.1419504,126.405,-86.623,249.104
7.348,128.178827,37.901003,3391.808304,122.746,-86.772,252.769
7.3647,128.178821,37.900994,3387.4676472,118.756,-86.906,256.766
7.3814,128.178816,37.900986,3383.1199800000004,114.432,-87.024,261.097
7.3981,128.17881,37.900977,3378.7656072000004,109.785,-87.123,265.75
7.4148,128.178805,37.900969,3374.404224,104.846,-87.202,270.696
7.4315,128.1788,37.900961,3370.03644,99.666,-87.259,275.883
7.4482,128.178794,37.900953,3365.6619504000005,94.317,-87.293,281.238
7.4649,128.178789,37.900945,3361.2810600000003,88.887,-87.302,286.675
7.4816,128.178784,37.900938,3356.8937688000005,83.472,-87.288,292.097
7.4983,128.178779,37.900931,3352.5000768,78.166,-87.249,297.409
7.515,128.178774,37.900923,3348.1002888000003,73.054,-87.188,302.527
7.5317,128.178769,37.900916,3343.6941,68.202,-87.106,307.386
7.5484,128.178764,37.90091,3339.2824248,63.653,-87.004,311.942
7.5651,128.178759,37.900903,3334.8643488000002,59.432,-86.884,316.169
7.5818,128.178755,37.900897,3330.4407864,55.546,-86.75,320.062
7.5985,128.17875,37.90089,3326.0114328000004,51.988,-86.601,323.626
7.6152,128.178745,37.900884,3321.576288,48.742,-86.441,326.879
7.6319,128.178741,37.900878,3317.1356568,45.787,-86.27,329.839
7.6486,128.178736,37.900873,3312.6895392,43.101,-86.091,332.532
7.6653,128.178732,37.900867,3308.23824,40.658,-85.904,334.981
7.682,128.178727,37.900862,3303.7817592,38.435,-85.71,337.211
7.6987,128.178723,37.900857,3299.3197920000002,36.407,-85.51,339.245
7.7154,128.178719,37.900852,3294.852948,34.555,-85.306,341.103
7.7321,128.178715,37.900847,3290.3812272,32.859,-85.097,342.805
7.7488,128.178711,37.900842,3285.9046296,31.302,-84.885,344.367
7.7655,128.178706,37.900838,3281.4231552,29.871,-84.67,345.804
7.7822,128.178702,37.900833,3276.936804,28.55,-84.451,347.13
7.7989,128.178698,37.900829,3272.4461856,27.329,-84.231,348.356
7.8156,128.178695,37.900825,3267.9506904,26.198,-84.008,349.492
7.8323,128.178691,37.900822,3263.4512328000005,25.145,-83.783,350.549
7.849,128.178687,37.900818,3258.9472032000003,24.165,-83.557,351.533
7.8657,128.178683,37.900815,3254.4389064,23.249,-83.329,352.453
7.8824,128.17868,37.900811,3249.9266472,22.392,-83.101,353.314
7.8991,128.178676,37.900808,3245.4104256000005,21.587,-82.871,354.122
7.9158,128.178673,37.900806,3240.8902416000005,20.829,-82.64,354.883
7.9325,128.178669,37.900803,3236.3660952,20.114,-82.408,355.6
7.9492,128.178666,37.9008,3231.8382912,19.44,-82.175,356.277
7.9659,128.178662,37.900798,3227.3068296,18.803,-81.942,356.917
7.9826,128.178659,37.900796,3222.7717104,18.198,-81.709,357.523
7.9993,128.178656,37.900794,3218.2332384,17.624,-81.474,358.099
8.016,128.178653,37.900792,3213.6914136,17.079,-81.24,358.646
8.0327,128.17865,37.900791,3209.146236,16.562,-81.004,359.165
8.0494,128.178647,37.900789,3204.5980104,16.069,-80.769,359.66
8.0661,128.178644,37.900788,3200.0467368000004,15.6,-80.533,0.131
8.0828,128.178641,37.900787,3195.4924152,15.154,-80.297,0.58
8.0994,128.178638,37.900786,3190.9350456,14.729,-80.06,1.007
8.1161,128.178635,37.900785,3186.3749328000004,14.326,-79.823,1.413
8.1329,128.178633,37.900785,3181.8123816,13.941,-79.586,1.8
8.1496,128.17863,37.900785,3177.2467824000005,13.576,-79.348,2.169
8.1663,128.178628,37.900785,3172.6790496,13.228,-79.11,2.521
8.183,128.178625,37.900785,3168.1088784000003,12.898,-78.872,2.855
8.1997,128.178623,37.900785,3163.5362688000005,12.585,-78.634,3.173
8.2164,128.17862,37.900785,3158.9612208000003,12.288,-78.396,3.475
8.2331,128.178618,37.900786,3154.3843440000005,12.006,-78.157,3.762
8.2498,128.178616,37.900787,3149.8053336,11.739,-77.918,4.034
8.2665,128.178614,37.900788,3145.2244944,11.486,-77.679,4.293
8.2831,128.178612,37.900789,3140.6415216,11.247,-77.44,4.539
8.2998,128.17861,37.90079,3136.0570248,11.021,-77.2,4.771
8.3166,128.178608,37.900792,3131.4706992,10.809,-76.961,4.991
8.3333,128.178606,37.900793,3126.8831544,10.608,-76.721,5.198
8.35,128.178604,37.900795,3122.2937807999997,10.419,-76.481,5.395
8.3667,128.178602,37.900797,3117.703188,10.24,-76.241,5.581
8.3834,128.1786,37.900799,3113.1113760000003,10.071,-76.001,5.757
8.4001,128.178599,37.900802,3108.51804,9.912,-75.761,5.924
8.4168,128.178597,37.900804,3103.9240944,9.762,-75.52,6.081
8.4335,128.178596,37.900807,3099.3286248,9.62,-75.28,6.23
8.4502,128.178594,37.90081,3094.7325456000003,9.487,-75.04,6.371
8.4668,128.178593,37.900813,3090.1358568,9.36,-74.799,6.505
8.4835,128.178592,37.900816,3085.5379488000003,9.24,-74.559,6.632
8.5003,128.17859,37.90082,3080.9397360000003,9.124,-74.319,6.753
8.517,128.178589,37.900824,3076.3409136,9.014,-74.079,6.87
8.5337,128.178588,37.900828,3071.7417864000004,8.907,-73.838,6.982
8.5504,128.178587,37.900832,3067.1423544,8.803,-73.598,7.09
8.5671,128.178586,37.900836,3062.5423127999998,8.702,-73.358,7.194
8.5838,128.178585,37.90084,3057.9422712000005,8.603,-73.119,7.297
8.6005,128.178584,37.900845,3053.3422296000003,8.504,-72.879,7.398
8.6172,128.178584,37.90085,3048.742188,8.405,-72.64,7.497
8.6339,128.178583,37.900854,3044.1421464000005,8.306,-72.401,7.597
8.6505,128.178582,37.90086,3039.5424096,8.205,-72.162,7.696
8.6672,128.178582,37.900865,3034.9429776,8.102,-71.924,7.797
8.684,128.178581,37.90087,3030.3438504,7.997,-71.685,7.899
8.7007,128.178581,37.900876,3025.7453328000006,7.891,-71.447,8.002
8.7174,128.17858,37.900882,3021.14712,7.782,-71.21,8.106
8.7341,128.17858,37.900888,3016.5498216,7.672,-70.973,8.212
8.7508,128.17858,37.900894,3011.9528280000004,7.561,-70.736,8.318
8.7675,128.17858,37.900901,3007.3570535999997,7.451,-70.499,8.425
8.7842,128.178579,37.900907,3002.7621936,7.342,-70.263,8.53
8.8009,128.178579,37.900914,2998.1682480000004,7.237,-70.026,8.633
8.8176,128.178579,37.900921,2993.5752168000004,7.137,-69.79,8.734
8.8342,128.178579,37.900928,2988.9834048000002,7.041,-69.554,8.832
8.8509,128.17858,37.900935,2984.3931168000004,6.95,-69.318,8.926
8.8676,128.17858,37.900943,2979.8040480000004,6.863,-69.082,9.017
8.8844,128.17858,37.90095,2975.2165032000003,6.779,-68.847,9.105
8.9011,128.17858,37.900958,2970.6304824000003,6.698,-68.611,9.191
8.9178,128.178581,37.900966,2966.0462904,6.62,-68.376,9.275
8.9345,128.178581,37.900974,2961.4639272,6.543,-68.14,9.357
8.9512,128.178582,37.900983,2956.883088,6.468,-67.905,9.437
8.9679,128.178582,37.900991,2952.3043824,6.394,-67.67,9.516
8.9846,128.178583,37.901,2947.7275056000003,6.322,-67.435,9.593
9.0013,128.178584,37.901009,2943.1530672,6.254,-67.201,9.667
9.0179,128.178584,37.901018,2938.5807624000004,6.189,-66.966,9.738
9.0346,128.178585,37.901027,2934.0105912000004,6.127,-66.731,9.806
9.0513,128.178586,37.901036,2929.4428584,6.066,-66.497,9.873
9.0681,128.178587,37.901046,2924.8775640000003,6.007,-66.264,9.938
9.0848,128.178588,37.901056,2920.314708,5.951,-66.039,10.0
9.1015,128.178589,37.901066,2915.7542904,5.897,-65.826,10.057
9.1182,128.178591,37.901076,2911.1963112000003,5.848,-65.626,10.111
9.1349,128.178592,37.901086,2906.6410752,5.802,-65.442,10.16
9.1516,128.178593,37.901097,2902.0882776000003,5.76,-65.272,10.205
9.1683,128.178594,37.901107,2897.5382232,5.722,-65.116,10.246
9.185,128.178596,37.901118,2892.9906072000003,5.686,-64.971,10.284
9.2016,128.178597,37.901129,2888.4457344,5.654,-64.838,10.32
9.2183,128.178599,37.90114,2883.9033,5.623,-64.714,10.353
9.235,128.178601,37.901152,2879.3636088000003,5.595,-64.599,10.383
9.2518,128.178602,37.901163,2874.8266608,5.57,-64.491,10.411
9.2685,128.178604,37.901175,2870.2921512,5.548,-64.389,10.437
9.2852,128.178606,37.901186,2865.7600800000005,5.528,-64.291,10.461
9.3019,128.178608,37.901198,2861.230752,5.508,-64.197,10.483
9.3186,128.178609,37.901211,2856.7041672,5.489,-64.107,10.505
9.3353,128.178611,37.901223,2852.179716,5.47,-64.02,10.526
9.352,128.178613,37.901235,2847.658008,5.452,-63.936,10.547
9.3687,128.178616,37.901248,2843.1387384,5.434,-63.856,10.568
9.3854,128.178618,37.90126,2838.6219072000004,5.417,-63.777,10.588
9.402,128.17862,37.901273,2834.1075144,5.401,-63.701,10.607
9.4187,128.178622,37.901286,2829.59556,5.387,-63.626,10.625
9.4355,128.178624,37.9013,2825.086044,5.373,-63.553,10.642
9.4522,128.178627,37.901313,2820.5786616,5.361,-63.482,10.658
9.4689,128.178629,37.901326,2816.0737176,5.348,-63.413,10.675
9.4856,128.178632,37.90134,2811.5709072000004,5.335,-63.346,10.691
9.5023,128.178634,37.901354,2807.0702304,5.323,-63.281,10.708
9.519,128.178637,37.901367,2802.5716872000003,5.312,-63.217,10.723
9.5357,128.178639,37.901381,2798.0755824000003,5.303,-63.155,10.738
9.5524,128.178642,37.901395,2793.5813064,5.294,-63.093,10.752
9.5691,128.178645,37.90141,2789.0888592,5.285,-63.034,10.765
9.5857,128.178647,37.901424,2784.5985456000003,5.277,-62.975,10.779
9.6024,128.17865,37.901439,2780.1100608,5.269,-62.919,10.794
9.6192,128.178653,37.901453,2775.6237096000004,5.262,-62.863,10.807
9.6359,128.178656,37.901468,2771.1391872000004,5.257,-62.808,10.819
9.6526,128.178659,37.901483,2766.6561888,5.251,-62.754,10.831
9.6693,128.178662,37.901498,2762.1750192000004,5.247,-62.702,10.843
9.686,128.178665,37.901513,2757.6956784000004,5.242,-62.651,10.856
9.7027,128.178668,37.901528,2753.2178616,5.238,-62.6,10.867
9.7194,128.178671,37.901544,2748.7415688,5.235,-62.55,10.878
9.7361,128.178674,37.901559,2744.2671048,5.231,-62.502,10.888
9.7528,128.178677,37.901575,2739.79386,5.228,-62.454,10.899
9.7694,128.178681,37.90159,2735.3218344,5.225,-62.409,10.91
9.7861,128.178684,37.901606,2730.8516376,5.222,-62.364,10.921
9.8029,128.178687,37.901622,2726.3823552000003,5.22,-62.319,10.93
9.8196,128.178691,37.901638,2721.9145968,5.218,-62.276,10.94
9.8363,128.178694,37.901654,2717.4480576000005,5.217,-62.234,10.949
9.853,128.178698,37.901671,2712.982128,5.217,-62.194,10.96
9.8697,128.178701,37.901687,2708.5180272000002,5.217,-62.155,10.97
9.8864,128.178705,37.901704,2704.0539264,5.221,-62.135,10.975
9.9031,128.178708,37.90172,2699.59074,5.23,-62.138,10.976
9.9198,128.178712,37.901737,2695.1278584,5.243,-62.156,10.974
9.9365,128.178715,37.901754,2690.666196,5.255,-62.178,10.971
9.9531,128.178719,37.90177,2686.2051432000003,5.267,-62.198,10.967
9.9698,128.178723,37.901787,2681.7443952,5.278,-62.214,10.965
9.9865,128.178727,37.901804,2677.283952,5.287,-62.224,10.964
10.0033,128.17873,37.901822,2672.8244232,5.294,-62.228,10.964
10.02,128.178734,37.901839,2668.3648943999997,5.299,-62.226,10.964
10.0367,128.178738,37.901856,2663.9056704,5.302,-62.218,10.966
10.0534,128.178742,37.901874,2659.4467511999997,5.305,-62.208,10.97
10.0701,128.178746,37.901891,2654.9878320000003,5.305,-62.193,10.974
10.0868,128.17875,37.901909,2650.528608,5.309,-62.196,10.974
10.1035,128.178754,37.901926,2646.069384,5.316,-62.223,10.969
10.1202,128.178758,37.901944,2641.6095504000004,5.327,-62.268,10.961
10.1368,128.178762,37.901962,2637.1497168000005,5.338,-62.32,10.952
10.1535,128.178766,37.90198,2632.6892736000004,5.349,-62.369,10.943
10.1702,128.17877,37.901998,2628.2288304000003,5.359,-62.411,10.935
10.187,128.178774,37.902016,2623.7674728,5.366,-62.445,10.93
10.2037,128.178778,37.902034,2619.3058103999997,5.372,-62.469,10.926
10.2204,128.178782,37.902052,2614.8435384,5.376,-62.485,10.923
10.2371,128.178787,37.90207,2610.3806568,5.379,-62.494,10.922
10.2538,128.178791,37.902089,2605.9168608,5.38,-62.497,10.923
10.2705,128.178795,37.902107,2601.4524552000003,5.38,-62.496,10.925
10.2872,128.178799,37.902126,2596.9871352000005,5.38,-62.49,10.927
10.3039,128.178804,37.902144,2592.5212056000005,5.379,-62.482,10.93
10.3205,128.178808,37.902163,2588.0540568,5.379,-62.471,10.933
10.3372,128.178812,37.902182,2583.5859936,5.378,-62.458,10.936
10.3539,128.178817,37.9022,2579.117016,5.376,-62.445,10.939
10.3707,128.178821,37.902219,2574.647124,5.373,-62.43,10.943
10.3874,128.178826,37.902238,2570.1760128,5.371,-62.416,10.947
10.4041,128.17883,37.902257,2565.7036824,5.368,-62.4,10.951
10.4208,128.178835,37.902276,2561.2304375999997,5.366,-62.384,10.956
10.4375,128.178839,37.902295,2556.7559736000003,5.364,-62.368,10.959
10.4542,128.178844,37.902314,2552.2799856,5.363,-62.352,10.963
10.4709,128.178848,37.902333,2547.8030832,5.361,-62.336,10.966
10.4876,128.178853,37.902352,2543.3249616000003,5.358,-62.321,10.971
10.5042,128.178857,37.902372,2538.8453160000004,5.355,-62.306,10.975
10.5209,128.178862,37.902391,2534.3644512,5.353,-62.29,10.979
10.5376,128.178866,37.90241,2529.8823672,5.35,-62.275,10.983
10.5544,128.178871,37.90243,2525.3987592000003,5.349,-62.26,10.986
10.5711,128.178876,37.902449,2520.9139320000004,5.348,-62.246,10.99
10.5878,128.17888,37.902469,2516.4272760000003,5.346,-62.231,10.993
10.6045,128.178885,37.902488,2511.9394008000004,5.344,-62.217,10.998
10.6212,128.17889,37.902508,2507.4500016,5.342,-62.203,11.002
10.6379,128.178895,37.902528,2502.9590784,5.34,-62.189,11.006
10.6546,128.178899,37.902548,2498.4666312,5.339,-62.176,11.01
10.6713,128.178904,37.902567,2493.97266,5.338,-62.162,11.013
10.6879,128.178909,37.902587,2489.47686,5.338,-62.149,11.017
10.7046,128.178914,37.902607,2484.979536,5.337,-62.136,11.02
10.7213,128.178919,37.902627,2480.480688,5.337,-62.123,11.023
10.7381,128.178924,37.902647,2475.9800112000003,5.337,-62.11,11.026
10.7548,128.178928,37.902667,2471.4775056000003,5.336,-62.098,11.029
10.7715,128.178933,37.902688,2466.973476,5.336,-62.085,11.032
10.7882,128.178938,37.902708,2462.4676176000003,5.336,-62.073,11.034
10.8049,128.178943,37.902728,2457.9599304,5.335,-62.06,11.037
10.8216,128.178948,37.902748,2453.4504144,5.334,-62.048,11.04
10.8383,128.178953,37.902769,2448.9390696,5.334,-62.037,11.042
10.855,128.178958,37.902789,2444.425896,5.333,-62.025,11.045
10.8717,128.178963,37.902809,2439.9108936000002,5.333,-62.013,11.047
10.8883,128.178968,37.90283,2435.3937576,5.332,-62.002,11.049
10.905,128.178973,37.90285,2430.8747928000003,5.331,-61.991,11.052
10.9218,128.178978,37.902871,2426.3539992,5.331,-61.98,11.054
10.9385,128.178983,37.902891,2421.8313768,5.33,-61.969,11.056
10.9552,128.178988,37.902912,2417.306316,5.33,-61.958,11.059
10.9719,128.178993,37.902933,2412.7797312000002,5.329,-61.948,11.061
10.9886,128.178999,37.902954,2408.250708,5.329,-61.937,11.063
11.0053,128.179004,37.902974,2403.7195512000003,5.328,-61.927,11.066
11.022,128.179009,37.902995,2399.1865656,5.326,-61.916,11.069
11.0387,128.179014,37.903016,2394.6514464,5.325,-61.905,11.073
11.0554,128.179019,37.903037,2390.1141936000004,5.324,-61.895,11.076
11.072,128.179024,37.903058,2385.5745024000003,5.325,-61.885,11.078
11.0887,128.17903,37.903079,2381.0329824,5.327,-61.876,11.079
11.1054,128.179035,37.9031,2376.489024,5.328,-61.867,11.081
11.1222,128.17904,37.903121,2371.9432368000002,5.328,-61.858,11.083
11.1389,128.179045,37.903142,2367.3950112,5.328,-61.849,11.084
11.1556,128.179051,37.903163,2362.8443472,5.327,-61.84,11.086
11.1723,128.179056,37.903184,2358.2918544,5.325,-61.831,11.088
11.189,128.179061,37.903206,2353.7366184,5.325,-61.822,11.09
11.2057,128.179066,37.903227,2349.1792488,5.324,-61.813,11.093
11.2224,128.179072,37.903248,2344.6197456,5.322,-61.804,11.095
11.2391,128.179077,37.90327,2340.0574992,5.322,-61.796,11.096
11.2557,128.179082,37.903291,2335.4931192,5.321,-61.787,11.099
11.2724,128.179088,37.903312,2330.9266056,5.32,-61.779,11.101
11.2891,128.179093,37.903334,2326.3573488,5.319,-61.77,11.103
11.3059,128.179099,37.903355,2321.7856536000004,5.319,-61.762,11.105
11.3226,128.179104,37.903377,2317.2118248,5.318,-61.754,11.107
11.3393,128.179109,37.903398,2312.6352528,5.318,-61.746,11.109
11.356,128.179115,37.90342,2308.0562424000004,5.317,-61.738,11.112
11.3727,128.17912,37.903442,2303.4750984,5.317,-61.73,11.114
11.3894,128.179126,37.903463,2298.8912112000003,5.317,-61.722,11.116
11.4061,128.179131,37.903485,2294.3048856,5.317,-61.714,11.119
11.4228,128.179137,37.903507,2289.7158168,5.316,-61.707,11.121
11.4394,128.179142,37.903529,2285.1246144,5.316,-61.699,11.122
11.4561,128.179148,37.903551,2280.5306688,5.314,-61.692,11.123
11.4728,128.179153,37.903572,2275.9342848,5.311,-61.686,11.122
11.4896,128.179159,37.903594,2271.3351576,5.307,-61.68,11.123
11.5063,128.179164,37.903616,2266.7338968000004,5.3,-61.673,11.124
11.523,128.17917,37.903638,2262.1295880000002,5.293,-61.667,11.125
11.5397,128.179175,37.90366,2257.5228408000003,5.287,-61.66,11.128
11.5564,128.179181,37.903682,2252.9133504,5.281,-61.654,11.13
11.5731,128.179187,37.903704,2248.3011168000003,5.276,-61.648,11.132
11.5898,128.179192,37.903726,2243.6864448,5.272,-61.641,11.134
11.6065,128.179198,37.903748,2239.0690296000002,5.268,-61.635,11.136
11.6231,128.179204,37.903771,2234.4488712,5.265,-61.629,11.137
11.6398,128.179209,37.903793,2229.8265792,5.258,-61.623,11.137
11.6565,128.179215,37.903815,2225.201544,5.249,-61.618,11.135
11.6733,128.17922,37.903837,2220.5734608,5.24,-61.613,11.136
11.69,128.179226,37.90386,2215.9429392,5.227,-61.608,11.137
11.7067,128.179232,37.903882,2211.3093696,5.213,-61.603,11.138
11.7234,128.179238,37.903904,2206.6733616,5.202,-61.597,11.141
11.7401,128.179243,37.903927,2202.0346104,5.19,-61.592,11.143
11.7568,128.179249,37.903949,2197.3928112,5.181,-61.586,11.145
11.7735,128.179255,37.903971,2192.7491832,5.166,-61.581,11.144
11.7902,128.17926,37.903994,2188.1022024000004,5.15,-61.576,11.142
11.8068,128.179266,37.904016,2183.4524784,5.134,-61.572,11.142
11.8235,128.179272,37.904039,2178.8003160000003,5.113,-61.568,11.143
11.8402,128.179278,37.904061,2174.1451056,5.092,-61.563,11.144
11.857,128.179283,37.904084,2169.4868472,5.075,-61.559,11.147
11.8737,128.179289,37.904107,2164.8264552,5.057,-61.553,11.15
11.8904,128.179295,37.904129,2160.1627104000004,5.041,-61.548,11.151
11.9071,128.179301,37.904152,2155.4959176,5.03,-61.542,11.154
11.9238,128.179307,37.904175,2150.8269912,5.016,-61.537,11.155
11.9405,128.179313,37.904197,2146.154712,5.004,-61.533,11.156
11.9572,128.179318,37.90422,2141.480604,4.983,-61.528,11.155
11.9739,128.179324,37.904243,2136.8028384,4.959,-61.525,11.152
11.9905,128.17933,37.904266,2132.1223296000003,4.936,-61.521,11.153
12.0072,128.179336,37.904289,2127.4396872,4.905,-61.517,11.154
12.0239,128.179342,37.904312,2122.7533872,4.876,-61.513,11.156
12.0407,128.179348,37.904334,2118.0655632,4.836,-61.51,11.155
12.0574,128.179354,37.904357,2113.3740816,4.796,-61.506,11.153
12.0741,128.179359,37.90438,2108.6792472,4.76,-61.502,11.154
12.0908,128.179365,37.904403,2103.9828888,4.714,-61.499,11.155
12.1075,128.179371,37.904426,2099.282568,4.672,-61.495,11.157
12.1242,128.179377,37.904449,2094.5791992000004,4.639,-61.491,11.161
12.1409,128.179383,37.904472,2089.8740016,4.601,-61.487,11.163
12.1576,128.179389,37.904495,2085.1648416,4.57,-61.482,11.165
12.1743,128.179395,37.904519,2080.4544624,4.52,-61.478,11.162
12.1909,128.179401,37.904542,2075.7401208,4.464,-61.475,11.157
12.2076,128.179407,37.904565,2071.0227312,4.411,-61.471,11.156
12.2243,128.179413,37.904588,2066.3038176000005,4.339,-61.468,11.157
12.2411,128.179419,37.904611,2061.5806368000003,4.272,-61.464,11.159
12.2578,128.179425,37.904634,2056.8562368000003,4.182,-61.46,11.158
12.2745,128.179431,37.904658,2052.1281792,4.091,-61.457,11.154
12.2912,128.179437,37.904681,2047.3961592,4.011,-61.453,11.156
12.3079,128.179443,37.904704,2042.66292,3.912,-61.449,11.157
12.3246,128.179449,37.904728,2037.9254136000002,3.82,-61.446,11.159
12.3413,128.179455,37.904751,2033.1866880000002,3.695,-61.442,11.155
12.358,128.179461,37.904774,2028.4449144,3.56,-61.439,11.148
12.3746,128.179467,37.904798,2023.6991784000002,3.435,-61.436,11.149
12.3913,128.179473,37.904821,2018.952528,3.282,-61.432,11.15
12.408,128.179479,37.904845,2014.2010008,3.138,-61.429,11.153
12.4248,128.179485,37.904868,2009.4485592,2.957,-61.425,11.15
12.4415,128.179491,37.904892,2004.6930696000002,2.767,-61.421,11.144
12.4582,128.179497,37.904915,1999.9339224,2.589,-61.417,11.144
12.4749,128.179504,37.904939,1995.1708128000002,2.452,-61.414,11.156
12.4916,128.17951,37.904962,1990.4037408000002,2.356,-61.411,11.173
12.5083,128.179516,37.904986,1985.6336208000002,2.304,-61.409,11.187
12.525,128.179522,37.90501,1980.8601480000002,2.29,-61.405,11.193
12.5417,128.179528,37.905033,1976.0836272000001,2.301,-61.4,11.192
12.5583,128.179534,37.905057,1971.3040584000003,2.323,-61.396,11.188
12.575,128.17954,37.905081,1966.5214416,2.347,-61.391,11.184
12.5917,128.179546,37.905104,1961.7357768,2.368,-61.386,11.181
12.6085,128.179552,37.905128,1956.9470640000002,2.385,-61.382,11.18
12.6252,128.179559,37.905152,1952.155608,2.398,-61.377,11.181
12.6419,128.179565,37.905176,1947.361104,2.411,-61.372,11.183
12.6586,128.179571,37.905199,1942.5632472,2.426,-61.367,11.183
12.6753,128.179577,37.905223,1937.7626472,2.445,-61.361,11.182
12.692,128.179583,37.905247,1932.9589992,2.465,-61.355,11.181
12.7087,128.179589,37.905271,1928.152608,2.483,-61.349,11.18
12.7254,128.179596,37.905295,1923.3428640000002,2.501,-61.343,11.18
12.742,128.179602,37.905319,1918.5303767999999,2.518,-61.337,11.18
12.7587,128.179608,37.905343,1913.7145368000001,2.537,-61.33,11.179
12.7754,128.179614,37.905366,1908.8959536000002,2.557,-61.323,11.179
12.7922,128.17962,37.90539,1904.0746272000001,2.575,-61.316,11.179
12.8089,128.179627,37.905414,1899.2499480000001,2.594,-61.309,11.179
12.8256,128.179633,37.905438,1894.4225256,2.612,-61.302,11.179
12.8423,128.179639,37.905462,1889.5920552,2.633,-61.295,11.179
12.859,128.179645,37.905487,1884.7585368000002,2.655,-61.288,11.178
12.8757,128.179651,37.905511,1879.9222752,2.675,-61.28,11.178
12.8924,128.179658,37.905535,1875.0826608,2.695,-61.273,11.178
12.9091,128.179664,37.905559,1870.240608,2.715,-61.266,11.179
12.9257,128.17967,37.905583,1865.3952024,2.738,-61.259,11.178
12.9424,128.179676,37.905607,1860.5470536000003,2.761,-61.251,11.178
12.9591,128.179683,37.905631,1855.6958568,2.782,-61.244,11.178
12.9759,128.179689,37.905656,1850.8419168,2.803,-61.237,11.178
12.9926,128.179695,37.90568,1845.9849288000003,2.825,-61.229,11.179
13.0093,128.179702,37.905704,1841.1248928,2.849,-61.222,11.179
13.026,128.179708,37.905728,1836.2621136,2.875,-61.215,11.178
13.0427,128.179714,37.905753,1831.3962864,2.897,-61.208,11.178
13.0594,128.17972,37.905777,1826.527716,2.92,-61.2,11.179
13.0761,128.179727,37.905801,1821.6560976,2.942,-61.193,11.18
13.0928,128.179733,37.905826,1816.7814312000003,2.968,-61.186,11.18
13.1095,128.179739,37.90585,1811.9040216,2.994,-61.178,11.179
13.1262,128.179746,37.905874,1807.023564,3.025,-61.171,11.178
13.1429,128.179752,37.905899,1802.1403632,3.056,-61.164,11.176
13.1596,128.179758,37.905923,1797.2544192,3.082,-61.156,11.176
13.1763,128.179765,37.905948,1792.3654272,3.109,-61.149,11.177
13.193,128.179771,37.905972,1787.4733872,3.136,-61.142,11.177
13.2097,128.179777,37.905997,1782.578604,3.166,-61.135,11.177
13.2264,128.179784,37.906021,1777.6810776000002,3.197,-61.127,11.176
13.2431,128.17979,37.906046,1772.7805032,3.224,-61.12,11.176
13.2598,128.179796,37.906071,1767.8771856,3.252,-61.112,11.177
13.2765,128.179803,37.906095,1762.9711248,3.279,-61.105,11.178
13.2932,128.179809,37.90612,1758.062016,3.31,-61.098,11.178
13.3099,128.179816,37.906144,1753.1498592,3.341,-61.09,11.177
13.3266,128.179822,37.906169,1748.2349592,3.377,-61.083,11.176
13.3433,128.179828,37.906194,1743.3173160000001,3.413,-61.076,11.175
13.36,128.179835,37.906218,1738.3969296,3.445,-61.068,11.175
13.3767,128.179841,37.906243,1733.4734952000001,3.477,-61.061,11.175
13.3934,128.179848,37.906268,1728.5473176000003,3.507,-61.053,11.176
13.4101,128.179854,37.906293,1723.6183968,3.542,-61.046,11.176
13.4268,128.17986,37.906318,1718.686428,3.578,-61.039,11.176
13.4435,128.179867,37.906342,1713.7517160000002,3.618,-61.031,11.174
13.4602,128.179873,37.906367,1708.8142608,3.658,-61.024,11.173
13.4769,128.17988,37.906392,1703.8737576,3.693,-61.016,11.173
13.4936,128.179886,37.906417,1698.930816,3.729,-61.009,11.174
13.5103,128.179893,37.906442,1693.9848264000002,3.762,-61.001,11.175
13.527,128.179899,37.906467,1689.0360936000002,3.8,-60.994,11.175
13.5437,128.179906,37.906492,1684.0846176000002,3.839,-60.987,11.174
13.5604,128.179912,37.906517,1679.1303983999999,3.874,-60.979,11.175
13.5771,128.179919,37.906542,1674.1731312000002,3.909,-60.972,11.175
13.5938,128.179925,37.906567,1669.2134256,3.942,-60.964,11.177
13.6105,128.179932,37.906592,1664.2506720000001,3.979,-60.957,11.177
13.6272,128.179938,37.906617,1659.2851752000001,4.017,-60.949,11.177
13.6439,128.179945,37.906642,1654.3166304000001,4.059,-60.942,11.177
13.6606,128.179951,37.906667,1649.3456472,4.102,-60.934,11.176
13.6773,128.179958,37.906692,1644.3722255999999,4.139,-60.927,11.177
13.694,128.179964,37.906717,1639.3954512,4.177,-60.919,11.178
13.7107,128.179971,37.906743,1634.4165432,4.212,-60.911,11.18
13.7274,128.179977,37.906768,1629.4342824,4.252,-60.904,11.18
13.7441,128.179984,37.906793,1624.4495832000002,4.294,-60.897,11.18
13.7608,128.17999,37.906818,1619.461836,4.341,-60.889,11.18
13.7775,128.179997,37.906844,1614.4713456000002,4.387,-60.881,11.179
13.7942,128.180004,37.906869,1609.4787216,4.427,-60.874,11.18
13.8109,128.18001,37.906894,1604.4827448,4.467,-60.866,11.181
13.8276,128.180017,37.90692,1599.4846344000002,4.504,-60.859,11.183
13.8443,128.180023,37.906945,1594.4831712,4.546,-60.851,11.184
13.861,128.18003,37.90697,1589.4792696000002,4.588,-60.843,11.184
13.8777,128.180037,37.906996,1584.4726248,4.636,-60.836,11.184
13.8944,128.180043,37.907021,1579.4632368000002,4.684,-60.828,11.184
13.9111,128.18005,37.907047,1574.4514104000002,4.725,-60.821,11.185
13.9278,128.180056,37.907072,1569.436536,4.765,-60.813,11.187
13.9445,128.180063,37.907098,1564.4192232000003,4.802,-60.805,11.189
13.9612,128.18007,37.907123,1559.3988624,4.845,-60.798,11.19
13.9779,128.180076,37.907149,1554.376368,4.888,-60.79,11.191
13.9946,128.180083,37.907174,1549.3505208000001,4.939,-60.782,11.191
14.0113,128.18009,37.9072,1544.3222352,4.989,-60.775,11.191
14.028,128.180096,37.907225,1539.2918160000002,5.03,-60.767,11.192
14.0447,128.180103,37.907251,1534.258044,5.072,-60.759,11.194
14.0614,128.18011,37.907277,1529.2221384,5.109,-60.752,11.196
14.0781,128.180116,37.907302,1524.1831848,5.152,-60.744,11.198
14.0948,128.180123,37.907328,1519.1417928,5.194,-60.736,11.199
14.1115,128.18013,37.907354,1514.0973528000002,5.245,-60.729,11.2
14.1282,128.180136,37.907379,1509.0504744000002,5.295,-60.721,11.2
14.1449,128.180143,37.907405,1504.0005480000002,5.35,-60.713,11.2
14.1616,128.18015,37.907431,1498.9484880000002,5.405,-60.705,11.201
14.1783,128.180157,37.907457,1493.8939896,5.45,-60.698,11.202
14.195,128.180163,37.907482,1488.8364432,5.494,-60.69,11.203
14.2117,128.18017,37.907508,1483.7767632,5.533,-60.682,11.205
14.2284,128.180177,37.907534,1478.7140352000001,5.576,-60.674,11.207
14.2451,128.180184,37.90756,1473.6488688,5.618,-60.667,11.209
14.2618,128.18019,37.907586,1468.5809592,5.667,-60.659,11.21
14.2785,128.180197,37.907612,1463.5106112,5.715,-60.651,11.21
14.2952,128.180204,37.907638,1458.4372152,5.77,-60.643,11.211
14.3119,128.180211,37.907664,1453.3616856,5.823,-60.635,11.211
14.3286,128.180217,37.90769,1448.2837176000003,5.866,-60.628,11.213
14.3453,128.180224,37.907716,1443.2027016000002,5.907,-60.62,11.214
14.362,128.180231,37.907742,1438.119552,5.942,-60.612,11.217
14.3787,128.180238,37.907768,1433.0336592,5.982,-60.604,11.219
14.3954,128.180245,37.907794,1427.945328,6.022,-60.596,11.221
14.4121,128.180251,37.90782,1422.8539488000001,6.068,-60.589,11.222
14.4288,128.180258,37.907846,1417.760436,6.113,-60.581,11.223
14.4455,128.180265,37.907872,1412.6638752000001,6.165,-60.573,11.224
14.4622,128.180272,37.907898,1407.5651808,6.213,-60.565,11.225
14.4789,128.180279,37.907925,1402.4643528000001,6.251,-60.557,11.227
14.4956,128.180286,37.907951,1397.3604768,6.288,-60.549,11.229
14.5123,128.180293,37.907977,1392.2544672000001,6.32,-60.541,11.232
14.529,128.180299,37.908003,1387.1454096000002,6.357,-60.533,11.235
14.5457,128.180306,37.90803,1382.0342184,6.391,-60.525,11.237
14.5624,128.180313,37.908056,1376.920284,6.433,-60.517,11.239
14.5791,128.18032,37.908082,1371.8039112000001,6.472,-60.509,11.241
14.5958,128.180327,37.908109,1366.6847952,6.518,-60.501,11.242
14.6125,128.180334,37.908135,1361.5632408000001,6.563,-60.493,11.243
14.6292,128.180341,37.908161,1356.4398575999999,6.597,-60.485,11.246
14.6459,128.180348,37.908188,1351.3134264,6.631,-60.477,11.248
14.6626,128.180355,37.908214,1346.1848616000002,6.658,-60.469,11.252
14.6793,128.180362,37.908241,1341.0532488000001,6.691,-60.461,11.255
14.696,128.180369,37.908267,1335.9198072000002,6.721,-60.453,11.258
14.7127,128.180376,37.908293,1330.7833176000001,6.758,-60.445,11.26
14.7294,128.180383,37.90832,1325.6446944000002,6.794,-60.437,11.262
14.7461,128.18039,37.908347,1320.503328,6.836,-60.428,11.264
14.7628,128.180397,37.908373,1315.3595232000002,6.877,-60.42,11.265
14.7795,128.180404,37.9084,1310.2129752,6.923,-60.412,11.267
14.7962,128.180411,37.908426,1305.0645984,6.966,-60.404,11.269
14.8129,128.180418,37.908453,1299.9140880000002,6.996,-60.396,11.271
14.8296,128.180425,37.908479,1294.7605296000002,7.025,-60.388,11.274
14.8463,128.180432,37.908506,1289.6048376,7.048,-60.38,11.278
14.863,128.180439,37.908533,1284.4464024000001,7.076,-60.372,11.282
14.8797,128.180446,37.90856,1279.2861384,7.103,-60.364,11.285
14.8964,128.180453,37.908586,1274.1225216,7.139,-60.355,11.287
14.9131,128.18046,37.908613,1268.9570760000001,7.175,-60.347,11.29
14.9298,128.180467,37.90864,1263.7888872,7.217,-60.339,11.291
14.9465,128.180474,37.908667,1258.6185648,7.257,-60.331,11.293
14.9632,128.180481,37.908693,1253.4454992,7.303,-60.322,11.295
14.9799,128.180488,37.90872,1248.2703000000001,7.345,-60.314,11.297
14.9966,128.180495,37.908747,1243.0923576,7.391,-60.306,11.298
15.0133,128.180502,37.908774,1237.9122816,7.435,-60.298,11.3
15.03,128.180509,37.908801,1232.7303768000002,7.466,-60.289,11.303
15.0467,128.180516,37.908828,1227.5454240000001,7.494,-60.281,11.306
15.0634,128.180524,37.908855,1222.3589472,7.513,-60.273,11.31
15.0801,128.180531,37.908882,1217.1691176000002,7.536,-60.265,11.314
15.0968,128.180538,37.908909,1211.977764,7.556,-60.257,11.318
15.1135,128.180545,37.908936,1206.7833624,7.585,-60.249,11.322
15.1302,128.180552,37.908963,1201.587132,7.613,-60.24,11.325
15.1469,128.180559,37.90899,1196.3878536000002,7.65,-60.232,11.327
15.1636,128.180567,37.909017,1191.1870512,7.684,-60.223,11.329
15.1803,128.180574,37.909044,1185.982896,7.726,-60.215,11.331
15.197,128.180581,37.909071,1180.7772168,7.764,-60.207,11.334
15.2137,128.180588,37.909098,1175.5684896,7.81,-60.198,11.336
15.2304,128.180595,37.909125,1170.3579336,7.852,-60.19,11.337
15.2471,128.180602,37.909152,1165.1446344,7.898,-60.182,11.339
15.2638,128.18061,37.90918,1159.9295064,7.939,-60.173,11.341
15.2805,128.180617,37.909207,1154.7125496,7.962,-60.165,11.345
15.2972,128.180624,37.909234,1149.4928496,7.982,-60.156,11.349
15.3139,128.180631,37.909261,1144.2713208,7.994,-60.148,11.354
15.3306,128.180639,37.909289,1139.0467440000002,8.012,-60.14,11.359
15.3473,128.180646,37.909316,1133.8206432,8.029,-60.132,11.363
