Time,Longitude,Latitude,Altitude,Roll (deg),Pitch (deg),Yaw (deg)
0.0,128.181881,37.968463,7002.830292000001,0.0,-0.003,179.999
0.0167,128.181881,37.968418,7002.8116992000005,0.0,-0.012,180.0
0.0334,128.181881,37.968374,7002.7912776,0.087,-0.026,180.011
0.0501,128.181881,37.968329,7002.7690272,0.258,-0.042,180.034
0.0668,128.181881,37.968284,7002.746776800001,0.342,-0.048,180.041
0.0834,128.181881,37.968239,7002.7245264,0.347,-0.029,180.029
0.1002,128.181881,37.968194,7002.7031904000005,0.266,0.026,180.005
0.1169,128.181881,37.968149,7002.6830736,0.095,0.132,179.973
0.1336,128.181881,37.968104,7002.665395200001,-0.169,0.3,179.938
0.1503,128.181881,37.968059,7002.6510696000005,-0.527,0.536,179.901
0.1669,128.181881,37.968014,7002.6379632,-0.802,0.83,179.885
0.1837,128.181881,37.967969,7002.6272952,-0.996,1.168,179.891
0.2004,128.181881,37.967924,7002.6181512,-1.099,1.534,179.912
0.2171,128.181881,37.967879,7002.611140800001,-1.106,1.912,179.939
0.2338,128.181881,37.967834,7002.6059592,-1.013,2.286,179.971
0.2505,128.181881,37.967789,7002.602301600001,-0.82,2.639,180.003
0.2672,128.181881,37.967744,7002.600168,-0.531,2.957,180.037
0.2839,128.181881,37.967699,7002.601996800001,-0.321,3.251,180.048
0.3006,128.181881,37.967654,7002.607788000001,-0.189,3.533,180.037
0.3172,128.181881,37.967609,7002.618456000001,-0.143,3.817,180.012
0.3339,128.181881,37.967564,7002.6346104,-0.19,4.113,179.979
0.3507,128.181881,37.967519,7002.657470400001,-0.331,4.435,179.942
0.3674,128.181881,37.967474,7002.6876456,-0.568,4.786,179.903
0.3841,128.181881,37.967429,7002.7230024,-0.726,5.149,179.885
0.4008,128.181881,37.967384,7002.764760000001,-0.808,5.51,179.888
0.4175,128.181881,37.967339,7002.8123088,-0.807,5.853,179.906
0.4342,128.181881,37.967294,7002.865344,-0.716,6.162,179.933
0.4509,128.181881,37.967249,7002.923256000001,-0.534,6.423,179.964
0.4676,128.181881,37.967204,7002.9860448,-0.26,6.62,179.998
0.4843,128.181881,37.967159,7003.0524912,0.1,6.739,180.034
0.501,128.181881,37.967114,7003.125338400001,0.381,6.795,180.048
0.5176,128.181881,37.967069,7003.203672000001,0.583,6.801,180.041
0.5344,128.181881,37.967024,7003.2877968,0.699,6.774,180.019
0.5511,128.181881,37.966979,7003.378627200001,0.725,6.727,179.99
0.5678,128.181881,37.966934,7003.476468000001,0.657,6.675,179.956
0.5845,128.181881,37.96689,7003.5779664,0.664,6.606,179.942
0.6012,128.181881,37.966845,7003.6843416,0.741,6.506,179.948
0.6179,128.181881,37.9668,7003.7940696000005,0.897,6.372,179.967
0.6345,128.181881,37.966755,7003.9074552,1.136,6.215,179.995
0.6513,128.181881,37.96671,7004.023279200001,1.461,6.044,180.026
0.6679,128.181881,37.966665,7004.140932,1.874,5.866,180.059
0.6847,128.181881,37.96662,7004.2604136,2.372,5.686,180.092
0.7014,128.181881,37.966575,7004.3805048,2.955,5.507,180.124
0.7181,128.181881,37.96653,7004.500900800001,3.62,5.331,180.155
0.7348,128.181881,37.966484,7004.620992000001,4.365,5.16,180.184
0.7514,128.181881,37.966439,7004.741388,5.187,4.993,180.212
0.7682,128.181881,37.966394,7004.861174400001,6.085,4.832,180.238
0.7848,128.181881,37.966349,7004.980656000001,7.057,4.676,180.262
0.8016,128.181881,37.966304,7005.099528000001,8.099,4.526,180.285
0.8183,128.181881,37.966259,7005.2190096,9.037,4.398,180.286
0.835,128.181881,37.966214,7005.339100800001,9.876,4.308,180.269
0.8517,128.181881,37.966169,7005.460716,10.608,4.265,180.245
0.8684,128.181881,37.966124,7005.5838552000005,11.228,4.279,180.222
0.8851,128.181881,37.966079,7005.710042400001,11.735,4.359,180.206
0.9018,128.181881,37.966034,7005.839582400001,12.129,4.511,180.205
0.9185,128.181881,37.965989,7005.970646400001,12.585,4.72,180.239
0.9352,128.18188,37.965944,7006.1044536,13.102,4.974,180.308
0.9519,128.18188,37.965899,7006.2400896,13.687,5.263,180.401
0.9686,128.18188,37.965854,7006.3775544,14.346,5.573,180.512
0.9853,128.18188,37.965808,7006.516848,15.083,5.891,180.632
1.002,128.18188,37.965763,7006.6579704000005,15.897,6.202,180.756
1.0187,128.18188,37.965718,7006.8012264,16.787,6.49,180.879
1.0353,128.18188,37.965673,7006.946616,17.748,6.741,180.996
1.0521,128.18188,37.965628,7007.0941391999995,18.779,6.941,181.101
1.0688,128.181879,37.965583,7007.243491200001,19.875,7.075,181.188
1.0855,128.181879,37.965538,7007.3940624,21.032,7.131,181.251
1.1022,128.181879,37.965493,7007.5461576,22.249,7.1,181.283
1.1189,128.181879,37.965447,7007.6997768,23.524,6.998,181.289
1.1356,128.181879,37.965402,7007.854310400001,24.856,6.84,181.271
1.1522,128.181878,37.965357,7008.0097584000005,26.247,6.641,181.235
1.169,128.181878,37.965312,7008.165816,27.698,6.417,181.185
1.1857,128.181878,37.965267,7008.322178400001,29.209,6.181,181.127
1.2024,128.181877,37.965222,7008.478845600001,30.781,5.95,181.068
1.2191,128.181877,37.965176,7008.6355128000005,32.416,5.734,181.013
1.2358,128.181877,37.965131,7008.791570400001,34.113,5.535,180.964
1.2525,128.181876,37.965086,7008.9473232,35.871,5.351,180.919
1.2691,128.181876,37.965041,7009.1021616,37.69,5.179,180.877
1.2859,128.181876,37.964995,7009.2560856,39.567,5.019,180.837
1.3026,128.181875,37.96495,7009.4084856,41.502,4.867,180.798
1.3193,128.181875,37.964905,7009.5596663999995,43.493,4.725,180.76
1.3359,128.181874,37.96486,7009.7096280000005,45.363,4.615,180.718
1.3527,128.181874,37.964814,7009.8586752,47.122,4.55,180.685
1.3694,128.181874,37.964769,7010.0074176,48.761,4.532,180.676
1.386,128.181873,37.964724,7010.156769600001,50.278,4.56,180.704
1.4028,128.181872,37.964679,7010.3067312,51.67,4.636,180.783
1.4195,128.181872,37.964633,7010.4576072,52.94,4.761,180.923
1.4362,128.181871,37.964588,7010.610312,54.09,4.934,181.129
1.4528,128.181871,37.964543,7010.764540800001,55.124,5.146,181.396
1.4696,128.18187,37.964498,7010.9209032,56.043,5.386,181.713
1.4863,128.181869,37.964452,7011.0800088000005,56.853,5.647,182.073
1.5029,128.181868,37.964407,7011.2418576,57.556,5.922,182.466
1.5197,128.181867,37.964362,7011.4067544,58.156,6.199,182.878
1.5364,128.181866,37.964317,7011.575004,58.654,6.472,183.295
1.5531,128.181865,37.964271,7011.7475208,59.224,6.712,183.716
1.5697,128.181864,37.964226,7011.922476,59.861,6.911,184.125
1.5865,128.181862,37.964181,7012.100479200001,60.571,7.069,184.504
1.6032,128.181861,37.964136,7012.280311200001,61.359,7.183,184.835
1.6198,128.181859,37.96409,7012.4622768,62.225,7.25,185.102
1.6366,128.181858,37.964045,7012.6454616,63.166,7.269,185.29
1.6533,128.181856,37.964,7012.829560800001,64.178,7.234,185.383
1.67,128.181855,37.963955,7013.0142696,65.262,7.153,185.386
1.6867,128.181853,37.96391,7013.1992832000005,66.417,7.034,185.314
1.7034,128.181851,37.963864,7013.384296800001,67.645,6.888,185.178
1.7201,128.181849,37.963819,7013.568396000001,68.938,6.723,184.995
1.7368,128.181847,37.963774,7013.7521904000005,70.294,6.548,184.778
1.7535,128.181846,37.963729,7013.935070400001,71.708,6.371,184.542
1.7702,128.181844,37.963683,7014.117036000001,73.178,6.199,184.304
1.7869,128.181842,37.963638,7014.298087200001,74.704,6.037,184.077
1.8036,128.18184,37.963593,7014.4779192000005,76.285,5.89,183.878
1.8203,128.181838,37.963547,7014.6562272,77.919,5.757,183.709
1.837,128.181836,37.963502,7014.833011200001,79.605,5.635,183.563
1.8537,128.181833,37.963457,7015.0082712,81.339,5.524,183.437
1.8704,128.181831,37.963411,7015.1817024,83.118,5.421,183.325
1.8871,128.181829,37.963366,7015.353304800001,84.938,5.326,183.224
1.9038,128.181827,37.963321,7015.5233832,86.799,5.237,183.133
1.9205,128.181825,37.963275,7015.691328000001,88.695,5.154,183.05
1.9372,128.181823,37.96323,7015.8577488,90.626,5.075,182.974
1.9539,128.181821,37.963185,7016.022036,92.588,5.0,182.904
1.9706,128.181818,37.963139,7016.1844944,94.581,4.929,182.84
1.9873,128.181816,37.963094,7016.3448192000005,96.602,4.861,182.781
2.004,128.181814,37.963048,7016.5033152000005,98.649,4.796,182.727
2.0207,128.181812,37.963003,7016.6602872,100.722,4.734,182.677
2.0374,128.18181,37.962958,7016.8151256,102.819,4.673,182.632
2.0541,128.181807,37.962912,7016.9681352,104.938,4.615,182.591
2.0707,128.181805,37.962867,7017.119316,107.077,4.558,182.553
2.0875,128.181803,37.962821,7017.268668000001,109.237,4.502,182.518
2.1042,128.181801,37.962776,7017.416496000001,111.415,4.448,182.486
2.1208,128.181799,37.96273,7017.562495200001,113.611,4.394,182.457
2.1376,128.181796,37.962685,7017.7069704000005,115.822,4.341,182.43
2.1543,128.181794,37.962639,7017.8499216,118.047,4.289,182.406
2.171,128.181792,37.962594,7017.9913488,120.285,4.237,182.383
2.1877,128.18179,37.962548,7018.131252000001,122.532,4.185,182.363
2.2044,128.181788,37.962503,7018.2696312,124.788,4.134,182.344
2.2211,128.181785,37.962457,7018.4067912,127.051,4.084,182.327
2.2378,128.181783,37.962412,7018.542732000001,129.32,4.033,182.311
2.2544,128.181781,37.962366,7018.6771488,131.593,3.983,182.296
2.2712,128.181779,37.96232,7018.8106512,133.869,3.932,182.282
2.2879,128.181777,37.962275,7018.9429344,136.149,3.882,182.269
2.3045,128.181775,37.962229,7019.074608,138.432,3.831,182.257
2.3213,128.181773,37.962184,7019.2050624,140.718,3.781,182.244
2.338,128.181771,37.962138,7019.3346024,143.008,3.73,182.232
2.3546,128.181768,37.962092,7019.4638376,145.303,3.68,182.219
2.3714,128.181766,37.962047,7019.592463200001,147.604,3.629,182.206
2.3881,128.181764,37.962001,7019.720479200001,149.912,3.579,182.193
2.4048,128.181762,37.961955,7019.8481904,152.23,3.529,182.178
2.4215,128.18176,37.96191,7019.975596800001,154.558,3.48,182.163
2.4382,128.181758,37.961864,7020.103308,156.9,3.431,182.147
2.4549,128.181756,37.961818,7020.230714400001,159.256,3.383,182.13
2.4716,128.181754,37.961772,7020.3587304,161.631,3.336,182.112
2.4882,128.181752,37.961727,7020.486746400001,164.025,3.29,182.092
2.505,128.18175,37.961681,7020.6150672,166.442,3.245,182.071
2.5217,128.181748,37.961635,7020.7443023999995,168.883,3.202,182.049
2.5383,128.181746,37.961589,7020.8738424,171.351,3.16,182.026
2.5551,128.181744,37.961543,7021.004296800001,173.844,3.12,182.002
2.5718,128.181742,37.961498,7021.1347512,176.363,3.082,181.977
2.5884,128.18174,37.961452,7021.266120000001,178.903,3.047,181.952
2.6052,128.181738,37.961406,7021.3974888,-178.536,3.013,181.927
2.6219,128.181736,37.96136,7021.5294672,-175.957,2.982,181.902
2.6386,128.181734,37.961314,7021.661445600001,-173.363,2.953,181.877
2.6553,128.181732,37.961268,7021.7937288,-170.755,2.927,181.852
2.6719,128.18173,37.961222,7021.9263168,-168.135,2.903,181.828
2.6887,128.181728,37.961177,7022.0586,-165.506,2.882,181.804
2.7054,128.181726,37.961131,7022.191188000001,-162.868,2.863,181.781
2.722,128.181724,37.961085,7022.3231663999995,-160.224,2.846,181.759
2.7388,128.181722,37.961039,7022.4551448,-157.575,2.832,181.738
2.7555,128.18172,37.960993,7022.5865136,-154.923,2.82,181.718
2.7721,128.181717,37.960947,7022.7175776,-152.269,2.809,181.699
2.7889,128.181715,37.960901,7022.8477272,-149.614,2.795,181.677
2.8056,128.181713,37.960855,7022.9769624,-146.96,2.771,181.651
2.8222,128.181711,37.960809,7023.104978400001,-144.309,2.735,181.616
2.839,128.181709,37.960763,7023.231470400001,-141.661,2.686,181.57
2.8557,128.181707,37.960717,7023.356438400001,-139.018,2.622,181.511
2.8724,128.181705,37.960671,7023.4795776,-136.384,2.545,181.437
2.8891,128.181702,37.960624,7023.5996688000005,-133.772,2.454,181.348
2.9057,128.1817,37.960578,7023.716712,-131.195,2.351,181.243
2.9225,128.181698,37.960532,7023.8304024,-128.665,2.238,181.122
2.9392,128.181696,37.960486,7023.9404352,-126.189,2.118,180.986
2.9558,128.181694,37.96044,7024.0462008,-123.777,1.992,180.834
2.9726,128.181692,37.960394,7024.148004000001,-121.432,1.864,180.668
2.9893,128.18169,37.960348,7024.24554,-119.157,1.738,180.491
3.0059,128.181688,37.960302,7024.338504,-116.953,1.615,180.304
3.0227,128.181686,37.960255,7024.427505600001,-114.821,1.497,180.109
3.0394,128.181684,37.960209,7024.5119352,-112.757,1.387,179.91
3.056,128.181682,37.960163,7024.591792800001,-110.758,1.286,179.709
3.0728,128.18168,37.960117,7024.667688,-108.82,1.195,179.508
3.0895,128.181678,37.960071,7024.739316,-106.938,1.114,179.309
3.1062,128.181676,37.960024,7024.8066768,-105.108,1.044,179.114
3.1229,128.181675,37.959978,7024.8700751999995,-103.325,0.984,178.924
3.1395,128.181673,37.959932,7024.929816,-101.585,0.934,178.741
3.1563,128.181671,37.959886,7024.9855944,-99.883,0.894,178.564
3.173,128.18167,37.959839,7025.037715200001,-98.217,0.862,178.396
3.1896,128.181668,37.959793,7025.086178400001,-96.582,0.839,178.235
3.2064,128.181667,37.959747,7025.1315936,-94.976,0.823,178.083
3.2231,128.181666,37.959701,7025.173351200001,-93.396,0.814,177.939
3.2397,128.181664,37.959654,7025.212365600001,-91.841,0.811,177.804
3.2565,128.181663,37.959608,7025.248332,-90.311,0.814,177.675
3.2732,128.181662,37.959562,7025.2815552,-88.803,0.821,177.553
3.2899,128.181661,37.959515,7025.3120352,-87.318,0.833,177.438
3.3066,128.18166,37.959469,7025.3400768,-85.859,0.849,177.328
3.3233,128.181659,37.959423,7025.36568,-84.425,0.868,177.222
3.34,128.181658,37.959376,7025.389149600001,-83.019,0.89,177.12
3.3567,128.181657,37.95933,7025.4110952,-81.699,0.91,177.036
3.3734,128.181657,37.959284,7025.4312119999995,-80.452,0.925,176.984
3.3901,128.181656,37.959237,7025.449500000001,-79.26,0.934,176.978
3.4068,128.181655,37.959191,7025.465959200001,-78.108,0.934,177.031
3.4235,128.181655,37.959145,7025.4805896,-76.98,0.928,177.13
3.4402,128.181654,37.959098,7025.493696,-75.861,0.917,177.26
3.4569,128.181654,37.959052,7025.5046688,-74.737,0.904,177.406
3.4736,128.181654,37.959005,7025.514117600001,-73.596,0.89,177.558
3.4903,128.181653,37.958959,7025.5214328,-72.427,0.876,177.711
3.507,128.181653,37.958912,7025.5269192000005,-71.221,0.862,177.862
3.5237,128.181653,37.958866,7025.530272,-69.969,0.848,178.008
3.5404,128.181652,37.95882,7025.533015200001,-68.851,0.824,178.145
3.5571,128.181652,37.958773,7025.5339296,-67.862,0.791,178.272
3.5738,128.181652,37.958727,7025.5333200000005,-67.003,0.752,178.389
3.5905,128.181652,37.95868,7025.5314912,-66.275,0.711,178.498
3.6072,128.181652,37.958634,7025.528138400001,-65.677,0.669,178.6
3.6239,128.181652,37.958587,7025.5238712,-65.205,0.629,178.696
3.6406,128.181652,37.958541,7025.5183848,-64.856,0.589,178.785
3.6573,128.181652,37.958494,7025.511679200001,-64.626,0.551,178.868
3.674,128.181652,37.958448,7025.504364,-64.51,0.514,178.946
3.6907,128.181652,37.958401,7025.4961344,-64.506,0.478,179.018
3.7074,128.181652,37.958355,7025.4872952000005,-64.611,0.445,179.085
3.7241,128.181652,37.958308,7025.477846400001,-64.821,0.415,179.147
3.7408,128.181652,37.958262,7025.467788000001,-65.135,0.388,179.205
3.7575,128.181653,37.958215,7025.457120000001,-65.546,0.363,179.258
3.7742,128.181653,37.958169,7025.446147200001,-66.053,0.34,179.308
3.7909,128.181653,37.958122,7025.4351744000005,-66.652,0.32,179.353
3.8076,128.181654,37.958076,7025.4232872,-67.34,0.302,179.394
3.8243,128.181654,37.958029,7025.4107904,-68.115,0.286,179.432
3.841,128.181655,37.957982,7025.3976840000005,-68.971,0.272,179.465
3.8577,128.181656,37.957936,7025.3833584,-69.899,0.26,179.496
3.8744,128.181656,37.957889,7025.368118400001,-70.885,0.251,179.524
3.8911,128.181657,37.957843,7025.3510496,-71.917,0.245,179.55
3.9078,128.181658,37.957796,7025.3327616,-72.987,0.241,179.573
3.9245,128.181659,37.95775,7025.3129496,-74.085,0.24,179.594
3.9412,128.181659,37.957703,7025.2913088000005,-75.204,0.241,179.613
3.9579,128.18166,37.957657,7025.2678392,-76.339,0.244,179.629
3.9746,128.181661,37.95761,7025.242236,-77.485,0.249,179.644
3.9913,128.181662,37.957564,7025.214804,-78.635,0.254,179.657
4.008,128.181663,37.957517,7025.1855432,-79.787,0.261,179.667
4.0247,128.181664,37.95747,7025.1541488,-80.937,0.268,179.676
4.0414,128.181665,37.957424,7025.120316,-82.083,0.277,179.683
4.058,128.181666,37.957377,7025.0846544000005,-83.222,0.285,179.689
4.0748,128.181667,37.957331,7025.0465544,-84.352,0.295,179.692
4.0915,128.181668,37.957284,7025.006016,-85.471,0.304,179.694
4.1082,128.181669,37.957237,7024.963344,-86.578,0.314,179.694
4.1249,128.18167,37.957191,7024.918538400001,-87.672,0.323,179.693
4.1415,128.181671,37.957144,7024.8709896,-88.75,0.333,179.69
4.1583,128.181672,37.957097,7024.8213072,-89.813,0.343,179.686
4.175,128.181673,37.957051,7024.769186400001,-90.859,0.352,179.68
4.1917,128.181675,37.957004,7024.7146272,-91.886,0.36,179.673
4.2084,128.181676,37.956957,7024.657629599999,-92.891,0.366,179.665
4.2251,128.181677,37.956911,7024.5981936,-93.876,0.371,179.655
4.2417,128.181678,37.956864,7024.5363192,-94.842,0.374,179.645
4.2585,128.181679,37.956817,7024.472006400001,-95.789,0.377,179.634
4.2752,128.18168,37.956771,7024.4052552,-96.716,0.379,179.621
4.2919,128.181682,37.956724,7024.3360656,-97.626,0.381,179.608
4.3086,128.181683,37.956677,7024.264132800001,-98.516,0.382,179.594
4.3252,128.181684,37.95663,7024.1897616,-99.388,0.382,179.579
4.342,128.181685,37.956584,7024.112952,-100.242,0.382,179.563
4.3587,128.181686,37.956537,7024.033704,-101.077,0.381,179.547
4.3754,128.181688,37.95649,7023.9517128,-101.894,0.38,179.53
4.3921,128.181689,37.956443,7023.867283200001,-102.693,0.378,179.513
4.4088,128.18169,37.956397,7023.780415200001,-103.474,0.375,179.495
4.4254,128.181692,37.95635,7023.690804,-104.237,0.372,179.477
4.4422,128.181693,37.956303,7023.599059200001,-104.982,0.368,179.458
4.4589,128.181694,37.956256,7023.5042664,-105.709,0.364,179.439
4.4756,128.181695,37.956209,7023.40734,-106.419,0.359,179.42
4.4923,128.181697,37.956163,7023.3076704000005,-107.112,0.353,179.401
4.5089,128.181698,37.956116,7023.2055624,-107.786,0.347,179.381
4.5256,128.181699,37.956069,7023.101016,-108.442,0.341,179.361
4.5424,128.181701,37.956022,7022.9937264,-109.081,0.333,179.341
4.5591,128.181702,37.955975,7022.8839984,-109.701,0.325,179.321
4.5758,128.181703,37.955928,7022.771832,-110.304,0.317,179.301
4.5925,128.181705,37.955882,7022.6572272,-110.888,0.308,179.281
4.6091,128.181706,37.955835,7022.5398792000005,-111.455,0.299,179.261
4.6259,128.181707,37.955788,7022.420397600001,-112.006,0.289,179.24
4.6426,128.181709,37.955741,7022.2981728,-112.54,0.279,179.22
4.6593,128.18171,37.955694,7022.1735096,-113.059,0.268,179.2
4.676,128.181711,37.955647,7022.0461032,-113.561,0.256,179.18
4.6927,128.181713,37.9556,7021.9165632,-114.047,0.245,179.16
4.7093,128.181714,37.955553,7021.7845848,-114.516,0.233,179.14
4.7261,128.181716,37.955506,7021.6498632,-114.968,0.22,179.12
4.7428,128.181717,37.955459,7021.513008,-115.405,0.207,179.1
4.7595,128.181718,37.955412,7021.373409600001,-115.825,0.194,179.081
4.7762,128.18172,37.955365,7021.2313728,-116.229,0.18,179.062
4.7928,128.181721,37.955318,7021.0872024,-116.618,0.166,179.042
4.8096,128.181722,37.955271,7020.9402887999995,-116.992,0.151,179.023
4.8263,128.181724,37.955224,7020.7909368,-117.353,0.136,179.005
4.843,128.181725,37.955177,7020.639146400001,-117.7,0.121,178.986
4.8597,128.181727,37.95513,7020.4849176,-118.034,0.106,178.968
4.8764,128.181728,37.955083,7020.328250400001,-118.353,0.09,178.949
4.893,128.181729,37.955036,7020.1694496,-118.657,0.073,178.932
4.9098,128.181731,37.954989,7020.0079056,-118.947,0.055,178.915
4.9265,128.181732,37.954942,7019.844228000001,-119.222,0.037,178.898
4.9432,128.181734,37.954895,7019.6778072,-119.482,0.018,178.882
4.9599,128.181735,37.954848,7019.5092528,-119.728,-0.001,178.867
4.9765,128.181737,37.954801,7019.33826,-119.962,-0.021,178.852
4.9932,128.181738,37.954754,7019.164828800001,-120.185,-0.043,178.837
5.01,128.181739,37.954707,7018.989568800001,-120.376,-0.066,178.824
5.0267,128.181741,37.954659,7018.811870400001,-120.537,-0.09,178.812
5.0434,128.181742,37.954612,7018.632038400001,-120.734,-0.119,178.803
5.0601,128.181744,37.954565,7018.4491584,-120.971,-0.152,178.797
5.0767,128.181745,37.954518,7018.2638400000005,-121.252,-0.188,178.792
5.0935,128.181747,37.954471,7018.075168800001,-121.571,-0.225,178.787
5.1102,128.181748,37.954424,7017.8834496,-121.921,-0.262,178.782
5.1269,128.18175,37.954376,7017.6886824,-122.299,-0.299,178.777
5.1436,128.181751,37.954329,7017.491172,-122.7,-0.334,178.771
5.1602,128.181753,37.954282,7017.2906136,-123.118,-0.369,178.765
5.1769,128.181754,37.954235,7017.087312,-123.548,-0.404,178.758
5.1937,128.181756,37.954188,7016.8812672,-123.99,-0.438,178.751
5.2104,128.181757,37.95414,7016.672174400001,-124.441,-0.472,178.743
5.2271,128.181759,37.954093,7016.460033600001,-124.91,-0.507,178.736
5.2438,128.18176,37.954046,7016.24454,-125.403,-0.543,178.729
5.2604,128.181762,37.953999,7016.0259984,-125.924,-0.58,178.722
5.2772,128.181764,37.953952,7015.804408800001,-126.473,-0.619,178.716
5.2939,128.181765,37.953904,7015.5794664,-127.05,-0.658,178.71
5.3106,128.181767,37.953857,7015.3511712,-127.658,-0.697,178.703
5.3273,128.181769,37.95381,7015.119523200001,-128.304,-0.737,178.697
5.3439,128.18177,37.953763,7014.8842176,-128.989,-0.778,178.691
5.3606,128.181772,37.953715,7014.6452544,-129.716,-0.82,178.685
5.3774,128.181774,37.953668,7014.4029384000005,-130.485,-0.863,178.679
5.3941,128.181775,37.953621,7014.156660000001,-131.3,-0.906,178.673
5.4108,128.181777,37.953573,7013.9064192000005,-132.17,-0.951,178.667
5.4275,128.181779,37.953526,7013.6519112000005,-133.099,-0.996,178.662
5.4441,128.181781,37.953479,7013.393136000001,-134.096,-1.044,178.658
5.4609,128.181782,37.953432,7013.1300936,-135.166,-1.092,178.654
5.4776,128.181784,37.953384,7012.862174400001,-136.312,-1.143,178.65
5.4943,128.181786,37.953337,7012.589683200001,-137.539,-1.194,178.647
5.511,128.181788,37.95329,7012.312315200001,-138.849,-1.247,178.645
5.5277,128.18179,37.953242,7012.0303752,-140.238,-1.3,178.643
5.5443,128.181792,37.953195,7011.743253600001,-141.703,-1.354,178.641
5.5611,128.181794,37.953148,7011.45156,-143.241,-1.409,178.639
5.5778,128.181796,37.9531,7011.1549896,-144.849,-1.464,178.637
5.5945,128.181798,37.953053,7010.853542400001,-146.523,-1.519,178.636
5.6112,128.1818,37.953006,7010.5469136,-148.26,-1.575,178.635
5.6278,128.181802,37.952959,7010.2354080000005,-150.056,-1.631,178.635
5.6445,128.181804,37.952911,7009.9190256,-151.909,-1.688,178.635
5.6613,128.181806,37.952864,7009.597461599999,-153.814,-1.744,178.637
5.678,128.181808,37.952817,7009.2710208,-155.77,-1.801,178.639
5.6947,128.181811,37.952769,7008.9390936,-157.773,-1.858,178.643
5.7114,128.181813,37.952722,7008.6022896,-159.82,-1.915,178.648
5.728,128.181815,37.952675,7008.2599992000005,-161.909,-1.972,178.653
5.7448,128.181817,37.952628,7007.9125272,-164.038,-2.028,178.66
5.7615,128.181819,37.95258,7007.5598736,-166.203,-2.083,178.667
5.7782,128.181821,37.952533,7007.201733600001,-168.403,-2.138,178.675
5.7949,128.181824,37.952486,7006.8381072,-170.634,-2.192,178.685
5.8115,128.181826,37.952438,7006.4692992,-172.895,-2.245,178.695
5.8282,128.181828,37.952391,7006.094700000001,-175.182,-2.297,178.705
5.845,128.18183,37.952344,7005.714614400001,-177.493,-2.348,178.717
5.8617,128.181832,37.952296,7005.329042400001,-179.827,-2.398,178.73
5.8784,128.181835,37.952249,7004.937984000001,177.819,-2.446,178.743
5.8951,128.181837,37.952202,7004.5411343999995,175.447,-2.493,178.758
5.9117,128.181839,37.952155,7004.1387984,173.06,-2.538,178.773
5.9285,128.181841,37.952107,7003.7306712,170.658,-2.582,178.788
5.9452,128.181843,37.95206,7003.3170576,168.245,-2.624,178.804
5.9619,128.181846,37.952013,7002.8976528,165.821,-2.664,178.821
5.9786,128.181848,37.951965,7002.472456800001,163.389,-2.703,178.838
5.9952,128.18185,37.951918,7002.041469600001,160.95,-2.74,178.855
6.0119,128.181852,37.951871,7001.604996000001,158.505,-2.775,178.873
6.0287,128.181854,37.951823,7001.1624264,156.056,-2.808,178.89
6.0454,128.181856,37.951776,7000.7146752,153.604,-2.839,178.907
6.0621,128.181858,37.951729,7000.260828,151.151,-2.869,178.924
6.0788,128.181861,37.951682,6999.8017992000005,148.698,-2.896,178.941
6.0954,128.181863,37.951634,6999.336979200001,146.245,-2.922,178.957
6.1121,128.181865,37.951587,6998.866672800001,143.795,-2.946,178.973
6.1289,128.181867,37.95154,6998.3905752,141.347,-2.97,178.989
6.1456,128.181869,37.951492,6997.908991200001,138.904,-2.999,179.01
6.1623,128.18187,37.951445,6997.4219207999995,136.464,-3.035,179.039
6.179,128.181872,37.951398,6996.9293640000005,134.03,-3.081,179.077
6.1956,128.181874,37.95135,6996.4313208,131.601,-3.135,179.127
6.2124,128.181876,37.951303,6995.927791200001,129.179,-3.197,179.189
6.2291,128.181878,37.951256,6995.4187752,126.764,-3.267,179.263
6.2458,128.18188,37.951208,6994.9042728,124.359,-3.342,179.349
6.2625,128.181881,37.951161,6994.384284000001,121.963,-3.421,179.448
6.2791,128.181883,37.951114,6993.8591136000005,119.579,-3.503,179.558
6.2958,128.181884,37.951066,6993.328456800001,117.206,-3.586,179.679
6.3126,128.181886,37.951019,6992.792923200001,114.846,-3.667,179.809
6.3293,128.181887,37.950972,6992.2519032,112.5,-3.747,179.947
6.346,128.181889,37.950924,6991.7063112000005,110.166,-3.823,180.093
6.3627,128.18189,37.950877,6991.1558424,107.844,-3.894,180.244
6.3793,128.181891,37.95083,6990.6008016000005,105.534,-3.959,180.4
6.3961,128.181892,37.950782,6990.0411888,103.235,-4.017,180.555
6.4128,128.181893,37.950735,6989.4776136,100.946,-4.068,180.711
6.4295,128.181894,37.950688,6988.9103808,98.666,-4.112,180.866
6.4462,128.181895,37.95064,6988.3391856,96.393,-4.148,181.02
6.4628,128.181896,37.950593,6987.7646376,94.128,-4.178,181.176
6.4795,128.181896,37.950546,6987.187346400001,91.867,-4.2,181.334
6.4963,128.181897,37.950498,6986.6070072,89.611,-4.215,181.493
6.513,128.181898,37.950451,6986.0242296,87.358,-4.223,181.65
6.5297,128.181898,37.950403,6985.439623200001,85.106,-4.224,181.806
6.5464,128.181898,37.950356,6984.853188000001,82.856,-4.218,181.96
6.5631,128.181898,37.950309,6984.265228800001,80.605,-4.204,182.113
6.5798,128.181898,37.950261,6983.676660000001,78.353,-4.184,182.264
6.5965,128.181898,37.950214,6983.087176800001,76.098,-4.157,182.415
6.6132,128.181898,37.950167,6982.4976936,73.84,-4.122,182.562
6.6299,128.181898,37.950119,6981.908210400001,71.578,-4.082,182.707
6.6466,128.181898,37.950072,6981.3193368,69.31,-4.034,182.849
6.6633,128.181897,37.950024,6980.731682400001,67.036,-3.979,182.989
6.68,128.181896,37.949977,6980.145247200001,64.755,-3.917,183.127
6.6967,128.181896,37.94993,6979.5606408,62.466,-3.849,183.261
6.7134,128.181895,37.949882,6978.978168000001,60.168,-3.774,183.392
6.7301,128.181894,37.949835,6978.3984384000005,57.86,-3.693,183.519
6.7468,128.181893,37.949788,6977.821756800001,55.542,-3.604,183.643
6.7635,128.181892,37.94974,6977.248732800001,53.213,-3.509,183.763
6.7802,128.181891,37.949693,6976.6793664,50.872,-3.406,183.881
6.7969,128.181889,37.949645,6976.1142672000005,48.518,-3.296,183.994
6.8136,128.181888,37.949598,6975.55374,46.152,-3.184,184.099
6.8303,128.181886,37.949551,6974.9977848,43.785,-3.067,184.197
6.847,128.181885,37.949503,6974.446401600001,41.462,-2.948,184.292
6.8637,128.181883,37.949456,6973.9002,39.226,-2.827,184.385
6.8804,128.181881,37.949408,6973.358570400001,37.093,-2.706,184.475
6.8971,128.18188,37.949361,6972.8215128,35.096,-2.584,184.563
6.9138,128.181878,37.949314,6972.2896368,33.262,-2.46,184.649
6.9305,128.181876,37.949266,6971.762332800001,31.603,-2.334,184.734
6.9472,128.181874,37.949219,6971.2396008000005,30.113,-2.204,184.816
6.9639,128.181872,37.949171,6970.722050400001,28.584,-2.078,184.876
6.9806,128.18187,37.949124,6970.2096816,27.017,-1.969,184.907
6.9973,128.181867,37.949077,6969.7034088,25.405,-1.895,184.908
7.014,128.181865,37.949029,6969.2026224,23.743,-1.871,184.876
7.0307,128.181863,37.948982,6968.7076272,22.029,-1.913,184.811
7.0474,128.181861,37.948934,6968.219032800001,20.262,-2.008,184.723
7.0641,128.181858,37.948887,6967.7365344,18.441,-2.14,184.622
7.0808,128.181856,37.948839,6967.2607416,16.564,-2.293,184.516
7.0975,128.181853,37.948792,6966.7904352000005,14.821,-2.456,184.433
7.1142,128.181851,37.948744,6966.3253104000005,13.205,-2.61,184.378
7.1309,128.181849,37.948697,6965.8650624,11.722,-2.737,184.347
7.1476,128.181846,37.94865,6965.409081600001,10.377,-2.819,184.336
7.1643,128.181844,37.948602,6964.957368,9.171,-2.855,184.34
7.181,128.181841,37.948555,6964.5083976000005,8.103,-2.856,184.351
7.1977,128.181838,37.948507,6964.062475199999,7.169,-2.837,184.367
7.2144,128.181836,37.94846,6963.6186864,6.365,-2.809,184.383
7.2311,128.181833,37.948412,6963.1770312,5.687,-2.78,184.4
7.2478,128.181831,37.948365,6962.7365952,5.131,-2.752,184.415
7.2645,128.181828,37.948317,6962.2976832,4.691,-2.729,184.429
7.2812,128.181826,37.94827,6961.8593808000005,4.363,-2.711,184.441
7.2979,128.181823,37.948222,6961.4213832000005,4.143,-2.698,184.452
7.3146,128.18182,37.948175,6960.9836904,4.026,-2.691,184.461
7.3313,128.181818,37.948127,6960.545692800001,4.007,-2.687,184.47
7.348,128.181815,37.94808,6960.107085600001,4.083,-2.686,184.478
7.3647,128.181812,37.948032,6959.667564,4.249,-2.688,184.486
7.3814,128.18181,37.947985,6959.226823200001,4.503,-2.69,184.493
7.3981,128.181807,37.947937,6958.7854728,4.84,-2.693,184.499
7.4148,128.181804,37.94789,6958.343208,5.259,-2.694,184.506
7.4315,128.181802,37.947842,6957.900028800001,5.754,-2.694,184.513
7.4482,128.181799,37.947794,6957.45624,6.325,-2.691,184.52
7.4649,128.181796,37.947747,6957.0118416000005,6.968,-2.684,184.527
7.4816,128.181794,37.947699,6956.566528800001,7.68,-2.674,184.536
7.4983,128.181791,37.947652,6956.120911200001,8.459,-2.659,184.545
7.515,128.181788,37.947604,6955.6749887999995,9.303,-2.639,184.555
7.5317,128.181786,37.947556,6955.2284568000005,10.21,-2.613,184.566
7.5484,128.181783,37.947509,6954.781620000001,11.178,-2.581,184.58
7.5651,128.18178,37.947461,6954.334478400001,12.204,-2.543,184.595
7.5818,128.181777,37.947413,6953.8876416,13.286,-2.499,184.613
7.5985,128.181775,37.947366,6953.440500000001,14.424,-2.448,184.633
7.6152,128.181772,37.947318,6952.9936632,15.615,-2.39,184.657
7.6319,128.181769,37.94727,6952.5471312,16.858,-2.326,184.684
7.6486,128.181766,37.947223,6952.101208800001,18.151,-2.255,184.716
7.6653,128.181763,37.947175,6951.6555912,19.493,-2.178,184.752
7.682,128.18176,37.947127,6951.2108880000005,20.883,-2.094,184.793
7.6987,128.181758,37.94708,6950.7670992,22.319,-2.005,184.839
7.7154,128.181755,37.947032,6950.324224800001,23.8,-1.909,184.891
7.7321,128.181752,37.946984,6949.8825696,25.326,-1.808,184.95
7.7488,128.181749,37.946936,6949.4421336000005,26.894,-1.702,185.015
7.7655,128.181746,37.946889,6949.0032216,28.506,-1.592,185.087
7.7822,128.181743,37.946841,6948.5661384,30.158,-1.477,185.167
7.7989,128.18174,37.946793,6948.1302744,31.852,-1.359,185.255
7.8156,128.181737,37.946745,6947.6974584,33.572,-1.237,185.351
7.8323,128.181734,37.946697,6947.2673856,35.303,-1.112,185.454
7.849,128.181731,37.94665,6946.840360800001,37.032,-0.984,185.564
7.8657,128.181727,37.946602,6946.4166888,38.747,-0.859,185.677
7.8824,128.181724,37.946554,6945.996674400001,40.439,-0.742,185.789
7.8991,128.181721,37.946506,6945.580622400001,42.101,-0.638,185.897
7.9158,128.181717,37.946458,6945.167923200001,43.727,-0.549,185.998
7.9325,128.181714,37.946411,6944.7591864000005,45.312,-0.477,186.089
7.9492,128.18171,37.946363,6944.3541072,46.855,-0.421,186.171
7.9659,128.181707,37.946315,6943.9529904,48.352,-0.375,186.25
7.9826,128.181703,37.946267,6943.5552264,49.803,-0.336,186.327
7.9993,128.181699,37.946219,6943.160815200001,51.204,-0.306,186.399
8.016,128.181695,37.946172,6942.7700616,52.554,-0.286,186.464
8.0327,128.181692,37.946124,6942.382356000001,53.852,-0.276,186.521
8.0494,128.181688,37.946076,6941.9976983999995,55.095,-0.276,186.569
8.0661,128.181684,37.946028,6941.6160887999995,56.281,-0.284,186.607
8.0828,128.181679,37.94598,6941.2372224,57.408,-0.301,186.636
8.0994,128.181675,37.945933,6940.861404,58.47,-0.324,186.656
8.1161,128.181671,37.945885,6940.488024,59.464,-0.352,186.668
8.1329,128.181666,37.945837,6940.117387200001,60.381,-0.385,186.674
8.1496,128.181662,37.945789,6939.748579200001,61.295,-0.424,186.676
8.1663,128.181657,37.945741,6939.3812952,62.16,-0.467,186.674
8.183,128.181653,37.945694,6939.0161448,62.936,-0.507,186.669
8.1997,128.181648,37.945646,6938.6522136,63.704,-0.543,186.678
8.2164,128.181643,37.945598,6938.289806400001,64.466,-0.568,186.716
8.2331,128.181638,37.94555,6937.9286184,65.221,-0.578,186.795
8.2498,128.181633,37.945503,6937.5683448,65.968,-0.566,186.924
8.2665,128.181628,37.945455,6937.209900000001,66.705,-0.529,187.114
8.2831,128.181623,37.945407,6936.852979200001,67.428,-0.467,187.365
8.2998,128.181617,37.945359,6936.496972800001,68.136,-0.386,187.667
8.3166,128.181612,37.945312,6936.1427952,68.825,-0.292,188.007
8.3333,128.181607,37.945264,6935.7901416,69.494,-0.192,188.372
8.35,128.181601,37.945216,6935.4387072,70.14,-0.093,188.746
8.3667,128.181595,37.945168,6935.0891016000005,70.763,0.0,189.115
8.3834,128.18159,37.945121,6934.7407152000005,71.361,0.084,189.473
8.4001,128.181584,37.945073,6934.3938528,71.934,0.16,189.818
8.4168,128.181578,37.945025,6934.0485144,72.484,0.226,190.148
8.4335,128.181571,37.944977,6933.7047,73.01,0.284,190.465
8.4502,128.181565,37.94493,6933.3624096,73.59,0.328,190.771
8.4668,128.181559,37.944882,6933.021338400001,74.22,0.36,191.065
8.4835,128.181552,37.944834,6932.6808768,74.888,0.382,191.347
8.5003,128.181546,37.944787,6932.341024800001,75.585,0.398,191.619
8.517,128.181539,37.944739,6932.002392,76.298,0.409,191.88
8.5337,128.181532,37.944691,6931.6643688,77.017,0.416,192.132
8.5504,128.181525,37.944644,6931.327260000001,77.733,0.418,192.375
8.5671,128.181518,37.944596,6930.9907608,78.437,0.418,192.61
8.5838,128.18151,37.944548,6930.6548712,79.123,0.413,192.839
8.6005,128.181503,37.944501,6930.3195912,79.786,0.405,193.062
8.6172,128.181495,37.944453,6929.9849208,80.421,0.394,193.279
8.6339,128.181487,37.944406,6929.650555200001,81.028,0.379,193.492
8.6505,128.18148,37.944358,6929.3161896,81.604,0.361,193.701
8.6672,128.181472,37.944311,6928.9821288,82.149,0.34,193.906
8.684,128.181463,37.944263,6928.648068,82.663,0.316,194.109
8.7007,128.181455,37.944216,6928.3140072,83.148,0.29,194.308
8.7174,128.181446,37.944168,6927.9793368,83.606,0.262,194.506
8.7341,128.181438,37.944121,6927.6446664,84.04,0.234,194.7
8.7508,128.181429,37.944073,6927.3093864,84.449,0.205,194.893
8.7675,128.18142,37.944026,6926.9734968,84.834,0.174,195.083
8.7842,128.181411,37.943979,6926.6373023999995,85.197,0.141,195.272
8.8009,128.181401,37.943931,6926.3001936,85.539,0.107,195.459
8.8176,128.181392,37.943884,6925.9624752,85.861,0.072,195.643
8.8342,128.181382,37.943837,6925.6238424,86.166,0.034,195.826
8.8509,128.181373,37.943789,6925.2842952,86.454,-0.003,196.008
8.8676,128.181363,37.943742,6924.943833600001,86.727,-0.043,196.188
8.8844,128.181353,37.943695,6924.6021528,86.987,-0.084,196.366
8.9011,128.181343,37.943648,6924.2595576,87.235,-0.126,196.543
8.9178,128.181332,37.9436,6923.9157432,87.471,-0.169,196.718
8.9345,128.181322,37.943553,6923.570709600001,87.699,-0.213,196.892
8.9512,128.181311,37.943506,6923.224456800001,87.917,-0.258,197.065
8.9679,128.1813,37.943459,6922.87668,88.127,-0.304,197.237
8.9846,128.181289,37.943412,6922.527379200001,88.33,-0.35,197.407
9.0013,128.181278,37.943365,6922.176859200001,88.527,-0.397,197.577
9.0179,128.181267,37.943318,6921.824815200001,88.718,-0.444,197.745
9.0346,128.181255,37.943271,6921.471247200001,88.904,-0.492,197.912
9.0513,128.181244,37.943224,6921.1158504,89.085,-0.541,198.078
9.0681,128.181232,37.943177,6920.7589296,89.263,-0.589,198.244
9.0848,128.18122,37.94313,6920.4004848,89.437,-0.638,198.408
9.1015,128.181208,37.943083,6920.039906400001,89.609,-0.687,198.572
9.1182,128.181196,37.943036,6919.677804,89.778,-0.736,198.735
9.1349,128.181183,37.94299,6919.3138728,89.944,-0.785,198.897
9.1516,128.181171,37.942943,6918.947808,90.108,-0.835,199.059
9.1683,128.181158,37.942896,6918.580219200001,90.27,-0.886,199.22
9.185,128.181145,37.942849,6918.210801600001,90.467,-0.942,199.38
9.2016,128.181133,37.942803,6917.8392504,90.702,-1.002,199.539
9.2183,128.181119,37.942756,6917.465870400001,90.993,-1.066,199.698
9.235,128.181106,37.942709,6917.0900520000005,91.32,-1.129,199.855
9.2518,128.181093,37.942663,6916.712100000001,91.674,-1.193,200.012
9.2685,128.181079,37.942616,6916.3317096,92.049,-1.255,200.169
9.2852,128.181066,37.942569,6915.948880800001,92.446,-1.317,200.324
9.3019,128.181052,37.942523,6915.5636136,92.864,-1.38,200.479
9.3186,128.181038,37.942476,6915.1756032,93.306,-1.445,200.634
9.3353,128.181024,37.94243,6914.7854592,93.775,-1.511,200.788
9.352,128.18101,37.942384,6914.3922672,94.276,-1.58,200.941
9.3687,128.180995,37.942337,6913.996332000001,94.814,-1.651,201.093
9.3854,128.180981,37.942291,6913.5976536,95.393,-1.726,201.245
9.402,128.180966,37.942244,6913.1959272,96.017,-1.803,201.396
9.4187,128.180952,37.942198,6912.7914576,96.694,-1.884,201.547
9.4355,128.180937,37.942152,6912.3830256,97.351,-1.964,201.697
9.4522,128.180922,37.942105,6911.970936000001,97.988,-2.041,201.847
9.4689,128.180907,37.942059,6911.5554936,98.609,-2.119,201.998
9.4856,128.180891,37.942013,6911.1363936,99.22,-2.199,202.148
9.5023,128.180876,37.941967,6910.7133312000005,99.825,-2.282,202.298
9.519,128.18086,37.941921,6910.286306400001,100.431,-2.369,202.448
9.5357,128.180845,37.941875,6909.8534904,100.953,-2.442,202.587
9.5524,128.180829,37.941829,6909.416712,101.396,-2.5,202.7
9.5691,128.180813,37.941783,6908.9756664,101.758,-2.543,202.773
9.5857,128.180797,37.941737,6908.529744,102.035,-2.571,202.79
9.6024,128.18078,37.941691,6908.0795544,102.229,-2.585,202.739
9.6192,128.180764,37.941645,6907.625097600001,102.341,-2.581,202.605
9.6359,128.180747,37.941599,6907.166373600001,102.373,-2.563,202.404
9.6526,128.180731,37.941553,6906.7027728,102.328,-2.535,202.154
9.6693,128.180714,37.941507,6906.2352096,102.209,-2.502,201.874
9.686,128.180697,37.941462,6905.7636840000005,102.031,-2.468,201.585
9.7027,128.18068,37.941416,6905.2885008,101.81,-2.437,201.304
9.7194,128.180663,37.94137,6904.809355200001,101.556,-2.413,201.043
9.7361,128.180646,37.941325,6904.326856800001,101.276,-2.396,200.802
9.7528,128.180628,37.941279,6903.8410056,100.974,-2.383,200.581
9.7694,128.180611,37.941233,6903.351496800001,100.647,-2.374,200.377
9.7861,128.180593,37.941188,6902.8586352,100.293,-2.368,200.19
9.8029,128.180576,37.941142,6902.3627256,99.904,-2.364,200.017
9.8196,128.180558,37.941097,6901.8634632,99.474,-2.362,199.857
9.8363,128.18054,37.941051,6901.360848,98.991,-2.36,199.71
9.853,128.180523,37.941006,6900.8551848,98.453,-2.358,199.575
9.8697,128.180505,37.94096,6900.3464736000005,97.861,-2.358,199.45
9.8864,128.180487,37.940915,6899.835324000001,97.217,-2.358,199.334
9.9031,128.180469,37.940869,6899.3211264,96.521,-2.361,199.228
9.9198,128.18045,37.940824,6898.8044904,95.776,-2.364,199.129
9.9365,128.180432,37.940779,6898.285111200001,94.985,-2.368,199.038
9.9531,128.180414,37.940733,6897.7635984,94.149,-2.374,198.953
9.9698,128.180395,37.940688,6897.239647200001,93.27,-2.38,198.875
9.9865,128.180377,37.940643,6896.7135624,92.349,-2.387,198.803
10.0033,128.180358,37.940598,6896.185344,91.389,-2.395,198.736
10.02,128.18034,37.940552,6895.654992000001,90.391,-2.404,198.673
10.0367,128.180321,37.940507,6895.122811200001,89.355,-2.414,198.615
10.0534,128.180302,37.940462,6894.5900208,88.496,-2.439,198.561
10.0701,128.180284,37.940417,6894.055401600001,87.809,-2.478,198.511
10.0868,128.180265,37.940371,6893.5180392,87.081,-2.512,198.48
10.1035,128.180246,37.940326,6892.9794576,86.32,-2.533,198.485
10.1202,128.180227,37.940281,6892.439352000001,85.522,-2.544,198.54
10.1368,128.180208,37.940236,6891.8977224,84.683,-2.546,198.659
10.1535,128.180189,37.940191,6891.355178400001,83.799,-2.538,198.852
10.1702,128.180169,37.940146,6890.811720000001,82.871,-2.519,199.122
10.187,128.18015,37.940101,6890.267652,81.925,-2.49,199.47
10.2037,128.180131,37.940056,6889.722974400001,81.03,-2.453,199.89
10.2204,128.180111,37.940011,6889.177992000001,80.23,-2.411,200.367
10.2371,128.180092,37.939966,6888.6327048,79.551,-2.365,200.885
10.2538,128.180072,37.939921,6888.086808,79.001,-2.315,201.422
10.2705,128.180052,37.939876,6887.540606400001,78.573,-2.263,201.959
10.2872,128.180032,37.939831,6886.994100000001,78.257,-2.21,202.475
10.3039,128.180012,37.939786,6886.446984000001,78.036,-2.16,202.954
10.3205,128.179992,37.939742,6885.899868,77.894,-2.112,203.395
10.3372,128.179972,37.939697,6885.352447200001,77.815,-2.067,203.802
10.3539,128.179952,37.939652,6884.8050264,77.787,-2.025,204.178
10.3707,128.179932,37.939607,6884.258520000001,77.79,-1.991,204.529
10.3874,128.179911,37.939563,6883.7123184,77.816,-1.967,204.859
10.4041,128.179891,37.939518,6883.1664216,77.862,-1.949,205.17
10.4208,128.17987,37.939473,6882.6208295999995,77.928,-1.936,205.463
10.4375,128.179849,37.939429,6882.075847200001,78.012,-1.928,205.741
10.4542,128.179828,37.939384,6881.531169600001,78.11,-1.922,206.006
10.4709,128.179807,37.939339,6880.987101600001,78.222,-1.919,206.258
10.4876,128.179786,37.939295,6880.443338400001,78.343,-1.918,206.5
10.5042,128.179764,37.939251,6879.9004896,78.473,-1.919,206.732
10.5209,128.179743,37.939206,6879.357945600001,78.608,-1.921,206.956
10.5376,128.179721,37.939162,6878.815706400001,78.748,-1.925,207.172
10.5544,128.179699,37.939117,6878.2743816,78.891,-1.931,207.382
10.5711,128.179677,37.939073,6877.7333616,79.035,-1.937,207.586
10.5878,128.179655,37.939029,6877.192646400001,79.18,-1.945,207.784
10.6045,128.179633,37.938985,6876.652540800001,79.324,-1.954,207.978
10.6212,128.179611,37.938941,6876.1127400000005,79.468,-1.964,208.168
10.6379,128.179589,37.938897,6875.5735488,79.611,-1.975,208.355
10.6546,128.179566,37.938853,6875.0346624,79.752,-1.987,208.537
10.6713,128.179543,37.938809,6874.4960808000005,79.892,-2.0,208.717
10.6879,128.17952,37.938765,6873.957804000001,80.031,-2.013,208.894
10.7046,128.179497,37.938721,6873.4198320000005,80.169,-2.025,209.068
10.7213,128.179474,37.938677,6872.8821648,80.307,-2.038,209.239
10.7381,128.179451,37.938633,6872.344497600001,80.444,-2.05,209.408
10.7548,128.179428,37.93859,6871.8071352,80.581,-2.061,209.575
10.7715,128.179404,37.938546,6871.2697728,80.718,-2.072,209.739
10.7882,128.17938,37.938502,6870.732715200001,80.854,-2.082,209.903
10.8049,128.179357,37.938459,6870.1956576,80.99,-2.091,210.064
10.8216,128.179333,37.938415,6869.658600000001,81.126,-2.1,210.224
10.8383,128.179309,37.938372,6869.121542400001,81.261,-2.108,210.383
10.855,128.179284,37.938328,6868.5847896000005,81.395,-2.115,210.541
10.8717,128.17926,37.938285,6868.047732,81.529,-2.122,210.698
10.8883,128.179236,37.938242,6867.5106744,81.661,-2.128,210.855
10.905,128.179211,37.938198,6866.9736168,81.79,-2.134,211.01
10.9218,128.179186,37.938155,6866.4365592,81.917,-2.14,211.165
10.9385,128.179161,37.938112,6865.899501600001,82.04,-2.147,211.32
10.9552,128.179136,37.938069,6865.3621392,82.16,-2.154,211.474
10.9719,128.179111,37.938026,6864.8247768,82.277,-2.162,211.628
10.9886,128.179086,37.937983,6864.287109600001,82.39,-2.17,211.782
11.0053,128.17906,37.93794,6863.749442400001,82.5,-2.178,211.936
11.022,128.179035,37.937897,6863.2114704000005,82.606,-2.186,212.089
11.0387,128.179009,37.937855,6862.6731936,82.708,-2.195,212.242
11.0554,128.178983,37.937812,6862.1349168,82.806,-2.204,212.395
11.072,128.178957,37.937769,6861.5960304,82.899,-2.213,212.549
11.0887,128.178931,37.937727,6861.057144,82.988,-2.223,212.701
11.1054,128.178905,37.937684,6860.5179528,83.073,-2.232,212.854
11.1222,128.178878,37.937642,6859.978152000001,83.152,-2.242,213.007
11.1389,128.178852,37.937599,6859.4380464000005,83.227,-2.252,213.16
11.1556,128.178825,37.937557,6858.8979408000005,83.296,-2.262,213.312
11.1723,128.178798,37.937515,6858.3572256,83.36,-2.273,213.465
11.189,128.178771,37.937473,6857.8159008,83.418,-2.283,213.618
11.2057,128.178744,37.93743,6857.274576,83.471,-2.294,213.77
11.2224,128.178717,37.937388,6856.7326416000005,83.519,-2.304,213.923
11.2391,128.17869,37.937346,6856.190097600001,83.561,-2.315,214.075
11.2557,128.178662,37.937304,6855.6475536,83.597,-2.326,214.227
11.2724,128.178635,37.937262,6855.1040952,83.629,-2.336,214.38
11.2891,128.178607,37.937221,6854.560332,83.655,-2.347,214.532
11.3059,128.178579,37.937179,6854.016264000001,83.677,-2.358,214.684
11.3226,128.178551,37.937137,6853.4715864,83.694,-2.369,214.836
11.3393,128.178523,37.937095,6852.926604,83.707,-2.38,214.988
11.356,128.178494,37.937054,6852.381012,83.716,-2.391,215.14
11.3727,128.178466,37.937012,6851.8351152000005,83.721,-2.402,215.291
11.3894,128.178437,37.936971,6851.288304000001,83.723,-2.413,215.443
11.4061,128.178409,37.936929,6850.741492800001,83.723,-2.425,215.594
11.4228,128.17838,37.936888,6850.1937672,83.72,-2.436,215.746
11.4394,128.178351,37.936847,6849.6457368,83.715,-2.447,215.897
11.4561,128.178322,37.936806,6849.097401600001,83.708,-2.458,216.048
11.4728,128.178293,37.936765,6848.548152000001,83.701,-2.469,216.198
11.4896,128.178263,37.936724,6847.998597600001,83.692,-2.481,216.349
11.5063,128.178234,37.936683,6847.448738400001,83.682,-2.492,216.5
11.523,128.178204,37.936642,6846.8979648,83.671,-2.503,216.65
11.5397,128.178175,37.936601,6846.346886400001,83.658,-2.514,216.8
11.5564,128.178145,37.93656,6845.7955032,83.645,-2.525,216.95
11.5731,128.178115,37.936519,6845.243510400001,83.631,-2.535,217.1
11.5898,128.178085,37.936479,6844.6909080000005,83.615,-2.546,217.249
11.6065,128.178054,37.936438,6844.137696000001,83.598,-2.557,217.399
11.6231,128.178024,37.936398,6843.584179200001,83.581,-2.567,217.548
11.6398,128.177994,37.936357,6843.0300528,83.562,-2.577,217.697
11.6565,128.177963,37.936317,6842.4756216000005,83.543,-2.588,217.847
11.6733,128.177932,37.936276,6841.9205808,83.523,-2.598,217.996
11.69,128.177901,37.936236,6841.3652352,83.502,-2.608,218.144
11.7067,128.17787,37.936196,6840.8089752,83.481,-2.618,218.293
11.7234,128.177839,37.936156,6840.252715200001,83.459,-2.627,218.442
11.7401,128.177808,37.936116,6839.6955408,83.437,-2.637,218.59
11.7568,128.177776,37.936076,6839.1380616,83.415,-2.647,218.739
11.7735,128.177745,37.936036,6838.5802776,83.393,-2.656,218.887
11.7902,128.177713,37.935996,6838.021884000001,83.371,-2.666,219.035
11.8068,128.177681,37.935957,6837.4628808,83.349,-2.675,219.184
11.8235,128.17765,37.935917,6836.903572800001,83.328,-2.684,219.332
11.8402,128.177618,37.935877,6836.3436552,83.306,-2.693,219.48
11.857,128.177585,37.935838,6835.783432800001,83.285,-2.702,219.627
11.8737,128.177553,37.935798,6835.222600800001,83.265,-2.711,219.775
11.8904,128.177521,37.935759,6834.661464000001,83.245,-2.72,219.923
11.9071,128.177488,37.93572,6834.0997176,83.225,-2.729,220.071
11.9238,128.177456,37.93568,6833.5376664,83.206,-2.737,220.218
11.9405,128.177423,37.935641,6832.9750056,83.187,-2.746,220.366
11.9572,128.17739,37.935602,6832.41204,83.169,-2.754,220.513
11.9739,128.177357,37.935563,6831.848769600001,83.151,-2.763,220.661
11.9905,128.177324,37.935524,6831.2845848,83.134,-2.771,220.808
12.0072,128.17729,37.935485,6830.7204,83.117,-2.779,220.955
12.0239,128.177257,37.935446,6830.155605600001,83.101,-2.787,221.102
12.0407,128.177224,37.935408,6829.590201600001,83.085,-2.795,221.25
12.0574,128.17719,37.935369,6829.024797600001,83.069,-2.803,221.397
12.0741,128.177156,37.935331,6828.4584792000005,83.055,-2.811,221.544
12.0908,128.177122,37.935292,6827.891856000001,83.04,-2.819,221.691
12.1075,128.177088,37.935254,6827.324928000001,83.026,-2.826,221.838
12.1242,128.177054,37.935215,6826.7576952,83.012,-2.834,221.985
12.1409,128.17702,37.935177,6826.1898528,82.999,-2.842,222.132
12.1576,128.176986,37.935139,6825.621400800001,82.985,-2.849,222.279
12.1743,128.176951,37.935101,6825.0529488,82.973,-2.856,222.426
12.1909,128.176917,37.935063,6824.4835824,82.96,-2.864,222.573
12.2076,128.176882,37.935025,6823.914216,82.948,-2.871,222.719
12.2243,128.176847,37.934987,6823.34424,82.935,-2.878,222.866
12.2411,128.176812,37.934949,6822.773959200001,82.923,-2.885,223.013
12.2578,128.176777,37.934911,6822.2030688,82.912,-2.892,223.16
12.2745,128.176742,37.934874,6821.6318736,82.9,-2.899,223.307
12.2912,128.176707,37.934836,6821.0600688,82.889,-2.906,223.453
12.3079,128.176671,37.934798,6820.4882640000005,82.877,-2.913,223.6
12.3246,128.176636,37.934761,6819.9161544,82.876,-2.925,223.747
12.3413,128.1766,37.934724,6819.3434352,82.883,-2.943,223.895
12.358,128.176564,37.934686,6818.770411200001,82.903,-2.965,224.042
12.3746,128.176528,37.934649,6818.1967776,82.934,-2.989,224.19
12.3913,128.176492,37.934612,6817.6228392,82.978,-3.013,224.338
12.408,128.176456,37.934575,6817.0479864,83.033,-3.037,224.485
12.4248,128.17642,37.934538,6816.472828800001,83.1,-3.061,224.632
12.4415,128.176384,37.934501,6815.8970616,83.176,-3.085,224.78
12.4582,128.176347,37.934464,6815.3206848,83.26,-3.107,224.927
12.4749,128.176311,37.934427,6814.7436984,83.351,-3.129,225.073
12.4916,128.176274,37.934391,6814.1661023999995,83.448,-3.15,225.22
12.5083,128.176237,37.934354,6813.587592000001,83.549,-3.17,225.367
12.525,128.1762,37.934317,6813.0087768,83.655,-3.188,225.514
12.5417,128.176163,37.934281,6812.4287424,83.765,-3.206,225.661
12.5583,128.176126,37.934245,6811.8484032,83.877,-3.223,225.808
12.575,128.176089,37.934208,6811.2671496,83.992,-3.239,225.955
12.5917,128.176052,37.934172,6810.6849816,84.109,-3.253,226.102
12.6085,128.176014,37.934136,6810.102204,84.227,-3.267,226.249
12.6252,128.175976,37.9341,6809.518512,84.345,-3.28,226.397
12.6419,128.175939,37.934064,6808.934210400001,84.463,-3.292,226.544
12.6586,128.175901,37.934028,6808.3486896,84.579,-3.305,226.692
12.6753,128.175863,37.933992,6807.7625592,84.693,-3.317,226.84
12.692,128.175825,37.933956,6807.175514400001,84.804,-3.33,226.989
12.7087,128.175787,37.933921,6806.587555200001,84.912,-3.342,227.138
12.7254,128.175748,37.933885,6805.9986816,85.016,-3.355,227.287
12.742,128.17571,37.933849,6805.4088936,85.117,-3.369,227.436
12.7587,128.175672,37.933814,6804.8181912,85.213,-3.382,227.585
12.7754,128.175633,37.933779,6804.226269600001,85.304,-3.395,227.735
12.7922,128.175594,37.933743,6803.633738400001,85.39,-3.409,227.885
12.8089,128.175555,37.933708,6803.039988,85.47,-3.423,228.035
12.8256,128.175516,37.933673,6802.445018400001,85.544,-3.437,228.186
12.8423,128.175477,37.933638,6801.8491343999995,85.612,-3.451,228.336
12.859,128.175438,37.933603,6801.2523360000005,85.672,-3.465,228.487
12.8757,128.175399,37.933568,6800.6543184,85.726,-3.479,228.638
12.8924,128.175359,37.933533,6800.0553864,85.771,-3.493,228.789
12.9091,128.17532,37.933499,6799.4552352,85.809,-3.507,228.94
12.9257,128.17528,37.933464,6798.8538648,85.839,-3.521,229.092
12.9424,128.17524,37.93343,6798.25158,85.86,-3.535,229.243
12.9591,128.175201,37.933395,6797.6483808,85.874,-3.549,229.395
12.9759,128.175161,37.933361,6797.0436576,85.881,-3.564,229.546
12.9926,128.17512,37.933327,6796.4380200000005,85.88,-3.578,229.698
13.0093,128.17508,37.933292,6795.831468,85.872,-3.592,229.849
13.026,128.17504,37.933258,6795.223392000001,85.859,-3.606,230.001
13.0427,128.175,37.933224,6794.614401600001,85.839,-3.62,230.152
13.0594,128.174959,37.93319,6794.004496800001,85.815,-3.634,230.304
13.0761,128.174918,37.933157,6793.3933728,85.787,-3.648,230.455
13.0928,128.174878,37.933123,6792.7810296,85.756,-3.663,230.606
13.1095,128.174837,37.933089,6792.1674672,85.722,-3.677,230.757
13.1262,128.174796,37.933056,6791.5532952,85.687,-3.691,230.908
13.1429,128.174755,37.933022,6790.9375992000005,85.651,-3.705,231.059
13.1596,128.174714,37.932989,6790.3219032,85.659,-3.73,231.21
13.1763,128.174672,37.932955,6789.704988,85.71,-3.764,231.362
13.193,128.174631,37.932922,6789.0868536,85.805,-3.805,231.514
13.2097,128.174589,37.932889,6788.4671952,85.942,-3.849,231.665
13.2264,128.174548,37.932856,6787.8466224,86.118,-3.895,231.816
13.2431,128.174506,37.932823,6787.2245256,86.33,-3.941,231.966
13.2598,128.174465,37.93279,6786.6009048000005,86.571,-3.986,232.116
13.2765,128.174423,37.932757,6785.976064800001,86.837,-4.031,232.265
13.2932,128.174381,37.932724,6785.3497008,87.122,-4.076,232.414
13.3099,128.174339,37.932692,6784.7218128,87.421,-4.12,232.562
13.3266,128.174296,37.932659,6784.092096,87.73,-4.164,232.711
13.3433,128.174254,37.932627,6783.460855200001,88.046,-4.209,232.859
13.36,128.174212,37.932594,6782.8280904,88.366,-4.253,233.008
13.3767,128.174169,37.932562,6782.1934968000005,88.686,-4.298,233.156
13.3934,128.174127,37.93253,6781.556769600001,89.004,-4.343,233.305
13.4101,128.174084,37.932497,6780.918518400001,89.319,-4.389,233.455
13.4268,128.174041,37.932465,6780.278133600001,89.63,-4.435,233.605
13.4435,128.173998,37.932433,6779.635615200001,89.934,-4.482,233.756
13.4602,128.173955,37.932402,6778.9909632,90.232,-4.53,233.907
13.4769,128.173912,37.93237,6778.344482400001,90.522,-4.578,234.059
13.4936,128.173869,37.932338,6777.6955632,90.805,-4.627,234.211
13.5103,128.173826,37.932306,6777.0442056,91.08,-4.677,234.364
13.527,128.173783,37.932275,6776.3907144,91.347,-4.727,234.517
13.5437,128.173739,37.932243,6775.7347848,91.606,-4.779,234.671
13.5604,128.173695,37.932212,6775.0764168,91.857,-4.831,234.826
13.5771,128.173652,37.932181,6774.4153056000005,92.1,-4.883,234.981
13.5938,128.173608,37.93215,6773.751756000001,92.336,-4.937,235.136
13.6105,128.173564,37.932119,6773.085768,92.565,-4.991,235.291
13.6272,128.17352,37.932088,6772.416732000001,92.787,-5.045,235.447
13.6439,128.173476,37.932057,6771.7452576,93.003,-5.101,235.603
13.6606,128.173432,37.932026,6771.0707352,93.213,-5.157,235.759
13.6773,128.173388,37.931995,6770.393469600001,93.416,-5.213,235.916
13.694,128.173343,37.931965,6769.713156000001,93.615,-5.27,236.072
13.7107,128.173299,37.931934,6769.0300992,93.808,-5.328,236.228
13.7274,128.173254,37.931904,6768.3439944,93.996,-5.386,236.384
13.7441,128.17321,37.931873,6767.6548416000005,94.179,-5.445,236.541
13.7608,128.173165,37.931843,6766.9626408,94.359,-5.504,236.697
13.7775,128.17312,37.931813,6766.267392000001,94.534,-5.564,236.853
13.7942,128.173075,37.931783,6765.5690952,94.705,-5.624,237.009
13.8109,128.17303,37.931753,6764.867445600001,94.873,-5.684,237.165
13.8276,128.172985,37.931723,6764.1624432,95.037,-5.745,237.32
13.8443,128.17294,37.931694,6763.454088,95.199,-5.806,237.476
13.861,128.172894,37.931664,6762.7426848,95.357,-5.868,237.631
13.8777,128.172849,37.931634,6762.027624,95.513,-5.93,237.786
13.8944,128.172804,37.931605,6761.3095152000005,95.666,-5.992,237.941
13.9111,128.172758,37.931575,6760.5877488,95.816,-6.055,238.096
13.9278,128.172712,37.931546,6759.862324800001,95.964,-6.118,238.25
13.9445,128.172667,37.931517,6759.133548,96.11,-6.181,238.405
13.9612,128.172621,37.931488,6758.401418400001,96.255,-6.244,238.559
13.9779,128.172575,37.931459,6757.6653264,96.398,-6.307,238.713
13.9946,128.172529,37.93143,6756.9258816,96.539,-6.371,238.867
14.0113,128.172483,37.931401,6756.1827792,96.68,-6.434,239.021
14.028,128.172436,37.931373,6755.4357144000005,96.819,-6.496,239.174
14.0447,128.17239,37.931344,6754.684992,96.958,-6.559,239.328
14.0614,128.172344,37.931315,6753.930612,97.095,-6.621,239.481
14.0781,128.172297,37.931287,6753.172269600001,97.232,-6.683,239.635
14.0948,128.172251,37.931259,6752.410269600001,97.368,-6.745,239.788
14.1115,128.172204,37.931231,6751.6443072,97.502,-6.807,239.941
14.1282,128.172157,37.931202,6750.8743824,97.636,-6.868,240.094
14.1449,128.17211,37.931174,6750.1004952,97.77,-6.929,240.247
14.1616,128.172064,37.931147,6749.3229504,97.902,-6.99,240.4
14.1783,128.172017,37.931119,6748.541138400001,98.034,-7.051,240.553
14.195,128.17197,37.931091,6747.755364000001,98.165,-7.112,240.706
14.2117,128.171922,37.931063,6746.9653224,98.296,-7.172,240.859
14.2284,128.171875,37.931036,6746.1713184,98.426,-7.233,241.012
14.2451,128.171828,37.931008,6745.3733520000005,98.556,-7.293,241.164
14.2618,128.17178,37.930981,6744.5711184,98.685,-7.353,241.317
14.2785,128.171733,37.930954,6743.7646176,98.814,-7.413,241.47
14.2952,128.171685,37.930927,6742.9538496000005,98.943,-7.473,241.622
14.3119,128.171638,37.9309,6742.139119200001,99.071,-7.532,241.775
14.3286,128.17159,37.930873,6741.3198168,99.199,-7.592,241.928
14.3453,128.171542,37.930846,6740.4965520000005,99.327,-7.651,242.08
14.362,128.171494,37.930819,6739.6687152,99.454,-7.71,242.233
14.3787,128.171446,37.930793,6738.836611200001,99.58,-7.769,242.385
14.3954,128.171398,37.930766,6738.00024,99.706,-7.828,242.538
14.4121,128.17135,37.93074,6737.1592968,99.832,-7.887,242.691
14.4288,128.171302,37.930714,6736.3137816,99.957,-7.946,242.843
14.4455,128.171254,37.930687,6735.4639992,100.082,-8.005,242.996
14.4622,128.171205,37.930661,6734.6096448,100.205,-8.064,243.149
14.4789,128.171157,37.930635,6733.750718400001,100.328,-8.123,243.301
14.4956,128.171108,37.930609,6732.8875248,100.449,-8.182,243.454
14.5123,128.17106,37.930584,6732.0194544000005,100.569,-8.242,243.607
14.529,128.171011,37.930558,6731.1471168,100.688,-8.302,243.759
14.5457,128.170962,37.930532,6730.269902399999,100.805,-8.363,243.912
14.5624,128.170913,37.930507,6729.388116,100.921,-8.424,244.064
14.5791,128.170864,37.930482,6728.5017576,101.037,-8.485,244.217
14.5958,128.170815,37.930456,6727.6105224,101.151,-8.547,244.369
14.6125,128.170766,37.930431,6726.714715200001,101.263,-8.609,244.522
14.6292,128.170717,37.930406,6725.8140312000005,101.375,-8.671,244.674
14.6459,128.170668,37.930381,6724.9087752,101.486,-8.734,244.826
14.6626,128.170619,37.930356,6723.998337600001,101.595,-8.797,244.978
14.6793,128.170569,37.930331,6723.083328000001,101.703,-8.861,245.131
14.696,128.17052,37.930307,6722.1637464000005,101.81,-8.924,245.283
14.7127,128.17047,37.930282,6721.238983200001,101.915,-8.989,245.435
14.7294,128.170421,37.930258,6720.3093432,102.02,-9.053,245.587
14.7461,128.170371,37.930234,6719.3748264000005,102.123,-9.118,245.739
14.7628,128.170321,37.930209,6718.435128,102.224,-9.183,245.891
14.7795,128.170272,37.930185,6717.4908576,102.324,-9.248,246.043
14.7962,128.170222,37.930161,6716.541405600001,102.423,-9.314,246.195
14.8129,128.170172,37.930137,6715.586772000001,102.521,-9.38,246.347
14.8296,128.170122,37.930113,6714.6272616,102.616,-9.446,246.499
14.8463,128.170072,37.93009,6713.662569600001,102.711,-9.513,246.651
14.863,128.170022,37.930066,6712.693000800001,102.803,-9.58,246.803
14.8797,128.169971,37.930043,6711.7182504,102.895,-9.647,246.955
14.8964,128.169921,37.930019,6710.7383184,102.984,-9.714,247.107
14.9131,128.169871,37.929996,6709.7532048,103.072,-9.782,247.259
14.9298,128.16982,37.929973,6708.7629096,103.159,-9.85,247.41
14.9465,128.16977,37.92995,6707.7674328,103.243,-9.918,247.562
14.9632,128.169719,37.929927,6706.766774400001,103.326,-9.986,247.714
14.9799,128.169669,37.929904,6705.7609344,103.407,-10.054,247.866
14.9966,128.169618,37.929881,6704.749608,103.487,-10.123,248.017
15.0133,128.169567,37.929859,6703.7334048,103.565,-10.192,248.169
15.03,128.169517,37.929836,6702.7114104,103.641,-10.261,248.321
15.0467,128.169466,37.929814,6701.6845392,103.715,-10.331,248.472
15.0634,128.169415,37.929792,6700.6521816,103.788,-10.4,248.624
15.0801,128.169364,37.929769,6699.614337600001,103.859,-10.47,248.776
15.0968,128.169313,37.929747,6698.571312,103.928,-10.54,248.927
15.1135,128.169262,37.929725,6697.522800000001,103.996,-10.61,249.079
15.1302,128.16921,37.929703,6696.468801600001,104.061,-10.68,249.23
15.1469,128.169159,37.929682,6695.4096216,104.125,-10.75,249.382
15.1636,128.169108,37.92966,6694.3449552,104.188,-10.821,249.533
15.1803,128.169056,37.929639,6693.2748024,104.248,-10.891,249.685
15.197,128.169005,37.929617,6692.1991632,104.307,-10.962,249.836
15.2137,128.168954,37.929596,6691.1180376,104.364,-11.033,249.988
15.2304,128.168902,37.929575,6690.0311208,104.419,-11.104,250.139
15.2471,128.16885,37.929553,6688.9390224,104.473,-11.175,250.291
15.2638,128.168799,37.929533,6687.841437600001,104.525,-11.246,250.442
15.2805,128.168747,37.929512,6686.7380616,104.576,-11.317,250.593
15.2972,128.168695,37.929491,6685.629504,104.624,-11.389,250.745
15.3139,128.168643,37.92947,6684.515155200001,104.671,-11.46,250.896
15.3306,128.168592,37.92945,6683.3953200000005,104.717,-11.532,251.047
15.3473,128.16854,37.929429,6682.2696936,104.761,-11.603,251.199
15.364,128.168488,37.929409,6681.1385808,104.803,-11.675,251.35
15.3807,128.168436,37.929389,6680.0019816,104.844,-11.747,251.501
