Time,Longitude,Latitude,Altitude,Roll (deg),Pitch (deg),Yaw (deg)
0.0,128.181881,37.923646,7000.146528,0.0,-0.003,0.0
0.0167,128.181881,37.923691,7000.1605488000005,0.0,-0.012,0.0
0.0334,128.181881,37.923736,7000.172740800001,0.087,-0.026,0.011
0.0501,128.181881,37.923781,7000.183104000001,0.258,-0.043,0.034
0.0668,128.181881,37.923826,7000.190724000001,0.516,-0.062,0.064
0.0834,128.181881,37.923871,7000.1959056000005,0.864,-0.082,0.097
0.1002,128.181881,37.923916,7000.1980392,1.3,-0.102,0.132
0.1169,128.181881,37.923961,7000.196820000001,1.824,-0.122,0.167
0.1336,128.181881,37.924006,7000.1919431999995,2.433,-0.139,0.201
0.1503,128.181881,37.924051,7000.183104000001,3.123,-0.154,0.235
0.1669,128.181881,37.924096,7000.169692800001,3.891,-0.166,0.267
0.1837,128.181881,37.924141,7000.152928800001,4.734,-0.173,0.299
0.2004,128.181881,37.924186,7000.1325072,5.649,-0.175,0.331
0.2171,128.181881,37.924231,7000.108123200001,6.633,-0.172,0.362
0.2338,128.181881,37.924276,7000.0803864,7.682,-0.163,0.393
0.2505,128.181881,37.924321,7000.048992000001,8.794,-0.147,0.424
0.2672,128.181881,37.924366,7000.014244800001,9.966,-0.125,0.456
0.2839,128.181881,37.924411,6999.9761448,11.195,-0.095,0.489
0.3006,128.181881,37.924457,6999.9353016000005,12.48,-0.059,0.523
0.3172,128.181881,37.924502,6999.891105600001,13.817,-0.016,0.559
0.3339,128.181881,37.924547,6999.8444712,15.204,0.033,0.598
0.3507,128.181881,37.924592,6999.7947888,16.64,0.089,0.639
0.3674,128.181881,37.924637,6999.742972800001,18.122,0.152,0.682
0.3841,128.181881,37.924683,6999.688718400001,19.648,0.22,0.73
0.4008,128.181881,37.924728,6999.6320256,21.218,0.295,0.781
0.4175,128.181881,37.924773,6999.573504,22.828,0.375,0.837
0.4342,128.181881,37.924819,6999.5131536,24.478,0.459,0.897
0.4509,128.181881,37.924864,6999.4512792000005,26.167,0.548,0.962
0.4676,128.181881,37.924909,6999.387576,27.892,0.64,1.033
0.4843,128.181881,37.924954,6999.3229584,29.654,0.736,1.109
0.501,128.181881,37.925,6999.2568168,31.45,0.834,1.191
0.5176,128.181881,37.925045,6999.189760800001,33.28,0.933,1.279
0.5344,128.181881,37.925091,6999.1217904000005,35.143,1.034,1.373
0.5511,128.181881,37.925136,6999.0529056000005,37.039,1.135,1.473
0.5678,128.181881,37.925181,6998.983716,38.966,1.235,1.579
0.5845,128.181881,37.925227,6998.9139168,40.925,1.333,1.691
0.6012,128.181881,37.925272,6998.843508,42.913,1.425,1.806
0.6179,128.181881,37.925318,6998.7727944,44.932,1.51,1.922
0.6345,128.181881,37.925363,6998.7014712,46.981,1.586,2.037
0.6513,128.181882,37.925408,6998.6304528,49.053,1.652,2.15
0.6679,128.181882,37.925454,6998.5591296,51.144,1.706,2.259
0.6847,128.181882,37.925499,6998.488111200001,53.248,1.753,2.367
0.7014,128.181882,37.925545,6998.416788,55.363,1.791,2.472
0.7181,128.181883,37.92559,6998.345464800001,57.488,1.819,2.572
0.7348,128.181883,37.925636,6998.274141600001,59.621,1.836,2.664
0.7514,128.181883,37.925681,6998.2019040000005,61.599,1.845,2.73
0.7682,128.181884,37.925727,6998.1296664,63.426,1.842,2.759
0.7848,128.181884,37.925773,6998.057124000001,65.103,1.819,2.739
0.8016,128.181885,37.925818,6997.9842768,66.634,1.779,2.679
0.8183,128.181885,37.925864,6997.9114296,68.021,1.728,2.594
0.835,128.181886,37.925909,6997.8379728,69.272,1.672,2.495
0.8517,128.181887,37.925955,6997.764516,70.392,1.613,2.388
0.8684,128.181888,37.926,6997.6907544000005,71.387,1.554,2.28
0.8851,128.181888,37.926046,6997.616688000001,72.265,1.497,2.174
0.9018,128.181889,37.926091,6997.542012,73.03,1.444,2.071
0.9185,128.18189,37.926137,6997.4670312,73.687,1.393,1.973
0.9352,128.181891,37.926183,6997.3914408,74.239,1.345,1.881
0.9519,128.181892,37.926228,6997.314936000001,74.699,1.305,1.794
0.9686,128.181893,37.926274,6997.2381264000005,75.086,1.271,1.712
0.9853,128.181895,37.926319,6997.1604024,75.42,1.238,1.637
1.002,128.181896,37.926365,6997.0820688,75.718,1.204,1.568
1.0187,128.181897,37.926411,6997.002516,75.996,1.168,1.506
1.0353,128.181898,37.926456,6996.921744,76.268,1.129,1.45
1.0521,128.1819,37.926502,6996.8397528,76.542,1.087,1.4
1.0688,128.181901,37.926547,6996.7562376000005,76.828,1.043,1.355
1.0855,128.181902,37.926593,6996.6708935999995,77.129,0.998,1.314
1.1022,128.181904,37.926639,6996.5843304,77.447,0.953,1.278
1.1189,128.181905,37.926684,6996.4956336000005,77.782,0.908,1.245
1.1356,128.181907,37.92673,6996.4054128,78.134,0.864,1.215
1.1522,128.181908,37.926776,6996.313668000001,78.502,0.822,1.188
1.169,128.18191,37.926821,6996.2197896,78.887,0.78,1.164
1.1857,128.181911,37.926867,6996.124082400001,79.285,0.739,1.142
1.2024,128.181913,37.926913,6996.0268512,79.697,0.699,1.123
1.2191,128.181914,37.926959,6995.9274864,80.122,0.66,1.105
1.2358,128.181916,37.927004,6995.8262928,80.56,0.622,1.09
1.2525,128.181918,37.92705,6995.723270400001,81.011,0.585,1.077
1.2691,128.181919,37.927096,6995.618419200001,81.476,0.548,1.065
1.2859,128.181921,37.927141,6995.5114344,81.957,0.511,1.055
1.3026,128.181923,37.927187,6995.402316,82.386,0.479,1.045
1.3193,128.181924,37.927233,6995.291368800001,82.764,0.451,1.038
1.3359,128.181926,37.927279,6995.178288000001,83.094,0.427,1.031
1.3527,128.181928,37.927324,6995.063683200001,83.38,0.403,1.026
1.3694,128.18193,37.92737,6994.9472496,83.628,0.38,1.023
1.386,128.181931,37.927416,6994.8289872000005,83.842,0.356,1.022
1.4028,128.181933,37.927462,6994.708896,84.03,0.331,1.022
1.4195,128.181935,37.927508,6994.5866712,84.197,0.305,1.023
1.4362,128.181937,37.927553,6994.4626176,84.347,0.279,1.026
1.4528,128.181939,37.927599,6994.3364304,84.487,0.252,1.03
1.4696,128.181941,37.927645,6994.208414400001,84.62,0.226,1.035
1.4863,128.181943,37.927691,6994.0779600000005,84.751,0.199,1.04
1.5029,128.181945,37.927737,6993.946286400001,84.985,0.165,1.053
1.5197,128.181947,37.927782,6993.812479200001,85.309,0.122,1.069
1.5364,128.181949,37.927828,6993.676233600001,85.706,0.077,1.085
1.5531,128.18195,37.927874,6993.537549600001,86.086,0.037,1.099
1.5697,128.181952,37.92792,6993.3964272,86.444,0.004,1.111
1.5865,128.181955,37.927966,6993.253476,86.78,-0.021,1.123
1.6032,128.181957,37.928012,6993.1080864000005,87.095,-0.044,1.134
1.6198,128.181959,37.928058,6992.9605632,87.393,-0.063,1.144
1.6366,128.181961,37.928104,6992.810906400001,87.675,-0.082,1.155
1.6533,128.181963,37.928149,6992.659116,87.947,-0.099,1.166
1.67,128.181965,37.928195,6992.5051920000005,88.211,-0.116,1.178
1.6867,128.181967,37.928241,6992.3488296,88.471,-0.132,1.189
1.7034,128.181969,37.928287,6992.190638400001,88.732,-0.149,1.201
1.7201,128.181971,37.928333,6992.0300088,88.995,-0.165,1.214
1.7368,128.181974,37.928379,6991.8672456,89.264,-0.182,1.226
1.7535,128.181976,37.928425,6991.702044,89.541,-0.198,1.239
1.7702,128.181978,37.928471,6991.535013600001,89.829,-0.214,1.253
1.7869,128.18198,37.928517,6991.3655448,90.127,-0.231,1.266
1.8036,128.181982,37.928563,6991.193942400001,90.436,-0.248,1.28
1.8203,128.181985,37.928609,6991.019901600001,90.756,-0.264,1.294
1.837,128.181987,37.928655,6990.844032,91.086,-0.281,1.308
1.8537,128.181989,37.928701,6990.665724,91.426,-0.298,1.323
1.8704,128.181991,37.928747,6990.4849776,91.776,-0.315,1.337
1.8871,128.181994,37.928793,6990.302097600001,92.135,-0.332,1.352
1.9038,128.181996,37.928839,6990.117084,92.503,-0.349,1.367
1.9205,128.181998,37.928885,6989.9299368,92.879,-0.366,1.382
1.9372,128.182,37.928931,6989.740351200001,93.262,-0.383,1.398
1.9539,128.182003,37.928977,6989.548632,93.651,-0.4,1.413
1.9706,128.182005,37.929023,6989.354474400001,94.046,-0.417,1.429
1.9873,128.182007,37.929069,6989.158183200001,94.445,-0.434,1.445
2.004,128.18201,37.929115,6988.9594536,94.847,-0.451,1.461
2.0207,128.182012,37.929161,6988.7585904,95.251,-0.468,1.478
2.0374,128.182014,37.929207,6988.5555936,95.656,-0.485,1.495
2.0541,128.182017,37.929254,6988.3498536,96.06,-0.502,1.512
2.0707,128.182019,37.9293,6988.14198,96.462,-0.519,1.529
2.0875,128.182022,37.929346,6987.9319728,96.861,-0.536,1.547
2.1042,128.182024,37.929392,6987.7195272,97.255,-0.553,1.565
2.1208,128.182026,37.929438,6987.5046432,97.643,-0.57,1.584
2.1376,128.182029,37.929484,6987.287016,97.94,-0.581,1.603
2.1543,128.182031,37.92953,6987.066950400001,98.15,-0.588,1.624
2.171,128.182034,37.929576,6986.8444464,98.287,-0.593,1.646
2.1877,128.182036,37.929623,6986.619504,98.366,-0.6,1.668
2.2044,128.182039,37.929669,6986.3921232,98.404,-0.61,1.69
2.2211,128.182042,37.929715,6986.1626088,98.413,-0.623,1.712
2.2378,128.182044,37.929761,6985.930351200001,98.402,-0.64,1.734
2.2544,128.182047,37.929807,6985.695960000001,98.375,-0.658,1.756
2.2712,128.182049,37.929853,6985.4591304,98.335,-0.678,1.777
2.2879,128.182052,37.9299,6985.2198624,98.279,-0.697,1.799
2.3045,128.182055,37.929946,6984.9778512,98.207,-0.716,1.821
2.3213,128.182057,37.929992,6984.7334016,98.113,-0.734,1.843
2.338,128.18206,37.930038,6984.486513600001,97.995,-0.75,1.866
2.3546,128.182063,37.930084,6984.2368824000005,97.847,-0.766,1.888
2.3714,128.182066,37.930131,6983.9848128,97.665,-0.78,1.912
2.3881,128.182069,37.930177,6983.7303048,97.443,-0.793,1.935
2.4048,128.182071,37.930223,6983.4730536,97.181,-0.806,1.959
2.4215,128.182074,37.930269,6983.213364,96.873,-0.818,1.983
2.4382,128.182077,37.930316,6982.9509312,96.515,-0.829,2.007
2.4549,128.18208,37.930362,6982.686060000001,96.101,-0.84,2.032
2.4716,128.182083,37.930408,6982.4184456,95.624,-0.849,2.057
2.4882,128.182086,37.930454,6982.148392800001,95.086,-0.857,2.082
2.505,128.182089,37.9305,6981.876206400001,94.489,-0.865,2.107
2.5217,128.182093,37.930547,6981.6012768,93.834,-0.873,2.132
2.5383,128.182096,37.930593,6981.3239088,93.124,-0.881,2.157
2.5551,128.182099,37.930639,6981.0444072,92.362,-0.89,2.182
2.5718,128.182102,37.930685,6980.762772,91.55,-0.898,2.206
2.5884,128.182106,37.930732,6980.4786984,90.689,-0.907,2.23
2.6052,128.182109,37.930778,6980.193405600001,89.988,-0.928,2.254
2.6219,128.182112,37.930824,6979.905979200001,89.44,-0.963,2.276
2.6386,128.182116,37.93087,6979.616419200001,89.048,-1.004,2.298
2.6553,128.182119,37.930917,6979.3247255999995,88.813,-1.049,2.319
2.6719,128.182122,37.930963,6979.0312032,88.733,-1.094,2.34
2.6887,128.182126,37.931009,6978.734937600001,88.77,-1.137,2.36
2.7054,128.182129,37.931055,6978.436538400001,88.905,-1.175,2.379
2.722,128.182133,37.931102,6978.1360056,89.123,-1.209,2.398
2.7388,128.182136,37.931148,6977.8333391999995,89.411,-1.239,2.417
2.7555,128.18214,37.931194,6977.5282344,89.756,-1.267,2.435
2.7721,128.182143,37.931241,6977.220996000001,90.149,-1.292,2.452
2.7889,128.182147,37.931287,6976.911624,90.581,-1.316,2.47
2.8056,128.18215,37.931333,6976.600118400001,91.046,-1.338,2.488
2.8222,128.182154,37.93138,6976.286479200001,91.538,-1.359,2.505
2.839,128.182157,37.931426,6975.970096800001,91.943,-1.373,2.523
2.8557,128.182161,37.931472,6975.6518856,92.265,-1.379,2.542
2.8724,128.182164,37.931519,6975.331236,92.501,-1.382,2.561
2.8891,128.182168,37.931565,6975.0084528,92.652,-1.383,2.581
2.9057,128.182172,37.931612,6974.6835360000005,92.718,-1.383,2.602
2.9225,128.182175,37.931658,6974.3561808,92.701,-1.385,2.623
2.9392,128.182179,37.931704,6974.0269968,92.606,-1.387,2.645
2.9558,128.182183,37.931751,6973.695679200001,92.434,-1.39,2.668
2.9726,128.182186,37.931797,6973.3619232,92.19,-1.394,2.691
2.9893,128.18219,37.931844,6973.026033600001,91.876,-1.398,2.714
3.0059,128.182194,37.93189,6972.6877056,91.497,-1.402,2.738
3.0227,128.182198,37.931936,6972.3475488,91.057,-1.405,2.763
3.0394,128.182202,37.931983,6972.0052584000005,90.556,-1.408,2.787
3.056,128.182206,37.932029,6971.6608344,89.999,-1.411,2.811
3.0728,128.18221,37.932076,6971.3142768,89.386,-1.415,2.836
3.0895,128.182214,37.932122,6970.9658904,88.72,-1.419,2.86
3.1062,128.182218,37.932168,6970.615370400001,88.003,-1.423,2.884
3.1229,128.182222,37.932215,6970.2630216,87.238,-1.428,2.907
3.1395,128.182226,37.932261,6969.908844,86.428,-1.433,2.93
3.1563,128.18223,37.932308,6969.5528376,85.573,-1.438,2.953
3.173,128.182235,37.932354,6969.1950024,84.677,-1.444,2.975
3.1896,128.182239,37.9324,6968.8365576,83.948,-1.463,2.997
3.2064,128.182243,37.932447,6968.476284000001,83.379,-1.495,3.019
3.2231,128.182248,37.932493,6968.1141816,82.974,-1.535,3.041
3.2397,128.182252,37.93254,6967.7502504,82.732,-1.577,3.063
3.2565,128.182256,37.932586,6967.3844904,82.651,-1.621,3.084
3.2732,128.182261,37.932633,6967.016901600001,82.723,-1.663,3.104
3.2899,128.182265,37.932679,6966.647179200001,82.927,-1.703,3.124
3.3066,128.18227,37.932726,6966.275628,83.244,-1.74,3.143
3.3233,128.182274,37.932772,6965.901638400001,83.657,-1.774,3.162
3.34,128.182278,37.932818,6965.525820000001,84.151,-1.805,3.181
3.3567,128.182283,37.932865,6965.147868,84.713,-1.833,3.199
3.3734,128.182287,37.932911,6964.7674776,85.195,-1.851,3.217
3.3901,128.182292,37.932958,6964.3849536,85.598,-1.859,3.234
3.4068,128.182296,37.933004,6964.000905600001,85.919,-1.861,3.252
3.4235,128.182301,37.933051,6963.614724000001,86.157,-1.861,3.27
3.4402,128.182305,37.933097,6963.2267136,86.311,-1.861,3.288
3.4569,128.18231,37.933144,6962.836874400001,86.384,-1.861,3.307
3.4736,128.182314,37.93319,6962.4455112000005,86.379,-1.861,3.327
3.4903,128.182319,37.933237,6962.052319200001,86.299,-1.863,3.348
3.507,128.182324,37.933283,6961.6572984,86.146,-1.865,3.369
3.5237,128.182328,37.933329,6961.2604488,85.924,-1.867,3.391
3.5404,128.182333,37.933376,6960.86238,85.637,-1.871,3.413
3.5571,128.182338,37.933422,6960.4621776,85.286,-1.874,3.436
3.5738,128.182343,37.933469,6960.060756000001,84.876,-1.878,3.459
3.5905,128.182348,37.933515,6959.657505600001,84.407,-1.883,3.482
3.6072,128.182352,37.933561,6959.2527312,83.884,-1.888,3.505
3.6239,128.182357,37.933608,6958.846432800001,83.308,-1.894,3.528
3.6406,128.182362,37.933654,6958.4386104000005,82.682,-1.899,3.551
3.6573,128.182367,37.933701,6958.029264000001,82.009,-1.906,3.573
3.674,128.182372,37.933747,6957.6186984,81.289,-1.912,3.595
3.6907,128.182378,37.933793,6957.2066088,80.526,-1.919,3.617
3.7074,128.182383,37.93384,6956.7933,79.722,-1.927,3.638
3.7241,128.182388,37.933886,6956.3784672,78.878,-1.935,3.658
3.7408,128.182393,37.933932,6955.96272,77.997,-1.943,3.678
3.7575,128.182398,37.933979,6955.5457536,77.08,-1.951,3.697
3.7742,128.182404,37.934025,6955.127872800001,76.129,-1.96,3.715
3.7909,128.182409,37.934071,6954.7093824,75.351,-1.983,3.735
3.8076,128.182414,37.934118,6954.2899776,74.739,-2.017,3.757
3.8243,128.18242,37.934164,6953.8693536,74.297,-2.059,3.78
3.841,128.182425,37.93421,6953.4472056,74.024,-2.105,3.802
3.8577,128.182431,37.934257,6953.0235336000005,73.916,-2.151,3.824
3.8744,128.182436,37.934303,6952.5983376,73.97,-2.196,3.846
3.8911,128.182442,37.934349,6952.1716176,74.179,-2.241,3.866
3.9078,128.182447,37.934396,6951.7430688,74.533,-2.284,3.886
3.9245,128.182453,37.934442,6951.312691200001,75.013,-2.324,3.905
3.9412,128.182458,37.934488,6950.88018,75.6,-2.362,3.924
3.9579,128.182464,37.934535,6950.44584,76.279,-2.397,3.941
3.9746,128.182469,37.934581,6950.008756800001,76.881,-2.42,3.956
3.9913,128.182475,37.934627,6949.5701496,77.405,-2.431,3.969
4.008,128.18248,37.934674,6949.1300184,77.847,-2.436,3.982
4.0247,128.182486,37.93472,6948.6883632,78.204,-2.438,3.994
4.0414,128.182491,37.934766,6948.245184000001,78.477,-2.438,4.008
4.058,128.182497,37.934813,6947.8004808000005,78.668,-2.439,4.023
4.0748,128.182502,37.934859,6947.3545584,78.778,-2.44,4.038
4.0915,128.182508,37.934905,6946.907112,78.811,-2.442,4.055
4.1082,128.182514,37.934952,6946.458751200001,78.77,-2.444,4.073
4.1249,128.18252,37.934998,6946.0091712,78.659,-2.446,4.092
4.1415,128.182525,37.935044,6945.558372,78.48,-2.449,4.112
4.1583,128.182531,37.935091,6945.1066584,78.236,-2.452,4.133
4.175,128.182537,37.935137,6944.6534208,77.931,-2.456,4.154
4.1917,128.182543,37.935183,6944.199573600001,77.566,-2.46,4.176
4.2084,128.182549,37.93523,6943.7442024,77.144,-2.465,4.198
4.2251,128.182555,37.935276,6943.2879168,76.668,-2.469,4.22
4.2417,128.182561,37.935322,6942.830412,76.14,-2.475,4.242
4.2585,128.182567,37.935368,6942.372297600001,75.563,-2.48,4.264
4.2752,128.182573,37.935415,6941.912964,74.938,-2.486,4.286
4.2919,128.182579,37.935461,6941.452716,74.268,-2.492,4.307
4.3086,128.182585,37.935507,6940.9915536,73.555,-2.499,4.328
4.3252,128.182592,37.935554,6940.5294768,72.801,-2.506,4.349
4.342,128.182598,37.9356,6940.0667904,72.007,-2.514,4.369
4.3587,128.182604,37.935646,6939.6034944,71.176,-2.522,4.388
4.3754,128.182611,37.935692,6939.139284000001,70.309,-2.531,4.406
4.3921,128.182617,37.935738,6938.6747688000005,69.408,-2.54,4.424
4.4088,128.182623,37.935785,6938.209644,68.474,-2.549,4.441
4.4254,128.18263,37.935831,6937.743909600001,67.51,-2.559,4.457
4.4422,128.182636,37.935877,6937.2781752,66.516,-2.57,4.472
4.4589,128.182643,37.935923,6936.811831200001,65.493,-2.581,4.486
4.4756,128.182649,37.93597,6936.3454872,64.444,-2.593,4.499
4.4923,128.182656,37.936016,6935.878838400001,63.37,-2.606,4.511
4.5089,128.182663,37.936062,6935.4127992,62.475,-2.631,4.529
4.5256,128.182669,37.936108,6934.9461504,61.755,-2.668,4.55
4.5424,128.182676,37.936154,6934.479196800001,61.005,-2.698,4.572
4.5591,128.182683,37.936201,6934.0122432,60.233,-2.717,4.595
4.5758,128.18269,37.936247,6933.5458992,59.435,-2.725,4.624
4.5925,128.182696,37.936293,6933.079555200001,58.607,-2.724,4.66
4.6091,128.182703,37.936339,6932.6141256,57.747,-2.714,4.706
4.6259,128.18271,37.936385,6932.149000800001,56.854,-2.699,4.761
4.6426,128.182717,37.936431,6931.684790400001,55.93,-2.676,4.825
4.6593,128.182724,37.936478,6931.2214944,54.976,-2.648,4.897
4.676,128.182731,37.936524,6930.7591128,53.992,-2.614,4.976
4.6927,128.182739,37.93657,6930.2979504,52.981,-2.575,5.06
4.7093,128.182746,37.936616,6929.838312,51.943,-2.53,5.15
4.7261,128.182753,37.936662,6929.3801976,50.88,-2.481,5.243
4.7428,128.18276,37.936708,6928.9236072,49.793,-2.427,5.34
4.7595,128.182767,37.936754,6928.4688456,48.683,-2.368,5.44
4.7762,128.182775,37.9368,6928.0162176,47.55,-2.306,5.54
4.7928,128.182782,37.936847,6927.566028,46.394,-2.241,5.641
4.8096,128.18279,37.936893,6927.1182768,45.218,-2.174,5.74
4.8263,128.182797,37.936939,6926.672964,44.02,-2.105,5.838
4.843,128.182805,37.936985,6926.2306992,42.801,-2.035,5.934
4.8597,128.182812,37.937031,6925.791482400001,41.562,-1.962,6.028
4.8764,128.18282,37.937077,6925.355618400001,40.302,-1.887,6.121
4.893,128.182828,37.937123,6924.923412,39.023,-1.81,6.211
4.9098,128.182835,37.937169,6924.4948632000005,37.723,-1.732,6.299
4.9265,128.182843,37.937215,6924.069972,36.404,-1.666,6.373
4.9432,128.182851,37.937261,6923.648433600001,35.066,-1.624,6.427
4.9599,128.182859,37.937307,6923.2305528,33.708,-1.62,6.451
4.9765,128.182867,37.937354,6922.8163296,32.331,-1.651,6.45
4.9932,128.182875,37.9374,6922.406068800001,30.935,-1.708,6.43
5.01,128.182883,37.937446,6921.999770400001,29.518,-1.782,6.4
5.0267,128.182891,37.937492,6921.5974344,28.081,-1.865,6.365
5.0434,128.182899,37.937538,6921.199060800001,26.622,-1.952,6.328
5.0601,128.182907,37.937584,6920.8043448,25.142,-2.041,6.291
5.0767,128.182915,37.93763,6920.413896000001,23.639,-2.13,6.255
5.0935,128.182923,37.937676,6920.0271048,22.115,-2.217,6.222
5.1102,128.182931,37.937722,6919.6439712,20.569,-2.303,6.192
5.1269,128.18294,37.937768,6919.265104800001,19.002,-2.384,6.165
5.1436,128.182948,37.937814,6918.889896000001,17.414,-2.455,6.144
5.1602,128.182956,37.93786,6918.5189544,15.805,-2.512,6.128
5.1769,128.182964,37.937906,6918.1519751999995,14.176,-2.551,6.12
5.1937,128.182973,37.937952,6917.7889584,12.528,-2.571,6.117
5.2104,128.182981,37.937998,6917.4305136,10.861,-2.571,6.12
5.2271,128.182989,37.938044,6917.076336,9.175,-2.551,6.127
5.2438,128.182997,37.93809,6916.7267304,7.471,-2.512,6.136
5.2604,128.183006,37.938136,6916.381696800001,5.751,-2.456,6.148
5.2772,128.183014,37.938182,6916.0412352,4.015,-2.383,6.159
5.2939,128.183022,37.938228,6915.7056504,2.262,-2.296,6.169
5.3106,128.18303,37.938273,6915.375552,0.495,-2.196,6.178
5.3273,128.183039,37.938319,6915.0503304,-1.286,-2.084,6.183
5.3439,128.183047,37.938365,6914.730595200001,-3.083,-1.962,6.185
5.3606,128.183055,37.938411,6914.4163464,-4.895,-1.831,6.182
5.3774,128.183064,37.938457,6914.1078888,-6.721,-1.692,6.174
5.3941,128.183072,37.938503,6913.8055272,-8.561,-1.547,6.161
5.4108,128.18308,37.938549,6913.508956800001,-10.416,-1.397,6.141
5.4275,128.183088,37.938595,6913.2187872,-12.286,-1.241,6.114
5.4441,128.183096,37.938641,6912.934713600001,-14.172,-1.082,6.081
5.4609,128.183105,37.938687,6912.657345600001,-16.073,-0.919,6.04
5.4776,128.183113,37.938733,6912.3863784000005,-17.99,-0.754,5.992
5.4943,128.183121,37.938779,6912.1221168,-19.924,-0.586,5.935
5.511,128.183129,37.938825,6911.864560800001,-21.875,-0.417,5.871
5.5277,128.183137,37.93887,6911.613710400001,-23.843,-0.246,5.797
5.5443,128.183145,37.938916,6911.369870400001,-25.83,-0.075,5.715
5.5611,128.183153,37.938962,6911.1330408,-27.835,0.096,5.624
5.5778,128.18316,37.939008,6910.9029168,-29.86,0.268,5.523
5.5945,128.183168,37.939054,6910.6798032,-31.905,0.439,5.412
5.6112,128.183176,37.9391,6910.4633952,-33.97,0.609,5.292
5.6278,128.183184,37.939146,6910.253997600001,-36.057,0.778,5.161
5.6445,128.183191,37.939192,6910.051305600001,-38.165,0.945,5.02
5.6613,128.183199,37.939238,6909.855014400001,-40.295,1.11,4.867
5.678,128.183206,37.939284,6909.665733600001,-42.448,1.273,4.703
5.6947,128.183213,37.939329,6909.4825488,-44.625,1.433,4.528
5.7114,128.183221,37.939375,6909.3057648,-46.825,1.588,4.341
5.728,128.183228,37.939421,6909.1350768,-49.049,1.74,4.141
5.7448,128.183235,37.939467,6908.97018,-51.297,1.887,3.93
5.7615,128.183242,37.939513,6908.8110744000005,-53.571,2.028,3.705
5.7782,128.183248,37.939559,6908.6571504,-55.869,2.163,3.467
5.7949,128.183255,37.939605,6908.5087128000005,-58.193,2.292,3.217
5.8115,128.183262,37.939651,6908.364237600001,-60.535,2.412,2.952
5.8282,128.183268,37.939697,6908.223724800001,-62.865,2.526,2.677
5.845,128.183274,37.939743,6908.086869600001,-65.154,2.631,2.394
5.8617,128.18328,37.939788,6907.9524528,-67.377,2.727,2.107
5.8784,128.183287,37.939834,6907.820779200001,-69.512,2.813,1.819
5.8951,128.183293,37.93988,6907.6909344,-71.544,2.887,1.531
5.9117,128.183298,37.939926,6907.562918400001,-73.46,2.95,1.245
5.9285,128.183304,37.939972,6907.4361216,-75.254,3.001,0.96
5.9452,128.18331,37.940018,6907.3102392,-76.921,3.04,0.678
5.9619,128.183315,37.940064,6907.1849664,-78.462,3.068,0.398
5.9786,128.183321,37.94011,6907.0599984,-79.878,3.084,0.121
5.9952,128.183326,37.940156,6906.9353352,-81.174,3.09,359.848
6.0119,128.183331,37.940202,6906.8100624,-82.355,3.086,359.578
6.0287,128.183336,37.940248,6906.6847896,-83.427,3.072,359.312
6.0454,128.183341,37.940293,6906.5589072,-84.398,3.05,359.051
6.0621,128.183346,37.940339,6906.432110400001,-85.275,3.019,358.794
6.0788,128.183351,37.940385,6906.3043992,-86.066,2.982,358.543
6.0954,128.183356,37.940431,6906.175773600001,-86.779,2.939,358.297
6.1121,128.18336,37.940477,6906.045928800001,-87.423,2.89,358.057
6.1289,128.183365,37.940523,6905.915169600001,-88.004,2.837,357.822
6.1456,128.183369,37.940569,6905.7828864,-88.536,2.781,357.594
6.1623,128.183373,37.940615,6905.6490792,-89.027,2.726,357.371
6.179,128.183377,37.940661,6905.5134431999995,-89.485,2.673,357.153
6.1956,128.183381,37.940707,6905.376283200001,-89.908,2.619,356.947
6.2124,128.183385,37.940753,6905.2375992,-90.296,2.566,356.753
6.2291,128.183389,37.940799,6905.0970864,-90.645,2.513,356.576
6.2458,128.183393,37.940845,6904.9547448,-90.951,2.46,356.417
6.2625,128.183396,37.940891,6904.8105744,-91.208,2.407,356.278
6.2791,128.1834,37.940936,6904.6645751999995,-91.413,2.354,356.156
6.2958,128.183403,37.940982,6904.5164424,-91.558,2.303,356.051
6.3126,128.183406,37.941028,6904.3664808,-91.638,2.253,355.96
6.3293,128.18341,37.941074,6904.2143856,-91.651,2.205,355.881
6.346,128.183413,37.94112,6904.0604616,-91.6,2.157,355.814
6.3627,128.183416,37.941166,6903.904708800001,-91.487,2.111,355.753
6.3793,128.183419,37.941212,6903.7471272,-91.367,2.063,355.697
6.3961,128.183421,37.941258,6903.587412,-91.245,2.012,355.644
6.4128,128.183424,37.941304,6903.425868,-91.121,1.961,355.593
6.4295,128.183427,37.94135,6903.262495200001,-90.994,1.909,355.54
6.4462,128.183429,37.941396,6903.0969888,-90.863,1.859,355.486
6.4628,128.183431,37.941442,6902.9296536,-90.725,1.809,355.429
6.4795,128.183433,37.941488,6902.7601848,-90.578,1.761,355.369
6.4963,128.183436,37.941533,6902.5888872000005,-90.421,1.714,355.306
6.513,128.183438,37.941579,6902.4157608000005,-90.251,1.669,355.241
6.5297,128.183439,37.941625,6902.2408056,-90.068,1.626,355.173
6.5464,128.183441,37.941671,6902.0637168,-89.869,1.584,355.102
6.5631,128.183443,37.941717,6901.885104,-89.654,1.544,355.029
6.5798,128.183444,37.941763,6901.7043576,-89.422,1.505,354.953
6.5965,128.183446,37.941809,6901.522087200001,-89.173,1.467,354.875
6.6132,128.183447,37.941855,6901.337988000001,-88.907,1.431,354.794
6.6299,128.183448,37.941901,6901.15206,-88.624,1.396,354.712
6.6466,128.18345,37.941946,6900.964608,-88.324,1.363,354.627
6.6633,128.183451,37.941992,6900.7753272,-88.007,1.331,354.54
6.68,128.183452,37.942038,6900.5845224,-87.675,1.3,354.452
6.6967,128.183452,37.942084,6900.3924984,-87.331,1.27,354.359
6.7134,128.183453,37.94213,6900.1986456,-86.973,1.241,354.264
6.7301,128.183454,37.942176,6900.0032688,-86.601,1.214,354.168
6.7468,128.183454,37.942222,6899.8066728,-86.218,1.189,354.069
6.7635,128.183455,37.942267,6899.6085528,-85.823,1.165,353.969
6.7802,128.183455,37.942313,6899.4092136,-85.418,1.142,353.867
6.7969,128.183455,37.942359,6899.2086552,-85.004,1.121,353.763
6.8136,128.183455,37.942405,6899.006877600001,-84.579,1.102,353.659
6.8303,128.183455,37.942451,6898.8038808,-84.145,1.084,353.554
6.847,128.183455,37.942497,6898.599969600001,-83.703,1.068,353.449
6.8637,128.183455,37.942542,6898.3948392,-83.254,1.053,353.341
6.8804,128.183454,37.942588,6898.1890992,-82.8,1.04,353.231
6.8971,128.183454,37.942634,6897.9824448,-82.339,1.029,353.12
6.9138,128.183453,37.94268,6897.774876,-81.874,1.02,353.008
6.9305,128.183453,37.942725,6897.566697600001,-81.405,1.013,352.894
6.9472,128.183452,37.942771,6897.3579096,-80.935,1.008,352.777
6.9639,128.183451,37.942817,6897.148512,-80.462,1.004,352.659
6.9806,128.18345,37.942863,6896.9388096,-79.988,1.003,352.539
6.9973,128.183449,37.942908,6896.7288024,-79.514,1.004,352.417
7.014,128.183447,37.942954,6896.5184904,-79.043,1.007,352.291
7.0307,128.183446,37.943,6896.307873600001,-78.573,1.012,352.163
7.0474,128.183444,37.943046,6896.0975616,-78.106,1.019,352.033
7.0641,128.183443,37.943091,6895.88664,-77.64,1.028,351.903
7.0808,128.183441,37.943137,6895.676023200001,-77.174,1.039,351.773
7.0975,128.183439,37.943183,6895.4657112,-76.709,1.052,351.643
7.1142,128.183437,37.943228,6895.2553992,-76.248,1.068,351.51
7.1309,128.183435,37.943274,6895.045696800001,-75.79,1.085,351.376
7.1476,128.183433,37.94332,6894.8362992,-75.337,1.105,351.24
7.1643,128.183431,37.943365,6894.627511200001,-74.891,1.127,351.099
7.181,128.183428,37.943411,6894.419332800001,-74.452,1.152,350.957
7.1977,128.183425,37.943457,6894.2120688,-74.017,1.179,350.813
7.2144,128.183423,37.943502,6894.0054144000005,-73.589,1.208,350.667
7.2311,128.18342,37.943548,6893.799674400001,-73.167,1.24,350.519
7.2478,128.183417,37.943593,6893.5951536,-72.754,1.274,350.369
7.2645,128.183414,37.943639,6893.391852000001,-72.348,1.31,350.217
7.2812,128.183411,37.943684,6893.189769600001,-71.951,1.349,350.062
7.2979,128.183407,37.94373,6892.988601600001,-71.56,1.389,349.907
7.3146,128.183404,37.943775,6892.7892624,-71.176,1.432,349.752
7.3313,128.1834,37.943821,6892.5911424000005,-70.802,1.477,349.594
7.348,128.183397,37.943866,6892.394851200001,-70.438,1.524,349.435
7.3647,128.183393,37.943912,6892.2003888,-70.087,1.572,349.277
7.3814,128.183389,37.943957,6892.0074504,-69.743,1.621,349.12
7.3981,128.183385,37.944003,6891.816645600001,-69.409,1.672,348.964
7.4148,128.18338,37.944048,6891.627364800001,-69.086,1.723,348.81
7.4315,128.183376,37.944093,6891.4408272,-68.775,1.774,348.658
7.4482,128.183371,37.944139,6891.255813600001,-68.473,1.826,348.509
7.4649,128.183367,37.944184,6891.073238400001,-68.183,1.879,348.361
7.4816,128.183362,37.944229,6890.892187200001,-67.838,1.936,348.217
7.4983,128.183357,37.944275,6890.713269600001,-67.442,1.996,348.078
7.515,128.183352,37.94432,6890.5361808,-67.002,2.06,347.941
7.5317,128.183347,37.944365,6890.3609208,-66.537,2.123,347.806
7.5484,128.183342,37.944411,6890.188099200001,-66.047,2.187,347.674
7.5651,128.183336,37.944456,6890.017715999999,-65.551,2.25,347.543
7.5818,128.183331,37.944501,6889.850076,-65.056,2.311,347.414
7.5985,128.183325,37.944546,6889.6857887999995,-64.579,2.372,347.286
7.6152,128.18332,37.944591,6889.524549600001,-64.118,2.431,347.159
7.6319,128.183314,37.944637,6889.3666632,-63.685,2.491,347.034
7.6486,128.183308,37.944682,6889.212434399999,-63.278,2.55,346.91
7.6653,128.183302,37.944727,6889.0618632000005,-62.904,2.61,346.786
7.682,128.183295,37.944772,6888.9152544,-62.564,2.67,346.664
7.6987,128.183289,37.944817,6888.7723032,-62.255,2.73,346.541
7.7154,128.183282,37.944862,6888.633314400001,-61.979,2.79,346.419
7.7321,128.183276,37.944907,6888.498288000001,-61.731,2.85,346.296
7.7488,128.183269,37.944952,6888.3675288,-61.513,2.909,346.172
7.7655,128.183262,37.944997,6888.2404272,-61.325,2.969,346.048
7.7822,128.183255,37.945042,6888.117592800001,-61.164,3.029,345.924
7.7989,128.183248,37.945087,6887.9987208,-61.028,3.09,345.799
7.8156,128.18324,37.945132,6887.883811200001,-60.916,3.152,345.673
7.8323,128.183233,37.945176,6887.7728640000005,-60.824,3.214,345.548
7.849,128.183225,37.945221,6887.666184000001,-60.751,3.277,345.422
7.8657,128.183217,37.945266,6887.5634664,-60.692,3.339,345.294
7.8824,128.183209,37.945311,6887.4644064,-60.646,3.4,345.166
7.8991,128.183201,37.945356,6887.369918400001,-60.609,3.46,345.036
7.9158,128.183193,37.9454,6887.279088000001,-60.58,3.519,344.905
7.9325,128.183185,37.945445,6887.192524800001,-60.559,3.575,344.773
7.9492,128.183177,37.94549,6887.109924,-60.545,3.63,344.639
7.9659,128.183168,37.945534,6887.0315904,-60.538,3.684,344.504
7.9826,128.18316,37.945579,6886.956914400001,-60.54,3.737,344.369
7.9993,128.183151,37.945624,6886.8865056,-60.549,3.79,344.233
8.016,128.183142,37.945668,6886.8200592,-60.567,3.842,344.097
8.0327,128.183133,37.945713,6886.7575752,-60.595,3.894,343.96
8.0494,128.183124,37.945757,6886.6990536,-60.63,3.946,343.823
8.0661,128.183115,37.945802,6886.6444944,-60.673,3.997,343.685
8.0828,128.183105,37.945846,6886.593897600001,-60.725,4.048,343.548
8.0994,128.183096,37.94589,6886.5472632,-60.785,4.099,343.41
8.1161,128.183086,37.945935,6886.504896,-60.854,4.149,343.271
8.1329,128.183076,37.945979,6886.466491200001,-60.93,4.199,343.133
8.1496,128.183066,37.946023,6886.431744,-61.014,4.249,342.994
8.1663,128.183056,37.946068,6886.401264,-61.107,4.298,342.855
8.183,128.183046,37.946112,6886.374441600001,-61.208,4.347,342.715
8.1997,128.183036,37.946156,6886.3515816,-61.317,4.396,342.575
8.2164,128.183026,37.9462,6886.3329888,-61.434,4.444,342.435
8.2331,128.183015,37.946245,6886.3180536,-61.559,4.491,342.294
8.2498,128.183004,37.946289,6886.3070808,-61.692,4.538,342.153
8.2665,128.182994,37.946333,6886.299765600001,-61.834,4.584,342.011
8.2831,128.182983,37.946377,6886.2964128,-61.985,4.63,341.869
8.2998,128.182972,37.946421,6886.2970224,-62.142,4.675,341.726
8.3166,128.182961,37.946465,6886.3012896,-62.308,4.72,341.583
8.3333,128.182949,37.946509,6886.3092144,-62.482,4.764,341.439
8.35,128.182938,37.946553,6886.320796800001,-62.661,4.807,341.295
8.3667,128.182926,37.946597,6886.3363416,-62.848,4.85,341.15
8.3834,128.182915,37.94664,6886.3552392,-63.042,4.892,341.005
8.4001,128.182903,37.946684,6886.3777944,-63.241,4.933,340.859
8.4168,128.182891,37.946728,6886.4040072,-63.446,4.974,340.713
8.4335,128.182879,37.946772,6886.433572800001,-63.658,5.014,340.566
8.4502,128.182867,37.946816,6886.466796000001,-63.877,5.053,340.418
8.4668,128.182854,37.946859,6886.503372,-64.102,5.091,340.27
8.4835,128.182842,37.946903,6886.543300800001,-64.331,5.128,340.122
8.5003,128.182829,37.946946,6886.5865824,-64.565,5.165,339.973
8.517,128.182817,37.94699,6886.6332168,-64.803,5.201,339.823
8.5337,128.182804,37.947034,6886.683204,-65.046,5.236,339.673
8.5504,128.182791,37.947077,6886.7362391999995,-65.292,5.27,339.522
8.5671,128.182778,37.94712,6886.792322400001,-65.541,5.303,339.37
8.5838,128.182765,37.947164,6886.8514536,-65.793,5.335,339.219
8.6005,128.182751,37.947207,6886.9136328,-66.048,5.367,339.066
8.6172,128.182738,37.947251,6886.97886,-66.305,5.398,338.913
8.6339,128.182724,37.947294,6887.0471352,-66.564,5.427,338.76
8.6505,128.182711,37.947337,6887.1181536,-66.826,5.456,338.606
8.6672,128.182697,37.94738,6887.191915200001,-67.09,5.483,338.451
8.684,128.182683,37.947424,6887.268420000001,-67.355,5.51,338.297
8.7007,128.182669,37.947467,6887.347668,-67.621,5.536,338.141
8.7174,128.182655,37.94751,6887.4296592,-67.887,5.56,337.985
8.7341,128.18264,37.947553,6887.5140888,-68.153,5.584,337.829
8.7508,128.182626,37.947596,6887.6012616,-68.419,5.607,337.672
8.7675,128.182611,37.947639,6887.690568,-68.685,5.629,337.515
8.7842,128.182597,37.947682,6887.7826176,-68.951,5.65,337.358
8.8009,128.182582,37.947725,6887.876800800001,-69.218,5.67,337.2
8.8176,128.182567,37.947768,6887.9737272,-69.486,5.688,337.041
8.8342,128.182552,37.94781,6888.072482400001,-69.754,5.706,336.882
8.8509,128.182537,37.947853,6888.173676,-70.024,5.722,336.723
8.8676,128.182521,37.947896,6888.2770032,-70.293,5.737,336.563
8.8844,128.182506,37.947939,6888.382464,-70.563,5.752,336.403
8.9011,128.18249,37.947981,6888.4900584,-70.833,5.765,336.242
8.9178,128.182474,37.948024,6888.5994816,-71.103,5.777,336.082
8.9345,128.182458,37.948066,6888.711038400001,-71.373,5.789,335.92
8.9512,128.182443,37.948109,6888.824424,-71.644,5.799,335.759
8.9679,128.182426,37.948151,6888.939638400001,-71.914,5.808,335.596
8.9846,128.18241,37.948194,6889.0566816,-72.185,5.816,335.434
9.0013,128.182394,37.948236,6889.1752488,-72.455,5.823,335.271
9.0179,128.182377,37.948279,6889.2956448,-72.725,5.829,335.108
9.0346,128.182361,37.948321,6889.417869600001,-72.995,5.835,334.945
9.0513,128.182344,37.948363,6889.541313600001,-73.265,5.839,334.781
9.0681,128.182327,37.948405,6889.666281600001,-73.534,5.842,334.617
9.0848,128.18231,37.948447,6889.7927736,-73.803,5.844,334.453
9.1015,128.182293,37.94849,6889.9207896,-74.072,5.845,334.288
9.1182,128.182276,37.948532,6890.050024800001,-74.341,5.845,334.123
9.1349,128.182258,37.948574,6890.180479200001,-74.61,5.843,333.958
9.1516,128.182241,37.948616,6890.3124576,-74.88,5.841,333.792
9.1683,128.182223,37.948657,6890.4453504,-75.149,5.838,333.626
9.185,128.182205,37.948699,6890.5794624,-75.418,5.834,333.46
9.2016,128.182187,37.948741,6890.7144888,-75.687,5.828,333.294
9.2183,128.182169,37.948783,6890.8507344,-75.956,5.822,333.127
9.235,128.182151,37.948825,6890.9878944,-76.226,5.815,332.96
9.2518,128.182133,37.948866,6891.125968800001,-76.495,5.807,332.793
9.2685,128.182115,37.948908,6891.2649576,-76.764,5.797,332.626
9.2852,128.182096,37.94895,6891.404556,-77.034,5.787,332.458
9.3019,128.182077,37.948991,6891.544764,-77.303,5.775,332.29
9.3186,128.182059,37.949033,6891.6858864000005,-77.573,5.763,332.122
9.3353,128.18204,37.949074,6891.827618400001,-77.843,5.75,331.954
9.352,128.182021,37.949115,6891.96996,-78.112,5.735,331.786
9.3687,128.182001,37.949157,6892.112606400001,-78.382,5.72,331.617
9.3854,128.181982,37.949198,6892.2558624,-78.652,5.703,331.448
9.402,128.181963,37.949239,6892.3994232000005,-78.923,5.686,331.279
9.4187,128.181943,37.94928,6892.5432888,-79.193,5.667,331.11
9.4355,128.181924,37.949321,6892.687764,-79.463,5.648,330.94
9.4522,128.181904,37.949363,6892.8322392,-79.734,5.627,330.771
9.4689,128.181884,37.949404,6892.976714400001,-80.005,5.606,330.601
9.4856,128.181864,37.949445,6893.1214944,-80.276,5.583,330.431
9.5023,128.181844,37.949485,6893.266274400001,-80.547,5.56,330.261
9.519,128.181823,37.949526,6893.4110544000005,-80.818,5.535,330.091
9.5357,128.181803,37.949567,6893.5558344,-81.089,5.51,329.921
9.5524,128.181782,37.949608,6893.700309600001,-81.36,5.483,329.75
9.5691,128.181762,37.949649,6893.8447848,-81.631,5.456,329.58
9.5857,128.181741,37.949689,6893.9889552,-81.903,5.427,329.409
9.6024,128.18172,37.94973,6894.1328207999995,-82.174,5.398,329.238
9.6192,128.181699,37.94977,6894.276381600001,-82.445,5.367,329.067
9.6359,128.181677,37.949811,6894.419332800001,-82.717,5.336,328.896
9.6526,128.181656,37.949851,6894.561979200001,-82.988,5.303,328.725
9.6693,128.181635,37.949892,6894.7043208,-83.26,5.27,328.554
9.686,128.181613,37.949932,6894.845748,-83.531,5.235,328.382
9.7027,128.181591,37.949972,6894.986565600001,-83.803,5.199,328.211
9.7194,128.18157,37.950012,6895.126773600001,-84.074,5.163,328.04
9.7361,128.181548,37.950053,6895.266372,-84.346,5.125,327.868
9.7528,128.181526,37.950093,6895.404751200001,-84.617,5.087,327.697
9.7694,128.181503,37.950133,6895.5425208,-84.889,5.048,327.525
9.7861,128.181481,37.950173,6895.679376,-85.16,5.007,327.353
9.8029,128.181459,37.950213,6895.8153168,-85.431,4.966,327.182
9.8196,128.181436,37.950252,6895.950038400001,-85.702,4.923,327.01
9.8363,128.181413,37.950292,6896.0835408,-85.974,4.88,326.838
9.853,128.18139,37.950332,6896.216128800001,-86.244,4.835,326.667
9.8697,128.181367,37.950372,6896.347497600001,-86.515,4.79,326.495
9.8864,128.181344,37.950411,6896.4773424,-86.786,4.744,326.323
9.9031,128.181321,37.950451,6896.605968000001,-87.056,4.696,326.151
9.9198,128.181298,37.95049,6896.733069600001,-87.327,4.648,325.98
9.9365,128.181274,37.95053,6896.8589520000005,-87.597,4.599,325.808
9.9531,128.181251,37.950569,6896.983005600001,-87.867,4.548,325.636
9.9698,128.181227,37.950609,6897.10584,-88.137,4.497,325.464
9.9865,128.181203,37.950648,6897.2268456,-88.406,4.445,325.293
10.0033,128.181179,37.950687,6897.3460224,-88.675,4.392,325.121
10.02,128.181155,37.950726,6897.4636752,-88.944,4.338,324.949
10.0367,128.181131,37.950765,6897.5791944,-89.213,4.283,324.778
10.0534,128.181107,37.950804,6897.6931896,-89.482,4.227,324.606
10.0701,128.181082,37.950843,6897.805051200001,-89.75,4.169,324.435
10.0868,128.181058,37.950882,6897.915084000001,-90.018,4.112,324.264
10.1035,128.181033,37.950921,6898.0229832,-90.285,4.053,324.092
10.1202,128.181008,37.95096,6898.1287488,-90.552,3.993,323.921
10.1368,128.180983,37.950999,6898.232076,-90.819,3.932,323.75
10.1535,128.180958,37.951037,6898.3335744000005,-91.086,3.87,323.579
10.1702,128.180933,37.951076,6898.4326344,-91.352,3.808,323.408
10.187,128.180908,37.951114,6898.529256000001,-91.617,3.744,323.237
10.2037,128.180882,37.951153,6898.623744,-91.883,3.679,323.066
10.2204,128.180857,37.951191,6898.7154888,-92.147,3.614,322.896
10.2371,128.180831,37.95123,6898.804795200001,-92.412,3.548,322.725
10.2538,128.180805,37.951268,6898.8916632,-92.676,3.48,322.555
10.2705,128.180779,37.951306,6898.975788000001,-92.939,3.412,322.384
10.2872,128.180753,37.951344,6899.057169600001,-93.202,3.343,322.214
10.3039,128.180727,37.951382,6899.135808,-93.465,3.273,322.044
10.3205,128.180701,37.95142,6899.2117032,-93.726,3.202,321.874
10.3372,128.180675,37.951458,6899.2848552000005,-93.988,3.13,321.705
10.3539,128.180648,37.951496,6899.3549592,-94.249,3.057,321.535
10.3707,128.180621,37.951534,6899.422015200001,-94.509,2.983,321.365
10.3874,128.180595,37.951572,6899.4860232,-94.769,2.909,321.196
10.4041,128.180568,37.95161,6899.546983200001,-95.028,2.833,321.027
10.4208,128.180541,37.951647,6899.6045904,-95.287,2.757,320.858
10.4375,128.180514,37.951685,6899.6591496,-95.545,2.68,320.689
10.4542,128.180487,37.951722,6899.7103560000005,-95.802,2.602,320.521
10.4709,128.180459,37.95176,6899.7585144,-96.059,2.523,320.352
10.4876,128.180432,37.951797,6899.803015200001,-96.315,2.443,320.184
10.5042,128.180404,37.951834,6899.8441632,-96.571,2.362,320.016
10.5209,128.180377,37.951872,6899.8816536,-96.826,2.281,319.848
10.5376,128.180349,37.951909,6899.9157912,-97.08,2.198,319.68
10.5544,128.180321,37.951946,6899.9462712,-97.333,2.115,319.513
10.5711,128.180293,37.951983,6899.9727888,-97.586,2.031,319.345
10.5878,128.180265,37.95202,6899.9959536,-97.838,1.946,319.178
10.6045,128.180236,37.952057,6900.015156,-98.089,1.86,319.011
10.6212,128.180208,37.952093,6900.030700800001,-98.34,1.773,318.845
10.6379,128.180179,37.95213,6900.0419784000005,-98.59,1.686,318.678
10.6546,128.180151,37.952167,6900.0495984,-98.839,1.597,318.512
10.6713,128.180122,37.952204,6900.053256000001,-99.087,1.508,318.346
10.6879,128.180093,37.95224,6900.0526464,-99.335,1.418,318.18
10.7046,128.180064,37.952277,6900.048074400001,-99.582,1.328,318.014
10.7213,128.180035,37.952313,6900.0392352,-99.828,1.236,317.849
10.7381,128.180006,37.952349,6900.026128800001,-100.073,1.144,317.684
10.7548,128.179977,37.952386,6900.0087552,-100.318,1.05,317.519
10.7715,128.179947,37.952422,6899.987114400001,-100.561,0.957,317.354
10.7882,128.179918,37.952458,6899.961206400001,-100.804,0.862,317.19
10.8049,128.179888,37.952494,6899.9304216,-101.046,0.766,317.026
10.8216,128.179859,37.95253,6899.895369600001,-101.287,0.67,316.862
10.8383,128.179829,37.952566,6899.855745600001,-101.528,0.573,316.698
10.855,128.179799,37.952602,6899.8115496,-101.767,0.475,316.535
10.8717,128.179769,37.952637,6899.7627816,-102.006,0.377,316.372
10.8883,128.179738,37.952673,6899.7091368,-102.244,0.277,316.209
10.905,128.179708,37.952709,6899.650920000001,-102.481,0.177,316.046
10.9218,128.179678,37.952744,6899.5875216,-102.717,0.076,315.884
10.9385,128.179647,37.95278,6899.519551200001,-102.952,-0.024,315.722
10.9552,128.179617,37.952815,6899.4463992,-103.187,-0.127,315.56
10.9719,128.179586,37.95285,6899.3683704000005,-103.42,-0.23,315.398
10.9886,128.179555,37.952886,6899.2854648,-103.653,-0.333,315.237
11.0053,128.179524,37.952921,6899.1973776,-103.885,-0.438,315.076
11.022,128.179493,37.952956,6899.1041088,-104.116,-0.543,314.915
11.0387,128.179462,37.952991,6899.0053536000005,-104.346,-0.649,314.754
11.0554,128.179431,37.953026,6898.9017216,-104.575,-0.756,314.594
11.072,128.179399,37.953061,6898.7926032,-104.803,-0.863,314.434
11.0887,128.179368,37.953096,6898.6783032,-105.03,-0.971,314.274
11.1054,128.179336,37.95313,6898.5585168,-105.256,-1.08,314.115
11.1222,128.179305,37.953165,6898.433244,-105.481,-1.189,313.956
11.1389,128.179273,37.9532,6898.3024848,-105.705,-1.299,313.797
11.1556,128.179241,37.953234,6898.1662392,-105.928,-1.41,313.638
11.1723,128.179209,37.953269,6898.0242024,-106.15,-1.521,313.48
11.189,128.179177,37.953303,6897.876679200001,-106.372,-1.633,313.322
11.2057,128.179145,37.953337,6897.723364800001,-106.592,-1.746,313.164
11.2224,128.179112,37.953371,6897.5642592,-106.811,-1.859,313.006
11.2391,128.17908,37.953406,6897.3993624,-107.029,-1.973,312.849
11.2557,128.179047,37.95344,6897.228674400001,-107.247,-2.088,312.692
11.2724,128.179015,37.953474,6897.0521952,-107.463,-2.203,312.536
11.2891,128.178982,37.953508,6896.86962,-107.678,-2.319,312.379
11.3059,128.178949,37.953541,6896.6809488,-107.893,-2.435,312.223
11.3226,128.178916,37.953575,6896.4864864,-108.106,-2.552,312.067
11.3393,128.178883,37.953609,6896.2856232,-108.318,-2.67,311.912
11.356,128.17885,37.953642,6896.078664000001,-108.529,-2.788,311.756
11.3727,128.178817,37.953676,6895.865608800001,-108.739,-2.907,311.601
11.3894,128.178783,37.953709,6895.6464576,-108.948,-3.027,311.447
11.4061,128.17875,37.953743,6895.4206008,-109.156,-3.147,311.292
11.4228,128.178717,37.953776,6895.188648,-109.363,-3.268,311.138
11.4394,128.178683,37.953809,6894.9502944000005,-109.569,-3.389,310.984
11.4561,128.178649,37.953842,6894.70554,-109.774,-3.511,310.831
11.4728,128.178615,37.953875,6894.4543848,-109.978,-3.633,310.677
11.4896,128.178582,37.953908,6894.196524000001,-110.181,-3.756,310.524
11.5063,128.178548,37.953941,6893.9322624,-110.382,-3.88,310.372
11.523,128.178513,37.953974,6893.6612952000005,-110.583,-4.004,310.219
11.5397,128.178479,37.954007,6893.383622400001,-110.783,-4.128,310.067
11.5564,128.178445,37.954039,6893.0995488,-110.981,-4.253,309.915
11.5731,128.178411,37.954072,6892.8084648,-111.179,-4.379,309.764
11.5898,128.178376,37.954105,6892.510370400001,-111.375,-4.505,309.612
11.6065,128.178342,37.954137,6892.205570400001,-111.57,-4.632,309.461
11.6231,128.178307,37.954169,6891.894064800001,-111.765,-4.759,309.31
11.6398,128.178272,37.954202,6891.5755488,-111.958,-4.887,309.16
11.6565,128.178237,37.954234,6891.2500224000005,-112.151,-5.015,309.009
11.6733,128.178202,37.954266,6890.9177904,-112.421,-5.152,308.863
11.69,128.178167,37.954298,6890.577633600001,-112.766,-5.298,308.72
11.7067,128.178132,37.95433,6890.229856800001,-113.189,-5.451,308.579
11.7234,128.178097,37.954361,6889.8741552,-113.69,-5.608,308.441
11.7401,128.178062,37.954393,6889.510224000001,-114.267,-5.769,308.304
11.7568,128.178026,37.954425,6889.1374536,-114.921,-5.934,308.168
11.7735,128.177991,37.954456,6888.7555392,-115.65,-6.102,308.033
11.7902,128.177955,37.954488,6888.3644808,-116.452,-6.273,307.899
11.8068,128.177919,37.954519,6887.963973600001,-117.325,-6.448,307.764
11.8235,128.177883,37.95455,6887.5531032,-118.269,-6.626,307.631
11.8402,128.177847,37.954581,6887.1324792000005,-119.281,-6.809,307.498
11.857,128.177811,37.954612,6886.701796800001,-120.359,-6.996,307.365
11.8737,128.177775,37.954643,6886.260446400001,-121.502,-7.188,307.234
11.8904,128.177739,37.954674,6885.8081232,-122.565,-7.372,307.096
11.9071,128.177702,37.954705,6885.3457416,-123.549,-7.548,306.954
11.9238,128.177666,37.954735,6884.872692000001,-124.459,-7.714,306.809
11.9405,128.177629,37.954766,6884.389888799999,-125.292,-7.872,306.662
11.9572,128.177593,37.954796,6883.897027200001,-126.049,-8.024,306.517
11.9739,128.177556,37.954826,6883.394412,-126.728,-8.172,306.374
11.9905,128.177519,37.954857,6882.8826528,-127.328,-8.318,306.236
12.0072,128.177482,37.954887,6882.36114,-127.851,-8.462,306.102
12.0239,128.177446,37.954917,6881.831092800001,-128.299,-8.605,305.973
12.0407,128.177409,37.954947,6881.2919016000005,-128.674,-8.748,305.849
12.0574,128.177372,37.954977,6880.744176,-128.978,-8.889,305.729
12.0741,128.177335,37.955007,6880.187916,-129.214,-9.03,305.614
12.0908,128.177297,37.955037,6879.6234264,-129.384,-9.17,305.504
12.1075,128.17726,37.955067,6879.051012,-129.49,-9.31,305.396
12.1242,128.177223,37.955096,6878.470977600001,-129.536,-9.448,305.292
12.1409,128.177186,37.955126,6877.883323200001,-129.522,-9.586,305.192
12.1576,128.177148,37.955156,6877.2883536,-129.451,-9.722,305.093
12.1743,128.177111,37.955186,6876.6863736000005,-129.325,-9.856,304.997
12.1909,128.177073,37.955215,6876.076773600001,-129.146,-9.989,304.902
12.2076,128.177036,37.955245,6875.4598584000005,-128.915,-10.121,304.808
12.2243,128.176998,37.955274,6874.835628000001,-128.634,-10.25,304.716
12.2411,128.176961,37.955304,6874.2040824000005,-128.304,-10.378,304.624
12.2578,128.176923,37.955333,6873.5649168,-127.927,-10.504,304.531
12.2745,128.176885,37.955362,6872.918436,-127.503,-10.628,304.439
12.2912,128.176848,37.955392,6872.2643352000005,-127.034,-10.749,304.346
12.3079,128.17681,37.955421,6871.6029192000005,-126.521,-10.869,304.252
12.3246,128.176772,37.95545,6870.934188000001,-125.965,-10.986,304.157
12.3413,128.176734,37.955479,6870.2578368,-125.366,-11.101,304.059
12.358,128.176696,37.955508,6869.5744752,-124.726,-11.214,303.96
12.3746,128.176658,37.955537,6868.8834936,-124.046,-11.324,303.858
12.3913,128.17662,37.955566,6868.1845872,-123.331,-11.433,303.754
12.408,128.176582,37.955595,6867.478060800001,-122.587,-11.539,303.647
12.4248,128.176544,37.955624,6866.764828800001,-121.938,-11.667,303.537
12.4415,128.176505,37.955653,6866.0430624,-121.379,-11.814,303.425
12.4582,128.176467,37.955682,6865.3127616,-120.917,-11.975,303.31
12.4749,128.176429,37.95571,6864.5742312,-120.553,-12.144,303.193
12.4916,128.17639,37.955739,6863.826556800001,-120.289,-12.318,303.075
12.5083,128.176351,37.955767,6863.070043199999,-120.123,-12.494,302.955
12.525,128.176313,37.955796,6862.3040808000005,-120.056,-12.67,302.833
12.5417,128.176274,37.955824,6861.5286696,-120.084,-12.847,302.71
12.5583,128.176235,37.955852,6860.743504800001,-120.205,-13.022,302.587
12.575,128.176196,37.95588,6859.9482816,-120.416,-13.196,302.463
12.5917,128.176158,37.955908,6859.143,-120.715,-13.37,302.338
12.6085,128.176119,37.955936,6858.3270504,-121.098,-13.544,302.212
12.6252,128.176079,37.955964,6857.5004328,-121.562,-13.718,302.086
12.6419,128.17604,37.955991,6856.662842400001,-122.105,-13.893,301.961
12.6586,128.176001,37.956019,6855.813669600001,-122.724,-14.068,301.835
12.6753,128.175962,37.956046,6854.953219200001,-123.416,-14.246,301.709
12.692,128.175922,37.956074,6854.0805768,-124.179,-14.426,301.584
12.7087,128.175883,37.956101,6853.196352000001,-125.011,-14.608,301.459
12.7254,128.175843,37.956128,6852.3002400000005,-125.91,-14.794,301.336
12.742,128.175804,37.956155,6851.391936,-126.874,-14.983,301.213
12.7587,128.175764,37.956182,6850.47144,-127.901,-15.176,301.092
12.7754,128.175724,37.956208,6849.5384472000005,-128.99,-15.374,300.972
12.7922,128.175684,37.956235,6848.5926528,-130.14,-15.577,300.855
12.8089,128.175645,37.956262,6847.6343615999995,-131.21,-15.763,300.736
12.8256,128.175605,37.956288,6846.663878400001,-132.206,-15.925,300.626
12.8423,128.175565,37.956314,6845.6818128,-133.126,-16.066,300.523
12.859,128.175525,37.956341,6844.688164800001,-133.966,-16.191,300.429
12.8757,128.175485,37.956367,6843.6829344,-134.726,-16.305,300.342
12.8924,128.175445,37.956393,6842.667036,-135.403,-16.412,300.262
12.9091,128.175404,37.956419,6841.640469600001,-135.999,-16.514,300.189
12.9257,128.175364,37.956445,6840.60354,-136.515,-16.614,300.121
12.9424,128.175324,37.956471,6839.556552000001,-136.953,-16.711,300.058
12.9591,128.175284,37.956497,6838.499810400001,-137.316,-16.807,299.999
12.9759,128.175243,37.956522,6837.433620000001,-137.606,-16.903,299.944
12.9926,128.175203,37.956548,6836.3582856,-137.826,-16.999,299.892
13.0093,128.175163,37.956574,6835.274112,-137.979,-17.094,299.842
13.026,128.175122,37.956599,6834.181708800001,-138.067,-17.19,299.794
13.0427,128.175082,37.956625,6833.0807712,-138.091,-17.285,299.748
13.0594,128.175042,37.956651,6831.9722136,-138.056,-17.381,299.702
13.0761,128.175001,37.956676,6830.856036,-137.961,-17.476,299.657
13.0928,128.174961,37.956701,6829.732848,-137.81,-17.571,299.613
13.1095,128.17492,37.956727,6828.6014304,-137.605,-17.666,299.569
13.1262,128.174879,37.956752,6827.462697600001,-137.346,-17.761,299.524
13.1429,128.174839,37.956777,6826.3163448000005,-137.036,-17.856,299.478
13.1596,128.174798,37.956803,6825.162676800001,-136.675,-17.95,299.432
13.1763,128.174758,37.956828,6824.001084,-136.265,-18.044,299.384
13.193,128.174717,37.956853,6822.832176,-135.808,-18.137,299.334
13.2097,128.174676,37.956878,6821.6559528,-135.304,-18.23,299.283
13.2264,128.174635,37.956903,6820.4718048,-134.755,-18.322,299.229
13.2431,128.174595,37.956928,6819.280341600001,-134.161,-18.414,299.172
13.2598,128.174554,37.956953,6818.0815632,-133.523,-18.505,299.113
13.2765,128.174513,37.956978,6816.875164800001,-132.842,-18.595,299.051
13.2932,128.174472,37.957003,6815.661146400001,-132.118,-18.685,298.985
13.3099,128.174431,37.957028,6814.4398128,-131.353,-18.774,298.915
13.3266,128.17439,37.957053,6813.211164,-130.547,-18.862,298.842
13.3433,128.174349,37.957078,6811.975200000001,-129.701,-18.949,298.764
13.36,128.174308,37.957103,6810.7319208,-128.955,-19.058,298.687
13.3767,128.174267,37.957127,6809.480412,-128.303,-19.197,298.598
13.3934,128.174226,37.957152,6808.220368800001,-127.746,-19.363,298.494
13.4101,128.174185,37.957176,6806.9517912,-127.289,-19.548,298.374
13.4268,128.174144,37.957201,6805.674069600001,-126.934,-19.745,298.243
13.4435,128.174103,37.957225,6804.3868992,-126.68,-19.95,298.104
13.4602,128.174062,37.957249,6803.09028,-126.528,-20.157,297.959
13.4769,128.17402,37.957274,6801.7839072,-126.475,-20.365,297.81
13.4936,128.173979,37.957298,6800.4671712,-126.519,-20.573,297.659
13.5103,128.173938,37.957322,6799.1397672,-126.656,-20.78,297.507
13.527,128.173896,37.957346,6797.802000000001,-126.885,-20.986,297.354
13.5437,128.173855,37.957369,6796.4529552,-127.2,-21.19,297.202
13.5604,128.173813,37.957393,6795.0929376,-127.6,-21.394,297.051
13.5771,128.173772,37.957417,6793.721032800001,-128.081,-21.596,296.902
13.5938,128.17373,37.95744,6792.3372408000005,-128.641,-21.798,296.755
13.6105,128.173689,37.957464,6790.941256800001,-129.276,-22.001,296.609
13.6272,128.173647,37.957487,6789.5324712,-129.984,-22.204,296.466
13.6439,128.173605,37.95751,6788.110884000001,-130.762,-22.409,296.326
13.6606,128.173564,37.957533,6786.6764952,-131.609,-22.615,296.188
13.6773,128.173522,37.957556,6785.2293048,-132.522,-22.824,296.054
13.694,128.17348,37.957579,6783.7687032,-133.5,-23.036,295.923
13.7107,128.173438,37.957601,6782.2949952,-134.54,-23.25,295.795
13.7274,128.173396,37.957624,6780.8081808,-135.642,-23.468,295.672
13.7441,128.173355,37.957646,6779.3076504,-136.664,-23.667,295.545
13.7608,128.173313,37.957669,6777.7943184000005,-137.612,-23.837,295.424
13.7775,128.173271,37.957691,6776.2690992,-138.486,-23.974,295.321
13.7942,128.173229,37.957713,6774.731992800001,-139.281,-24.083,295.239
13.8109,128.173187,37.957735,6773.1829992,-139.995,-24.17,295.173
13.8276,128.173145,37.957757,6771.622728,-140.627,-24.243,295.121
13.8443,128.173103,37.957779,6770.0517887999995,-141.176,-24.307,295.079
13.861,128.173061,37.957801,6768.4698768,-141.644,-24.365,295.045
13.8777,128.173019,37.957823,6766.878211200001,-142.033,-24.419,295.017
13.8944,128.172978,37.957845,6765.276487200001,-142.346,-24.471,294.994
13.9111,128.172936,37.957867,6763.6650096,-142.584,-24.523,294.974
13.9278,128.172894,37.957888,6762.044692800001,-142.75,-24.574,294.957
13.9445,128.172852,37.95791,6760.4155368,-142.847,-24.626,294.941
13.9612,128.17281,37.957932,6758.7778464,-142.878,-24.678,294.925
13.9779,128.172768,37.957953,6757.1322312,-142.844,-24.732,294.91
13.9946,128.172725,37.957975,6755.4786912,-142.747,-24.786,294.895
14.0113,128.172683,37.957996,6753.817836,-142.591,-24.841,294.88
14.028,128.172641,37.958017,6752.149970400001,-142.376,-24.897,294.863
14.0447,128.172599,37.958039,6750.4744848,-142.104,-24.954,294.846
14.0614,128.172557,37.95806,6748.791684000001,-141.778,-25.012,294.827
14.0781,128.172515,37.958081,6747.101568,-141.398,-25.071,294.806
14.0948,128.172473,37.958103,6745.404136800001,-140.965,-25.13,294.783
14.1115,128.172431,37.958124,6743.6993904,-140.482,-25.19,294.759
14.1282,128.172389,37.958145,6741.987633600001,-139.95,-25.251,294.731
14.1449,128.172346,37.958166,6740.2685616,-139.369,-25.312,294.701
14.1616,128.172304,37.958187,6738.5421744000005,-138.74,-25.374,294.668
14.1783,128.172262,37.958208,6736.8087768000005,-138.065,-25.436,294.632
14.195,128.17222,37.958229,6735.068368800001,-137.344,-25.499,294.592
14.2117,128.172178,37.95825,6733.320645600001,-136.577,-25.562,294.549
14.2284,128.172135,37.958271,6731.565912,-135.767,-25.625,294.502
14.2451,128.172093,37.958292,6729.804168000001,-134.913,-25.689,294.45
14.2618,128.172051,37.958313,6728.0354136000005,-134.016,-25.752,294.394
14.2785,128.172009,37.958334,6726.2596488,-133.077,-25.816,294.334
14.2952,128.171966,37.958355,6724.4768736000005,-132.245,-25.903,294.275
14.3119,128.171924,37.958375,6722.686478400001,-131.511,-26.022,294.206
14.3286,128.171881,37.958396,6720.8878536,-130.874,-26.175,294.116
14.3453,128.171839,37.958416,6719.0806944,-130.336,-26.357,293.999
14.362,128.171797,37.958437,6717.264696,-129.899,-26.561,293.859
14.3787,128.171754,37.958457,6715.4398584,-129.566,-26.778,293.702
14.3954,128.171712,37.958478,6713.6052672000005,-129.335,-27.003,293.532
14.4121,128.171669,37.958498,6711.761227200001,-129.207,-27.231,293.354
14.4288,128.171627,37.958518,6709.9074336,-129.178,-27.461,293.171
14.4455,128.171585,37.958538,6708.042972,-129.247,-27.69,292.985
14.4622,128.171542,37.958558,6706.168147200001,-129.41,-27.917,292.799
14.4789,128.1715,37.958578,6704.2826544,-129.663,-28.142,292.613
14.4956,128.171457,37.958598,6702.385884000001,-130.004,-28.366,292.429
14.5123,128.171414,37.958617,6700.4775312,-130.43,-28.587,292.247
14.529,128.171372,37.958637,6698.557596000001,-130.937,-28.807,292.069
14.5457,128.171329,37.958656,6696.625468800001,-131.522,-29.026,291.894
14.5624,128.171287,37.958676,6694.6811496,-132.183,-29.245,291.723
14.5791,128.171244,37.958695,6692.723724,-132.917,-29.463,291.556
14.5958,128.171202,37.958714,6690.754106400001,-133.721,-29.682,291.393
14.6125,128.171159,37.958733,6688.7716872,-134.595,-29.903,291.235
14.6292,128.171117,37.958752,6686.7761616,-135.534,-30.125,291.082
14.6459,128.171074,37.958771,6684.7678344,-136.538,-30.349,290.934
14.6626,128.171031,37.958789,6682.746400800001,-137.605,-30.575,290.792
14.6793,128.170989,37.958808,6680.711556000001,-138.734,-30.805,290.655
14.696,128.170946,37.958826,6678.6636048,-139.776,-31.013,290.514
14.7127,128.170904,37.958845,6676.602852000001,-140.739,-31.192,290.379
14.7294,128.170861,37.958863,6674.5305168,-141.625,-31.335,290.263
14.7461,128.170819,37.958881,6672.4462944,-142.433,-31.436,290.179
14.7628,128.170776,37.958899,6670.3507944,-143.162,-31.505,290.122
14.7795,128.170734,37.958917,6668.2440168,-143.809,-31.551,290.087
14.7962,128.170692,37.958935,6666.1265712,-144.371,-31.582,290.067
14.8129,128.170649,37.958953,6663.9990672,-144.85,-31.604,290.058
14.8296,128.170607,37.958971,6661.8615048,-145.247,-31.62,290.056
14.8463,128.170564,37.958988,6659.7144935999995,-145.564,-31.634,290.06
14.863,128.170522,37.959006,6657.558033600001,-145.804,-31.647,290.067
14.8797,128.170479,37.959024,6655.3930392,-145.969,-31.659,290.076
14.8964,128.170437,37.959041,6653.2195104,-146.062,-31.673,290.086
14.9131,128.170395,37.959059,6651.037752000001,-146.085,-31.688,290.096
14.9298,128.170352,37.959076,6648.848373600001,-146.04,-31.704,290.106
14.9465,128.17031,37.959094,6646.6519848,-145.929,-31.722,290.114
14.9632,128.170267,37.959111,6644.4482808,-145.756,-31.742,290.122
14.9799,128.170225,37.959129,6642.2378712,-145.521,-31.764,290.128
14.9966,128.170182,37.959146,6640.0201464,-145.226,-31.787,290.132
15.0133,128.17014,37.959163,6637.7960207999995,-144.874,-31.812,290.135
15.03,128.170098,37.959181,6635.56458,-144.465,-31.839,290.135
15.0467,128.170055,37.959198,6633.326738400001,-144.001,-31.868,290.132
15.0634,128.170013,37.959215,6631.0818864,-143.484,-31.898,290.127
15.0801,128.16997,37.959232,6628.830328800001,-142.914,-31.93,290.119
15.0968,128.169928,37.959249,6626.572370400001,-142.294,-31.963,290.108
15.1135,128.169885,37.959266,6624.307401600001,-141.623,-31.997,290.093
15.1302,128.169843,37.959284,6622.036032,-140.903,-32.033,290.076
15.1469,128.1698,37.959301,6619.757652000001,-140.135,-32.07,290.054
15.1636,128.169758,37.959318,6617.473176,-139.319,-32.108,290.029
15.1803,128.169716,37.959335,6615.179860800001,-138.599,-32.165,290.001
15.197,128.169673,37.959351,6612.8789256,-137.974,-32.249,289.96
15.2137,128.16963,37.959368,6610.569760800001,-137.433,-32.365,289.894
15.2304,128.169588,37.959385,6608.251756800001,-136.96,-32.518,289.79
15.2471,128.169545,37.959402,6605.9246088,-136.549,-32.703,289.649
15.2638,128.169503,37.959419,6603.5889264,-136.096,-32.907,289.47
15.2805,128.16946,37.959435,6601.2450144,-135.603,-33.12,289.261
15.2972,128.169418,37.959452,6598.8919584000005,-135.077,-33.338,289.03
15.3139,128.169375,37.959468,6596.5297584,-134.526,-33.558,288.787
15.3306,128.169333,37.959485,6594.158414400001,-133.958,-33.776,288.538
15.3473,128.16929,37.959501,6591.7773168,-133.38,-33.992,288.286
15.364,128.169248,37.959518,6589.3864656000005,-132.8,-34.203,288.034
15.3807,128.169205,37.959534,6586.9858608,-132.223,-34.408,287.785
15.3974,128.169162,37.95955,6584.5755024,-131.654,-34.608,287.539
15.4141,128.16912,37.959566,6582.1547808000005,-131.098,-34.801,287.296
15.4308,128.169077,37.959582,6579.723696,-130.557,-34.988,287.058
15.4475,128.169035,37.959598,6577.2828576,-130.035,-35.168,286.824
