Time,Longitude,Latitude,Altitude,Roll (deg),Pitch (deg),Yaw (deg)
0.0,128.181881,37.923646,7000.146528,0.0,-0.003,0.0
0.0167,128.181881,37.923691,7000.1605488000005,0.0,-0.012,0.0
0.0334,128.181881,37.923736,7000.172740800001,0.087,-0.025,0.011
0.0501,128.181881,37.923781,7000.183104000001,0.258,-0.041,0.034
0.0668,128.181881,37.923826,7000.191028800001,0.516,-0.058,0.064
0.0834,128.181881,37.923871,7000.1962104,0.864,-0.077,0.097
0.1002,128.181881,37.923916,7000.198344,1.3,-0.095,0.132
0.1169,128.181881,37.923961,7000.197124800001,1.824,-0.112,0.167
0.1336,128.181881,37.924006,7000.192248,2.432,-0.128,0.201
0.1503,128.181881,37.924051,7000.1834088000005,3.122,-0.14,0.235
0.1669,128.181881,37.924096,7000.1703024,3.89,-0.15,0.268
0.1837,128.181881,37.924141,7000.153538400001,4.733,-0.156,0.3
0.2004,128.181881,37.924186,7000.1331168,5.648,-0.157,0.331
0.2171,128.181881,37.924231,7000.109037600001,6.631,-0.153,0.362
0.2338,128.181881,37.924276,7000.0813008000005,7.679,-0.144,0.393
0.2505,128.181881,37.924321,7000.0499064000005,8.791,-0.13,0.425
0.2672,128.181881,37.924366,7000.015464,9.962,-0.11,0.456
0.2839,128.181881,37.924411,6999.9776688,11.191,-0.085,0.488
0.3006,128.181881,37.924456,6999.9365208,12.474,-0.054,0.522
0.3172,128.181881,37.924502,6999.8926296,13.811,-0.018,0.557
0.3339,128.181881,37.924547,6999.8456904,15.197,0.022,0.593
0.3507,128.181881,37.924592,6999.7963128,16.632,0.075,0.633
0.3674,128.181881,37.924637,6999.744192000001,18.114,0.138,0.678
0.3841,128.181881,37.924682,6999.689937600001,19.64,0.211,0.727
0.4008,128.181881,37.924727,6999.6335496,21.209,0.291,0.781
0.4175,128.181881,37.924773,6999.575028,22.819,0.377,0.839
0.4342,128.181881,37.924818,6999.5158968000005,24.453,0.467,0.9
0.4509,128.181881,37.924863,6999.4555464000005,26.091,0.562,0.964
0.4676,128.181881,37.924908,6999.395196,27.716,0.659,1.029
0.4843,128.181881,37.924954,6999.3348456,29.31,0.758,1.096
0.501,128.181881,37.924999,6999.2751048,30.859,0.859,1.165
0.5176,128.181881,37.925044,6999.216583200001,32.353,0.96,1.234
0.5344,128.181881,37.92509,6999.1592808000005,33.782,1.061,1.305
0.5511,128.181881,37.925135,6999.1035024,35.14,1.16,1.377
0.5678,128.181881,37.92518,6999.0498576,36.422,1.257,1.451
0.5845,128.181882,37.925225,6998.9986512000005,37.627,1.351,1.525
0.6012,128.181882,37.925271,6998.950188000001,38.754,1.441,1.601
0.6179,128.181882,37.925316,6998.9041632,39.804,1.526,1.676
0.6345,128.181882,37.925361,6998.8611864,40.779,1.607,1.752
0.6513,128.181883,37.925407,6998.8203432,41.683,1.682,1.827
0.6679,128.181883,37.925452,6998.782548,42.517,1.753,1.901
0.6847,128.181884,37.925497,6998.7468864,43.286,1.818,1.973
0.7014,128.181884,37.925543,6998.713968,43.993,1.877,2.044
0.7181,128.181885,37.925588,6998.683488000001,44.642,1.932,2.112
0.7348,128.181886,37.925633,6998.6548368,45.298,1.978,2.181
0.7514,128.181886,37.925679,6998.6277096,45.955,2.018,2.249
0.7682,128.181887,37.925724,6998.601801600001,46.597,2.054,2.315
0.7848,128.181888,37.925769,6998.578332,47.208,2.088,2.376
0.8016,128.181889,37.925815,6998.5566912,47.772,2.122,2.434
0.8183,128.18189,37.92586,6998.5377935999995,48.279,2.156,2.489
0.835,128.181891,37.925905,6998.521334399999,48.728,2.192,2.542
0.8517,128.181892,37.925951,6998.5070088,49.121,2.229,2.592
0.8684,128.181893,37.925996,6998.4954264,49.465,2.276,2.652
0.8851,128.181894,37.926041,6998.4859776,49.76,2.331,2.718
0.9018,128.181895,37.926087,6998.4792720000005,50.003,2.389,2.787
0.9185,128.181897,37.926132,6998.4753096,50.188,2.448,2.854
0.9352,128.181898,37.926177,6998.4737856,50.311,2.505,2.915
0.9519,128.1819,37.926223,6998.4753096,50.37,2.557,2.969
0.9686,128.181901,37.926268,6998.4795768,50.366,2.603,3.016
0.9853,128.181903,37.926313,6998.4862824,50.302,2.643,3.055
1.002,128.181904,37.926359,6998.4954264,50.187,2.676,3.088
1.0187,128.181906,37.926404,6998.5070088,50.021,2.703,3.115
1.0353,128.181908,37.926449,6998.520724800001,49.816,2.724,3.136
1.0521,128.18191,37.926495,6998.536269600001,49.583,2.739,3.154
1.0688,128.181912,37.92654,6998.5536432,49.337,2.749,3.171
1.0855,128.181914,37.926585,6998.572540800001,49.081,2.755,3.187
1.1022,128.181916,37.926631,6998.5929624,48.825,2.759,3.203
1.1189,128.181918,37.926676,6998.6146032,48.576,2.76,3.221
1.1356,128.18192,37.926721,6998.637463200001,48.339,2.761,3.239
1.1522,128.181922,37.926767,6998.662152000001,48.106,2.761,3.258
1.169,128.181924,37.926812,6998.6883648,47.876,2.762,3.277
1.1857,128.181926,37.926857,6998.716406400001,47.645,2.762,3.294
1.2024,128.181929,37.926903,6998.745972000001,47.408,2.763,3.311
1.2191,128.181931,37.926948,6998.777976,47.15,2.764,3.325
1.2358,128.181933,37.926993,6998.8121136,46.864,2.766,3.335
1.2525,128.181936,37.927039,6998.8486896,46.546,2.767,3.343
1.2691,128.181938,37.927084,6998.887704000001,46.18,2.769,3.347
1.2859,128.181941,37.927129,6998.9297664,45.768,2.771,3.348
1.3026,128.181944,37.927175,6998.9739624,45.314,2.773,3.349
1.3193,128.181946,37.92722,6999.020292000001,44.825,2.776,3.35
1.3359,128.181949,37.927266,6999.069364800001,44.298,2.78,3.352
1.3527,128.181952,37.927311,6999.1202664,43.743,2.785,3.356
1.3694,128.181955,37.927356,6999.173301600001,43.17,2.791,3.363
1.386,128.181957,37.927402,6999.2287752,42.575,2.798,3.371
1.4028,128.18196,37.927447,6999.286382400001,41.96,2.806,3.381
1.4195,128.181963,37.927492,6999.3470376000005,41.305,2.815,3.39
1.4362,128.181966,37.927538,6999.410436,40.599,2.826,3.396
1.4528,128.181969,37.927583,6999.4771872,39.832,2.837,3.4
1.4696,128.181973,37.927628,6999.547596,39.006,2.848,3.401
1.4863,128.181976,37.927674,6999.6210528,38.121,2.856,3.399
1.5029,128.181979,37.927719,6999.6981672,37.179,2.862,3.393
1.5197,128.181982,37.927764,6999.7786344,36.181,2.865,3.386
1.5364,128.181986,37.92781,6999.8624544,35.13,2.867,3.377
1.5531,128.181989,37.927855,6999.9502368,34.026,2.869,3.369
1.5697,128.181993,37.9279,7000.0410672,32.873,2.872,3.36
1.5865,128.181996,37.927946,7000.13586,31.671,2.876,3.353
1.6032,128.182,37.927991,7000.234310400001,30.422,2.881,3.346
1.6198,128.182003,37.928036,7000.3364184,29.129,2.889,3.34
1.6366,128.182007,37.928081,7000.442488799999,27.792,2.899,3.336
1.6533,128.18201,37.928127,7000.5522168,26.414,2.911,3.333
1.67,128.182014,37.928172,7000.665602399999,24.994,2.925,3.329
1.6867,128.182018,37.928217,7000.783255200001,23.537,2.94,3.326
1.7034,128.182021,37.928263,7000.904565600001,22.041,2.957,3.323
1.7201,128.182025,37.928308,7001.0301432,20.509,2.975,3.32
1.7368,128.182029,37.928353,7001.1596832000005,18.943,2.994,3.317
1.7535,128.182033,37.928398,7001.2934904,17.342,3.014,3.313
1.7702,128.182037,37.928444,7001.43126,15.709,3.035,3.308
1.7869,128.18204,37.928489,7001.573601600001,14.044,3.058,3.302
1.8036,128.182044,37.928534,7001.719905600001,12.348,3.082,3.296
1.8203,128.182048,37.92858,7001.870781600001,10.623,3.108,3.288
1.837,128.182052,37.928625,7002.025924800001,8.869,3.136,3.28
1.8537,128.182056,37.92867,7002.1853352,7.087,3.167,3.271
1.8704,128.18206,37.928715,7002.3493176,5.278,3.2,3.26
1.8871,128.182064,37.928761,7002.517872,3.442,3.236,3.248
1.9038,128.182068,37.928806,7002.6909984,1.581,3.275,3.235
1.9205,128.182072,37.928851,7002.868696800001,-0.304,3.317,3.219
1.9372,128.182076,37.928896,7003.0509672,-2.215,3.363,3.202
1.9539,128.18208,37.928942,7003.2381144,-4.151,3.411,3.183
1.9706,128.182084,37.928987,7003.4295288,-6.11,3.463,3.161
1.9873,128.182087,37.929032,7003.626124800001,-8.092,3.518,3.137
2.004,128.182091,37.929077,7003.826988000001,-10.098,3.576,3.111
2.0207,128.182095,37.929123,7004.032728,-12.125,3.637,3.081
2.0374,128.182099,37.929168,7004.2433448,-14.175,3.7,3.048
2.0541,128.182103,37.929213,7004.458533600001,-16.246,3.767,3.012
2.0707,128.182107,37.929258,7004.6782944,-18.338,3.835,2.972
2.0875,128.182111,37.929304,7004.902932,-20.451,3.906,2.928
2.1042,128.182114,37.929349,7005.1321416,-22.585,3.979,2.879
2.1208,128.182118,37.929394,7005.365923200001,-24.739,4.053,2.826
2.1376,128.182122,37.929439,7005.603972,-26.913,4.129,2.768
2.1543,128.182125,37.929484,7005.846897600001,-29.107,4.206,2.704
2.171,128.182129,37.92953,7006.0940904,-31.321,4.284,2.636
2.1877,128.182133,37.929575,7006.3455504,-33.554,4.362,2.561
2.2044,128.182136,37.92962,7006.601277600001,-35.807,4.44,2.481
2.2211,128.18214,37.929665,7006.8609672,-38.079,4.519,2.395
2.2378,128.182143,37.929711,7007.124924000001,-40.371,4.596,2.303
2.2544,128.182146,37.929756,7007.392538400001,-42.682,4.673,2.205
2.2712,128.18215,37.929801,7007.6638104,-45.012,4.748,2.1
2.2879,128.182153,37.929846,7007.9387400000005,-47.361,4.821,1.988
2.3045,128.182156,37.929891,7008.2167176,-49.73,4.892,1.87
2.3213,128.182159,37.929937,7008.4980479999995,-52.118,4.961,1.745
2.338,128.182162,37.929982,7008.7824264,-54.525,5.026,1.613
2.3546,128.182165,37.930027,7009.0692432,-56.952,5.087,1.474
2.3714,128.182168,37.930072,7009.3588032,-59.398,5.144,1.329
2.3881,128.182171,37.930118,7009.650192000001,-61.863,5.197,1.176
2.4048,128.182173,37.930163,7009.9437144,-64.348,5.244,1.017
2.4215,128.182176,37.930208,7010.239065600001,-66.852,5.286,0.852
2.4382,128.182178,37.930253,7010.5356360000005,-69.376,5.321,0.68
2.4549,128.182181,37.930298,7010.8331208,-71.919,5.35,0.501
2.4716,128.182183,37.930344,7011.131520000001,-74.482,5.371,0.317
2.4882,128.182185,37.930389,7011.429919200001,-77.065,5.384,0.127
2.505,128.182187,37.930434,7011.728623200001,-79.667,5.389,359.933
2.5217,128.182189,37.930479,7012.0270224000005,-82.289,5.384,359.733
2.5383,128.182191,37.930525,7012.324812,-84.931,5.37,359.528
2.5551,128.182193,37.93057,7012.621382400001,-87.593,5.347,359.32
2.5718,128.182195,37.930615,7012.916428800001,-90.275,5.312,359.108
2.5884,128.182196,37.93066,7013.209341600001,-92.976,5.267,358.894
2.6052,128.182198,37.930706,7013.5004256,-95.697,5.21,358.677
2.6219,128.182199,37.930751,7013.7884616,-98.437,5.142,358.459
2.6386,128.182201,37.930796,7014.0734496000005,-101.198,5.062,358.241
2.6553,128.182202,37.930841,7014.35478,-103.978,4.97,358.023
2.6719,128.182203,37.930886,7014.6324528,-106.777,4.865,357.805
2.6887,128.182204,37.930932,7014.9055536000005,-109.597,4.747,357.589
2.7054,128.182205,37.930977,7015.1737776,-112.435,4.616,357.375
2.722,128.182205,37.931022,7015.436820000001,-115.294,4.473,357.165
2.7388,128.182206,37.931067,7015.6940712,-118.172,4.317,356.959
2.7555,128.182207,37.931113,7015.9452264,-121.069,4.148,356.758
2.7721,128.182207,37.931158,7016.1899808,-123.986,3.967,356.563
2.7889,128.182207,37.931203,7016.427724800001,-126.921,3.773,356.376
2.8056,128.182208,37.931248,7016.6584584,-129.877,3.567,356.196
2.8222,128.182208,37.931294,7016.8812672,-132.851,3.35,356.026
2.839,128.182208,37.931339,7017.0961512,-135.845,3.121,355.865
2.8557,128.182208,37.931384,7017.3028056,-138.858,2.882,355.715
2.8724,128.182208,37.931429,7017.5009256,-141.89,2.633,355.577
2.8891,128.182208,37.931475,7017.689596800001,-144.941,2.374,355.45
2.9057,128.182207,37.93152,7017.869428800001,-148.008,2.107,355.337
2.9225,128.182207,37.931565,7018.0401168,-151.091,1.832,355.237
2.9392,128.182207,37.93161,7018.200746400001,-154.187,1.55,355.152
2.9558,128.182206,37.931656,7018.3519272,-157.296,1.262,355.08
2.9726,128.182206,37.931701,7018.493049600001,-160.414,0.969,355.025
2.9893,128.182205,37.931746,7018.624418400001,-163.543,0.672,354.984
3.0059,128.182205,37.931792,7018.745424000001,-166.68,0.371,354.96
3.0227,128.182204,37.931837,7018.8560664,-169.825,0.069,354.952
3.0394,128.182203,37.931882,7018.9563456000005,-172.978,-0.233,354.961
3.056,128.182203,37.931927,7019.0462615999995,-176.137,-0.535,354.986
3.0728,128.182202,37.931973,7019.1258144,-179.302,-0.836,355.027
3.0895,128.182201,37.932018,7019.195004,177.525,-1.133,355.086
3.1062,128.182201,37.932063,7019.2538304,174.348,-1.427,355.16
3.1229,128.1822,37.932109,7019.3022936,171.17,-1.715,355.251
3.1395,128.182199,37.932154,7019.3416128,167.997,-1.998,355.356
3.1563,128.182198,37.932199,7019.371178400001,164.835,-2.272,355.476
3.173,128.182198,37.932244,7019.3912952,161.689,-2.538,355.609
3.1896,128.182197,37.93229,7019.4028776000005,158.568,-2.796,355.754
3.2064,128.182196,37.932335,7019.405315999999,155.472,-3.042,355.912
3.2231,128.182196,37.93238,7019.3989152,152.403,-3.278,356.082
3.2397,128.182195,37.932426,7019.3836752,149.357,-3.502,356.262
3.2565,128.182194,37.932471,7019.3599008,146.334,-3.713,356.452
3.2732,128.182194,37.932516,7019.327592000001,143.33,-3.911,356.652
3.2899,128.182193,37.932562,7019.2870536,140.347,-4.096,356.86
3.3066,128.182192,37.932607,7019.2382856,137.382,-4.266,357.075
3.3233,128.182192,37.932652,7019.180678400001,134.388,-4.411,357.289
3.34,128.182191,37.932698,7019.1151464,131.368,-4.522,357.491
3.3567,128.182191,37.932743,7019.0419944000005,128.323,-4.593,357.667
3.3734,128.18219,37.932788,7018.9609176,125.254,-4.621,357.806
3.3901,128.18219,37.932834,7018.8731352,122.163,-4.608,357.903
3.4068,128.18219,37.932879,7018.778647200001,119.053,-4.568,357.966
3.4235,128.182189,37.932924,7018.6780632,115.924,-4.51,358.008
3.4402,128.182189,37.93297,7018.571688000001,112.778,-4.443,358.036
3.4569,128.182189,37.933015,7018.459826400001,109.613,-4.372,358.056
3.4736,128.182189,37.93306,7018.3430880000005,106.429,-4.3,358.073
3.4903,128.182188,37.933106,7018.221777600001,103.228,-4.229,358.088
3.507,128.182188,37.933151,7018.0962,100.01,-4.161,358.104
3.5237,128.182188,37.933197,7017.9663552,96.778,-4.095,358.122
3.5404,128.182188,37.933242,7017.8328528,93.534,-4.032,358.142
3.5571,128.182188,37.933287,7017.695692800001,90.281,-3.972,358.164
3.5738,128.182188,37.933333,7017.55518,87.022,-3.914,358.188
3.5905,128.182188,37.933378,7017.4113144,83.76,-3.858,358.218
3.6072,128.182188,37.933423,7017.264400800001,80.498,-3.803,358.256
3.6239,128.182188,37.933469,7017.1141344,77.238,-3.748,358.304
3.6406,128.182188,37.933514,7016.9614296,73.983,-3.69,358.365
3.6573,128.182188,37.933559,7016.805676800001,70.735,-3.629,358.437
3.674,128.182189,37.933605,7016.6477904,67.499,-3.563,358.518
3.6907,128.182189,37.93365,7016.487160800001,64.275,-3.493,358.608
3.7074,128.182189,37.933696,7016.3247024,61.066,-3.416,358.705
3.7241,128.182189,37.933741,7016.160110400001,57.874,-3.334,358.806
3.7408,128.182189,37.933786,7015.9936896,54.702,-3.245,358.908
3.7575,128.182189,37.933832,7015.8260496,51.55,-3.152,359.011
3.7742,128.18219,37.933877,7015.6571904,48.419,-3.053,359.111
3.7909,128.18219,37.933923,7015.4877216,45.31,-2.951,359.208
3.8076,128.18219,37.933968,7015.317338400001,42.223,-2.847,359.298
3.8243,128.182191,37.934013,7015.146955200001,39.157,-2.74,359.383
3.841,128.182191,37.934059,7014.9768768,36.113,-2.634,359.459
3.8577,128.182192,37.934104,7014.8067984,33.089,-2.528,359.528
3.8744,128.182192,37.93415,7014.6379392,30.085,-2.424,359.588
3.8911,128.182193,37.934195,7014.4699944,27.099,-2.323,359.64
3.9078,128.182193,37.934241,7014.3032688,24.131,-2.226,359.683
3.9245,128.182194,37.934286,7014.138372,21.18,-2.132,359.719
3.9412,128.182194,37.934331,7013.9753040000005,18.247,-2.042,359.748
3.9579,128.182195,37.934377,7013.814369600001,15.332,-1.956,359.77
3.9746,128.182195,37.934422,7013.655568800001,12.435,-1.875,359.787
3.9913,128.182196,37.934468,7013.499206400001,9.556,-1.798,359.798
4.008,128.182197,37.934513,7013.3455872,6.695,-1.726,359.805
4.0247,128.182197,37.934559,7013.194711200001,3.852,-1.658,359.807
4.0414,128.182198,37.934604,7013.046578400001,1.025,-1.593,359.805
4.058,128.182198,37.93465,7012.9017984,-1.784,-1.532,359.8
4.0748,128.182199,37.934695,7012.7597616,-4.58,-1.475,359.791
4.0915,128.1822,37.93474,7012.621077600001,-7.361,-1.422,359.779
4.1082,128.1822,37.934786,7012.485441600001,-10.129,-1.372,359.765
4.1249,128.182201,37.934831,7012.3528536,-12.885,-1.326,359.748
4.1415,128.182202,37.934877,7012.2239232,-15.629,-1.283,359.729
4.1583,128.182202,37.934922,7012.097736000001,-18.363,-1.242,359.707
4.175,128.182203,37.934968,7011.9749016000005,-21.088,-1.205,359.684
4.1917,128.182203,37.935013,7011.855115200001,-23.803,-1.169,359.658
4.2084,128.182204,37.935059,7011.7383768,-26.511,-1.136,359.631
4.2251,128.182204,37.935104,7011.6246864,-29.211,-1.105,359.602
4.2417,128.182205,37.93515,7011.5137392,-31.906,-1.077,359.571
4.2585,128.182205,37.935195,7011.4055352000005,-34.595,-1.05,359.538
4.2752,128.182205,37.935241,7011.299769600001,-37.279,-1.026,359.504
4.2919,128.182206,37.935286,7011.196747200001,-39.959,-1.003,359.469
4.3086,128.182206,37.935332,7011.0958584,-42.635,-0.983,359.431
4.3252,128.182206,37.935377,7010.9967983999995,-45.309,-0.964,359.392
4.342,128.182206,37.935423,7010.899872,-47.983,-0.946,359.352
4.3587,128.182207,37.935468,7010.8047744000005,-50.659,-0.928,359.311
4.3754,128.182207,37.935514,7010.7108960000005,-53.334,-0.91,359.268
4.3921,128.182207,37.93556,7010.618541600001,-56.011,-0.894,359.222
4.4088,128.182207,37.935605,7010.527101600001,-58.688,-0.877,359.173
4.4254,128.182206,37.935651,7010.436576,-61.366,-0.862,359.121
4.4422,128.182206,37.935696,7010.34666,-64.046,-0.849,359.066
4.4589,128.182206,37.935742,7010.2573536,-66.728,-0.837,359.007
4.4756,128.182206,37.935787,7010.167742400001,-69.412,-0.827,358.947
4.4923,128.182205,37.935833,7010.0781312,-72.098,-0.82,358.884
4.5089,128.182205,37.935878,7009.988215200001,-74.788,-0.816,358.821
4.5256,128.182204,37.935924,7009.8973848,-77.482,-0.816,358.757
4.5424,128.182204,37.935969,7009.8056400000005,-80.179,-0.818,358.694
4.5591,128.182203,37.936015,7009.7123712,-82.881,-0.825,358.632
4.5758,128.182202,37.93606,7009.617578400001,-85.587,-0.835,358.571
4.5925,128.182202,37.936106,7009.5212616,-88.299,-0.848,358.513
4.6091,128.182201,37.936152,7009.422506400001,-91.016,-0.865,358.458
4.6259,128.1822,37.936197,7009.3213128,-93.723,-0.884,358.405
4.6426,128.182199,37.936243,7009.2170712,-96.402,-0.904,358.355
4.6593,128.182198,37.936288,7009.1100864,-99.037,-0.923,358.306
4.676,128.182197,37.936334,7009.0000536,-101.616,-0.943,358.26
4.6927,128.182196,37.936379,7008.8869728,-104.13,-0.961,358.216
4.7093,128.182194,37.936425,7008.7705392,-106.576,-0.98,358.177
4.7261,128.182193,37.936471,7008.6507528,-108.977,-1.0,358.143
4.7428,128.182192,37.936516,7008.5273088,-111.341,-1.021,358.118
4.7595,128.182191,37.936562,7008.4002072,-113.673,-1.043,358.099
4.7762,128.182189,37.936607,7008.2691432,-115.977,-1.065,358.087
4.7928,128.182188,37.936653,7008.1341168,-118.249,-1.087,358.08
4.8096,128.182186,37.936699,7007.9951280000005,-120.48,-1.108,358.075
4.8263,128.182185,37.936744,7007.852786400001,-122.657,-1.128,358.071
4.843,128.182183,37.93679,7007.706482400001,-124.737,-1.149,358.06
4.8597,128.182182,37.936836,7007.5565208,-126.7,-1.172,358.039
4.8764,128.18218,37.936881,7007.403511200001,-128.537,-1.197,358.01
4.893,128.182179,37.936927,7007.2471488,-130.243,-1.225,357.974
4.9098,128.182177,37.936973,7007.088043199999,-131.864,-1.255,357.94
4.9265,128.182176,37.937018,7006.9252799999995,-133.419,-1.285,357.912
4.9432,128.182174,37.937064,7006.759468800001,-135.014,-1.313,357.904
4.9599,128.182173,37.93711,7006.5893904,-136.65,-1.341,357.915
4.9765,128.182171,37.937155,7006.4153496,-138.332,-1.366,357.938
4.9932,128.182169,37.937201,7006.236432000001,-140.064,-1.39,357.968
5.01,128.182168,37.937247,7006.052942400001,-141.848,-1.413,358.001
5.0267,128.182166,37.937293,7005.8642712,-143.5,-1.431,358.01
5.0434,128.182164,37.937338,7005.6713328000005,-145.025,-1.458,357.986
5.0601,128.182163,37.937384,7005.474432,-146.415,-1.509,357.928
5.0767,128.182161,37.93743,7005.273264,-147.666,-1.6,357.836
5.0935,128.182159,37.937475,7005.067828800001,-148.775,-1.745,357.708
5.1102,128.182157,37.937521,7004.858736,-149.743,-1.933,357.556
5.1269,128.182156,37.937567,7004.6459856,-150.573,-2.153,357.388
5.1436,128.182154,37.937613,7004.429577600001,-151.271,-2.393,357.215
5.1602,128.182152,37.937658,7004.2098168,-151.84,-2.637,357.044
5.1769,128.18215,37.937704,7003.9867032,-152.287,-2.876,356.88
5.1937,128.182148,37.93775,7003.760541600001,-152.617,-3.103,356.728
5.2104,128.182146,37.937796,7003.5307224,-153.018,-3.315,356.612
5.2271,128.182145,37.937841,7003.296636,-153.489,-3.499,356.54
5.2438,128.182143,37.937887,7003.0579776,-154.04,-3.638,356.508
5.2604,128.182141,37.937933,7002.814747200001,-154.679,-3.72,356.515
5.2772,128.182139,37.937979,7002.5660304,-155.409,-3.758,356.548
5.2939,128.182137,37.938025,7002.3118272,-156.23,-3.763,356.598
5.3106,128.182135,37.93807,7002.051832800001,-157.14,-3.748,356.658
5.3273,128.182133,37.938116,7001.7857424,-158.136,-3.722,356.722
5.3439,128.182131,37.938162,7001.513860800001,-159.034,-3.69,356.764
5.3606,128.182129,37.938208,7001.2367976000005,-160.019,-3.657,356.806
5.3774,128.182127,37.938254,7000.9539432,-160.894,-3.63,356.83
5.3941,128.182125,37.938299,7000.666212,-161.664,-3.626,356.829
5.4108,128.182123,37.938345,7000.3739088,-162.325,-3.657,356.805
5.4275,128.182121,37.938391,7000.0770336000005,-162.874,-3.719,356.766
5.4441,128.182119,37.938437,6999.7755864,-163.495,-3.804,356.741
5.4609,128.182117,37.938483,6999.468347999999,-164.182,-3.898,356.735
5.4776,128.182115,37.938528,6999.155928,-164.945,-3.986,356.746
5.4943,128.182113,37.938574,6998.8380216000005,-165.79,-4.054,356.771
5.511,128.182111,37.93862,6998.514324000001,-166.72,-4.092,356.808
5.5277,128.182109,37.938666,6998.1839208,-167.733,-4.107,356.852
5.5443,128.182106,37.938712,6997.8471168,-168.829,-4.107,356.899
5.5611,128.182104,37.938758,6997.5033023999995,-170.005,-4.098,356.948
5.5778,128.182102,37.938803,6997.1527824,-171.258,-4.084,356.996
5.5945,128.1821,37.938849,6996.794642400001,-172.584,-4.068,357.044
5.6112,128.182098,37.938895,6996.4291872,-173.98,-4.052,357.09
5.6278,128.182095,37.938941,6996.0558072,-175.445,-4.038,357.135
5.6445,128.182093,37.938987,6995.675112,-176.975,-4.027,357.178
5.6613,128.182091,37.939032,6995.287406400001,-178.567,-4.018,357.22
5.678,128.182089,37.939078,6994.8926904,179.779,-4.011,357.26
5.6947,128.182087,37.939124,6994.4909640000005,178.069,-4.008,357.299
5.7114,128.182084,37.93917,6994.0822272000005,176.303,-4.007,357.337
5.728,128.182082,37.939216,6993.6667848,174.485,-4.008,357.374
5.7448,128.18208,37.939261,6993.2446368,172.617,-4.012,357.41
5.7615,128.182078,37.939307,6992.8170024,170.805,-4.019,357.439
5.7782,128.182076,37.939353,6992.383881600001,169.07,-4.029,357.459
5.7949,128.182073,37.939399,6991.945884000001,167.42,-4.042,357.474
5.8115,128.182071,37.939445,6991.5030096,165.858,-4.057,357.485
5.8282,128.182069,37.93949,6991.055868,164.387,-4.074,357.495
5.845,128.182067,37.939536,6990.6050688000005,163.011,-4.092,357.503
5.8617,128.182065,37.939582,6990.150612,161.731,-4.112,357.509
5.8784,128.182062,37.939628,6989.6928024,160.544,-4.134,357.516
5.8951,128.18206,37.939674,6989.2325544000005,159.447,-4.156,357.522
5.9117,128.182058,37.93972,6988.7695632,158.439,-4.18,357.528
5.9285,128.182056,37.939766,6988.3044384,157.515,-4.204,357.534
5.9452,128.182054,37.939812,6987.8371799999995,156.677,-4.229,357.539
5.9619,128.182051,37.939857,6987.368397600001,155.919,-4.254,357.545
5.9786,128.182049,37.939903,6986.8974816,155.233,-4.282,357.545
5.9952,128.182047,37.939949,6986.424736800001,154.615,-4.312,357.541
6.0119,128.182045,37.939995,6985.9495536,154.064,-4.344,357.534
6.0287,128.182043,37.940041,6985.472846400001,153.582,-4.376,357.525
6.0454,128.18204,37.940087,6984.993700800001,153.172,-4.408,357.518
6.0621,128.182038,37.940133,6984.5127264,152.834,-4.438,357.511
6.0788,128.182036,37.940179,6984.029618400001,152.568,-4.468,357.508
6.0954,128.182034,37.940225,6983.5446816,152.376,-4.495,357.508
6.1121,128.182031,37.940271,6983.057611200001,152.252,-4.521,357.511
6.1289,128.182029,37.940318,6982.567492800001,152.086,-4.543,357.522
6.1456,128.182027,37.940364,6982.0743264,151.857,-4.56,357.54
6.1623,128.182025,37.94041,6981.5778072,151.546,-4.575,357.565
6.179,128.182022,37.940456,6981.0779352,151.145,-4.588,357.594
6.1956,128.18202,37.940502,6980.5744056,150.656,-4.6,357.624
6.2124,128.182018,37.940548,6980.066913600001,150.085,-4.613,357.654
6.2291,128.182016,37.940594,6979.5548496,149.431,-4.626,357.684
6.2458,128.182013,37.94064,6979.038518400001,148.698,-4.64,357.713
6.2625,128.182011,37.940686,6978.5173104000005,147.891,-4.653,357.744
6.2791,128.182009,37.940733,6977.9909208,147.011,-4.666,357.777
6.2958,128.182007,37.940779,6977.459349600001,146.061,-4.678,357.812
6.3126,128.182005,37.940825,6976.922292,145.044,-4.691,357.846
6.3293,128.182003,37.940871,6976.379748,143.961,-4.705,357.881
6.346,128.182001,37.940917,6975.8320224,142.816,-4.719,357.915
6.3627,128.181998,37.940963,6975.278810400001,141.612,-4.733,357.95
6.3793,128.181996,37.94101,6974.7204168,140.352,-4.748,357.983
6.3961,128.181994,37.941056,6974.157146400001,139.038,-4.763,358.017
6.4128,128.181992,37.941102,6973.5883896000005,137.674,-4.778,358.05
6.4295,128.18199,37.941148,6973.0147560000005,136.263,-4.793,358.083
6.4462,128.181989,37.941194,6972.436245600001,134.808,-4.809,358.115
6.4628,128.181987,37.94124,6971.8525536,133.31,-4.824,358.146
6.4795,128.181985,37.941287,6971.2642896,131.773,-4.839,358.177
6.4963,128.181983,37.941333,6970.6711488,130.2,-4.854,358.208
6.513,128.181981,37.941379,6970.0731312,128.591,-4.869,358.238
6.5297,128.181979,37.941425,6969.470541600001,126.951,-4.883,358.267
6.5464,128.181978,37.941471,6968.8636848,125.281,-4.897,358.295
6.5631,128.181976,37.941517,6968.251951200001,123.583,-4.91,358.323
6.5798,128.181974,37.941564,6967.6359504,121.859,-4.923,358.349
6.5965,128.181973,37.94161,6967.0156824000005,120.112,-4.935,358.374
6.6132,128.181971,37.941656,6966.391147200001,118.342,-4.947,358.398
6.6299,128.181969,37.941702,6965.7623448,116.553,-4.959,358.421
6.6466,128.181968,37.941748,6965.1298848,114.745,-4.969,358.443
6.6633,128.181966,37.941795,6964.4931576,112.921,-4.98,358.464
6.68,128.181965,37.941841,6963.852468,111.081,-4.99,358.483
6.6967,128.181963,37.941887,6963.2084256,109.228,-5.0,358.501
6.7134,128.181962,37.941933,6962.5604207999995,107.362,-5.009,358.518
6.7301,128.181961,37.941979,6961.909063200001,105.485,-5.018,358.533
6.7468,128.18196,37.942026,6961.2543528,103.598,-5.027,358.547
6.7635,128.181958,37.942072,6960.5962896,101.703,-5.036,358.559
6.7802,128.181957,37.942118,6959.935178400001,99.801,-5.044,358.57
6.7969,128.181956,37.942164,6959.2710192,97.891,-5.053,358.579
6.8136,128.181955,37.942211,6958.6041168,95.977,-5.061,358.587
6.8303,128.181954,37.942257,6957.9344712,94.057,-5.07,358.593
6.847,128.181953,37.942303,6957.2620824000005,92.134,-5.079,358.598
6.8637,128.181952,37.94235,6956.587560000001,90.208,-5.088,358.601
6.8804,128.181951,37.942396,6955.9105992,88.279,-5.098,358.602
6.8971,128.18195,37.942442,6955.2315048,86.349,-5.108,358.603
6.9138,128.181949,37.942488,6954.5505816,84.417,-5.118,358.601
6.9305,128.181949,37.942535,6953.867524800001,82.485,-5.13,358.599
6.9472,128.181948,37.942581,6953.1832488,80.553,-5.141,358.595
6.9639,128.181947,37.942627,6952.497144,78.62,-5.153,358.593
6.9806,128.181947,37.942674,6951.810124800001,76.688,-5.165,358.597
6.9973,128.181946,37.94272,6951.1218864,74.756,-5.174,358.61
7.014,128.181946,37.942766,6950.432733600001,72.824,-5.18,358.635
7.0307,128.181945,37.942813,6949.7429712,70.893,-5.182,358.671
7.0474,128.181945,37.942859,6949.0525992,68.963,-5.18,358.719
7.0641,128.181945,37.942905,6948.3619224,67.034,-5.173,358.779
7.0808,128.181944,37.942952,6947.6712456000005,65.107,-5.16,358.849
7.0975,128.181944,37.942998,6946.9808736,63.182,-5.141,358.929
7.1142,128.181944,37.943045,6946.291111200001,61.259,-5.115,359.017
7.1309,128.181944,37.943091,6945.6016536,59.338,-5.082,359.112
7.1476,128.181944,37.943137,6944.913415200001,57.42,-5.043,359.212
7.1643,128.181944,37.943184,6944.226396000001,55.503,-4.997,359.316
7.181,128.181944,37.94323,6943.5412056000005,53.588,-4.946,359.422
7.1977,128.181944,37.943277,6942.8575392,51.675,-4.889,359.53
7.2144,128.181944,37.943323,6942.176006400001,49.762,-4.825,359.639
7.2311,128.181945,37.94337,6941.4972168,47.849,-4.753,359.749
7.2478,128.181945,37.943416,6940.8211704000005,45.935,-4.674,359.862
7.2645,128.181945,37.943463,6940.1484768,44.02,-4.584,359.977
7.2812,128.181946,37.943509,6939.479136,42.102,-4.484,0.096
7.2979,128.181946,37.943556,6938.8140624,40.181,-4.369,0.22
7.3146,128.181947,37.943602,6938.1532560000005,38.257,-4.237,0.35
7.3313,128.181948,37.943649,6937.4976312,36.327,-4.086,0.487
7.348,128.181949,37.943695,6936.847188000001,34.391,-3.912,0.632
7.3647,128.181949,37.943742,6936.202536000001,32.449,-3.715,0.783
7.3814,128.18195,37.943788,6935.5645896,30.501,-3.492,0.939
7.3981,128.181951,37.943835,6934.933044,28.545,-3.246,1.098
7.4148,128.181952,37.943882,6934.3091184,26.582,-2.978,1.257
7.4315,128.181953,37.943928,6933.692508,24.63,-2.69,1.415
7.4482,128.181954,37.943975,6933.0832128,22.739,-2.391,1.57
7.4649,128.181955,37.944021,6932.481537600001,20.952,-2.084,1.721
7.4816,128.181957,37.944068,6931.8874824,19.286,-1.778,1.864
7.4983,128.181958,37.944115,6931.3010472000005,17.736,-1.481,1.995
7.515,128.181959,37.944161,6930.722232,16.29,-1.202,2.109
7.5317,128.18196,37.944208,6930.150732,14.919,-0.949,2.202
7.5484,128.181962,37.944255,6929.588376,13.583,-0.728,2.273
7.5651,128.181963,37.944301,6929.0345544,12.231,-0.544,2.319
7.5818,128.181964,37.944348,6928.4901816,10.844,-0.399,2.343
7.5985,128.181966,37.944395,6927.9555624,9.417,-0.293,2.348
7.6152,128.181967,37.944442,6927.431001600001,7.947,-0.224,2.34
7.6319,128.181969,37.944488,6926.916804,6.433,-0.187,2.321
7.6486,128.18197,37.944535,6926.412969600001,4.872,-0.175,2.296
7.6653,128.181972,37.944582,6925.9191936,3.265,-0.181,2.264
7.682,128.181973,37.944629,6925.435476,1.61,-0.199,2.23
7.6987,128.181975,37.944675,6924.961512,-0.091,-0.219,2.193
7.7154,128.181976,37.944722,6924.497606400001,-1.842,-0.237,2.154
7.7321,128.181978,37.944769,6924.0431496,-3.641,-0.246,2.114
7.7488,128.18198,37.944816,6923.5984464,-5.487,-0.242,2.07
7.7655,128.181981,37.944863,6923.1628872,-7.382,-0.224,2.024
7.7822,128.181983,37.94491,6922.7367768,-9.324,-0.19,1.973
7.7989,128.181984,37.944956,6922.320115200001,-11.313,-0.138,1.918
7.8156,128.181986,37.945003,6921.911988000001,-13.347,-0.071,1.856
7.8323,128.181987,37.94505,6921.5120904000005,-15.395,0.01,1.789
7.849,128.181988,37.945097,6921.1201176,-17.428,0.106,1.718
7.8657,128.18199,37.945144,6920.735460000001,-19.413,0.214,1.642
7.8824,128.181991,37.945191,6920.359641600001,-21.443,0.318,1.561
7.8991,128.181992,37.945238,6919.991138400001,-23.516,0.403,1.479
7.9158,128.181994,37.945284,6919.6308648,-25.632,0.457,1.402
7.9325,128.181995,37.945331,6919.276992000001,-27.791,0.468,1.339
7.9492,128.181996,37.945378,6918.930129599999,-29.993,0.441,1.292
7.9659,128.181997,37.945425,6918.5896680000005,-32.24,0.387,1.256
7.9826,128.181998,37.945472,6918.2556072,-34.532,0.319,1.226
7.9993,128.181999,37.945519,6917.9270328,-36.87,0.245,1.199
8.016,128.182,37.945566,6917.6039448,-39.255,0.171,1.171
8.0327,128.182001,37.945613,6917.285428800001,-41.688,0.099,1.141
8.0494,128.182002,37.94566,6916.9714848,-44.168,0.031,1.108
8.0661,128.182003,37.945707,6916.6615032,-46.695,-0.029,1.07
8.0828,128.182004,37.945753,6916.355179200001,-49.269,-0.086,1.029
8.0994,128.182004,37.9458,6916.052208,-51.89,-0.138,0.982
8.1161,128.182005,37.945847,6915.7522848,-54.555,-0.175,0.917
8.1329,128.182005,37.945894,6915.4554096,-57.264,-0.19,0.82
8.1496,128.182006,37.945941,6915.1612776,-60.015,-0.179,0.677
8.1663,128.182006,37.945988,6914.869584000001,-62.806,-0.14,0.477
8.183,128.182006,37.946035,6914.580024000001,-65.612,-0.072,0.209
8.1997,128.182007,37.946082,6914.291988000001,-68.374,0.021,359.873
8.2164,128.182007,37.946129,6914.0048664,-71.037,0.133,359.476
8.2331,128.182007,37.946175,6913.718964000001,-73.559,0.254,359.032
8.2498,128.182007,37.946222,6913.4333664,-75.908,0.375,358.55
8.2665,128.182007,37.946269,6913.1483784,-78.085,0.486,358.049
8.2831,128.182006,37.946316,6912.863695200001,-80.092,0.58,357.544
8.2998,128.182006,37.946363,6912.579012,-81.934,0.652,357.053
8.3166,128.182006,37.94641,6912.294024000001,-83.615,0.701,356.582
8.3333,128.182005,37.946457,6912.0084264,-85.15,0.735,356.132
8.35,128.182005,37.946504,6911.721914400001,-86.544,0.752,355.702
8.3667,128.182004,37.946551,6911.434792800001,-87.799,0.753,355.29
8.3834,128.182003,37.946598,6911.146452000001,-88.922,0.738,354.896
8.4001,128.182002,37.946645,6910.857196800001,-89.92,0.71,354.519
8.4168,128.182002,37.946692,6910.5661128,-90.799,0.67,354.158
8.4335,128.182001,37.946739,6910.2735048,-91.566,0.62,353.814
8.4502,128.181999,37.946786,6909.9793728,-92.228,0.563,353.484
8.4668,128.181998,37.946833,6909.6828024,-92.818,0.504,353.169
8.4835,128.181997,37.94688,6909.3840984,-93.353,0.443,352.868
8.5003,128.181996,37.946927,6909.083565600001,-93.838,0.38,352.58
8.517,128.181994,37.946974,6908.7805944,-94.281,0.316,352.305
8.5337,128.181992,37.947021,6908.4754896,-94.686,0.249,352.042
8.5504,128.181991,37.947068,6908.167946400001,-95.057,0.18,351.79
8.5671,128.181989,37.947115,6907.8579648,-95.398,0.109,351.548
8.5838,128.181987,37.947162,6907.54524,-95.712,0.036,351.316
8.6005,128.181985,37.947209,6907.229772000001,-96.003,-0.036,351.092
8.6172,128.181983,37.947256,6906.911865600001,-96.272,-0.111,350.877
8.6339,128.18198,37.947303,6906.590911200001,-96.522,-0.186,350.669
8.6505,128.181978,37.94735,6906.2672136,-96.753,-0.262,350.467
8.6672,128.181975,37.947397,6905.940468000001,-96.969,-0.339,350.272
8.684,128.181972,37.947444,6905.610674400001,-97.169,-0.415,350.082
8.7007,128.18197,37.947491,6905.2781376,-97.355,-0.492,349.897
8.7174,128.181967,37.947538,6904.942248,-97.528,-0.569,349.716
8.7341,128.181963,37.947584,6904.603005600001,-97.687,-0.646,349.54
8.7508,128.18196,37.947631,6904.261020000001,-97.835,-0.722,349.368
8.7675,128.181957,37.947678,6903.915376800001,-97.971,-0.799,349.2
8.7842,128.181953,37.947725,6903.5666856,-98.096,-0.875,349.036
8.8009,128.18195,37.947772,6903.2146416000005,-98.211,-0.951,348.875
8.8176,128.181946,37.947819,6902.8592448,-98.315,-1.027,348.717
8.8342,128.181942,37.947866,6902.5004952,-98.41,-1.102,348.562
8.8509,128.181938,37.947913,6902.138088000001,-98.495,-1.177,348.409
8.8676,128.181934,37.94796,6901.772328000001,-98.572,-1.251,348.259
8.8844,128.181929,37.948007,6901.403215200001,-98.64,-1.325,348.111
8.9011,128.181925,37.948054,6901.031968800001,-98.815,-1.412,347.967
8.9178,128.18192,37.9481,6900.656760000001,-99.096,-1.511,347.826
8.9345,128.181916,37.948147,6900.2775888,-99.483,-1.618,347.688
8.9512,128.181911,37.948194,6899.895064800001,-99.978,-1.73,347.552
8.9679,128.181906,37.948241,6899.5079688000005,-100.581,-1.845,347.417
8.9846,128.1819,37.948288,6899.116910400001,-101.29,-1.962,347.283
9.0013,128.181895,37.948334,6898.72128,-102.102,-2.081,347.148
9.0179,128.181889,37.948381,6898.320772800001,-103.013,-2.202,347.012
9.0346,128.181884,37.948428,6897.9153888,-104.021,-2.326,346.876
9.0513,128.181878,37.948475,6897.504823200001,-105.123,-2.454,346.738
9.0681,128.181872,37.948521,6897.0884664,-106.314,-2.585,346.598
9.0848,128.181865,37.948568,6896.6650992,-107.411,-2.708,346.453
9.1015,128.181859,37.948615,6896.2362456,-108.416,-2.822,346.301
9.1182,128.181853,37.948661,6895.800991200001,-109.331,-2.93,346.143
9.1349,128.181846,37.948708,6895.3596408,-110.155,-3.034,345.98
9.1516,128.181839,37.948754,6894.9121944,-110.886,-3.138,345.813
9.1683,128.181832,37.948801,6894.458652000001,-111.524,-3.244,345.644
9.185,128.181825,37.948847,6893.9993184,-112.071,-3.352,345.474
9.2016,128.181818,37.948894,6893.5338888,-112.53,-3.464,345.303
9.2183,128.181811,37.94894,6893.062363200001,-112.904,-3.578,345.131
9.235,128.181803,37.948987,6892.5853512,-113.196,-3.695,344.961
9.2518,128.181796,37.949033,6892.101938400001,-113.409,-3.814,344.791
9.2685,128.181788,37.94908,6891.6130392,-113.553,-3.934,344.624
9.2852,128.18178,37.949126,6891.1183488,-113.637,-4.055,344.459
9.3019,128.181773,37.949173,6890.617867200001,-113.668,-4.177,344.297
9.3186,128.181765,37.949219,6890.1118992,-113.654,-4.298,344.139
9.3353,128.181756,37.949265,6889.5998352,-113.601,-4.419,343.984
9.352,128.181748,37.949312,6889.0816752,-113.514,-4.538,343.833
9.3687,128.18174,37.949358,6888.5574192,-113.399,-4.656,343.686
9.3854,128.181732,37.949405,6888.0273720000005,-113.259,-4.773,343.543
9.402,128.181723,37.949451,6887.490924000001,-113.1,-4.887,343.403
9.4187,128.181714,37.949497,6886.9480752,-112.923,-4.999,343.268
9.4355,128.181706,37.949544,6886.39974,-112.689,-5.102,343.148
9.4522,128.181697,37.94959,6885.8456136,-112.401,-5.188,343.058
9.4689,128.181688,37.949636,6885.286000800001,-112.058,-5.261,342.994
9.4856,128.181679,37.949682,6884.7212064000005,-111.662,-5.325,342.947
9.5023,128.181669,37.949729,6884.1506208,-111.213,-5.382,342.911
9.519,128.18166,37.949775,6883.575768000001,-110.885,-5.437,342.902
9.5357,128.181651,37.949821,6882.995428800001,-110.67,-5.484,342.934
9.5524,128.181641,37.949867,6882.409908,-110.546,-5.513,343.018
9.5691,128.181632,37.949914,6881.818900800001,-110.491,-5.519,343.165
9.5857,128.181622,37.94996,6881.2230168,-110.491,-5.5,343.375
9.6024,128.181612,37.950006,6880.621951200001,-110.534,-5.463,343.63
9.6192,128.181602,37.950052,6880.015704,-110.615,-5.412,343.911
9.6359,128.181592,37.950098,6879.4042752,-110.734,-5.357,344.202
9.6526,128.181582,37.950144,6878.787969600001,-110.892,-5.303,344.486
9.6693,128.181572,37.95019,6878.166482400001,-111.096,-5.253,344.756
9.686,128.181562,37.950236,6877.540728000001,-111.344,-5.214,345.013
9.7027,128.181551,37.950282,6876.909792,-111.646,-5.187,345.256
9.7194,128.181541,37.950328,6876.274284000001,-112.013,-5.169,345.485
9.7361,128.18153,37.950375,6875.6338992,-112.458,-5.159,345.7
9.7528,128.18152,37.950421,6874.9883328000005,-112.991,-5.156,345.9
9.7694,128.181509,37.950466,6874.3381944,-113.621,-5.159,346.086
9.7861,128.181498,37.950512,6873.6828744,-114.357,-5.166,346.259
9.8029,128.181487,37.950558,6873.0223728,-115.209,-5.179,346.419
9.8196,128.181476,37.950604,6872.3569944,-116.18,-5.196,346.567
9.8363,128.181465,37.95065,6871.6864344,-117.267,-5.217,346.703
9.853,128.181454,37.950696,6871.0113024,-118.466,-5.242,346.828
9.8697,128.181443,37.950742,6870.330988799999,-119.774,-5.269,346.943
9.8864,128.181432,37.950788,6869.6457984,-121.188,-5.298,347.047
9.9031,128.181421,37.950834,6868.955731200001,-122.703,-5.331,347.142
9.9198,128.181409,37.95088,6868.260482400001,-124.316,-5.366,347.228
9.9365,128.181398,37.950925,6867.5606616,-126.022,-5.404,347.305
9.9531,128.181387,37.950971,6866.855964,-127.818,-5.444,347.375
9.9698,128.181375,37.951017,6866.145170400001,-129.5,-5.481,347.411
9.9865,128.181364,37.951063,6865.4295,-131.069,-5.526,347.402
10.0033,128.181352,37.951109,6864.7092576,-132.519,-5.597,347.34
10.02,128.181341,37.951154,6863.984138400001,-133.84,-5.711,347.224
10.0367,128.181329,37.9512,6863.254142400001,-135.031,-5.877,347.049
10.0534,128.181317,37.951246,6862.5192696,-136.093,-6.093,346.829
10.0701,128.181306,37.951292,6861.779824800001,-137.026,-6.347,346.576
10.0868,128.181294,37.951337,6861.035808,-137.837,-6.63,346.304
10.1035,128.181282,37.951383,6860.286609600001,-138.529,-6.928,346.025
10.1202,128.18127,37.951429,6859.5328392,-139.108,-7.228,345.751
10.1368,128.181258,37.951474,6858.774496800001,-139.579,-7.517,345.495
10.1535,128.181247,37.95152,6858.0115824,-139.949,-7.78,345.267
10.1702,128.181235,37.951566,6857.244096,-140.221,-8.017,345.067
10.187,128.181223,37.951612,6856.471732800001,-140.402,-8.23,344.893
10.2037,128.181211,37.951657,6855.694797600001,-140.495,-8.422,344.739
10.2204,128.181199,37.951703,6854.9132904,-140.504,-8.598,344.603
10.2371,128.181187,37.951749,6854.127211200001,-140.433,-8.759,344.48
10.2538,128.181175,37.951795,6853.3368648000005,-140.286,-8.908,344.37
10.2705,128.181163,37.95184,6852.541336800001,-140.064,-9.047,344.268
10.2872,128.181151,37.951886,6851.740932000001,-139.773,-9.178,344.174
10.3039,128.181139,37.951932,6850.935650400001,-139.413,-9.3,344.086
10.3205,128.181126,37.951978,6850.125492000001,-138.988,-9.417,344.002
10.3372,128.181114,37.952023,6849.309847200001,-138.5,-9.528,343.922
10.3539,128.181102,37.952069,6848.4890208,-137.95,-9.634,343.845
10.3707,128.18109,37.952115,6847.662708,-137.342,-9.737,343.77
10.3874,128.181077,37.95216,6846.8312136,-136.676,-9.836,343.696
10.4041,128.181065,37.952206,6845.994232800001,-135.954,-9.932,343.622
10.4208,128.181053,37.952252,6845.151460800001,-135.179,-10.025,343.549
10.4375,128.18104,37.952298,6844.3032023999995,-134.35,-10.117,343.475
10.4542,128.181028,37.952343,6843.4494576,-133.471,-10.206,343.399
10.4709,128.181015,37.952389,6842.5899216,-132.542,-10.294,343.322
10.4876,128.181003,37.952435,6841.7245944,-131.564,-10.38,343.244
10.5042,128.18099,37.95248,6840.8537808,-130.538,-10.464,343.163
10.5209,128.180977,37.952526,6839.9768712,-129.466,-10.547,343.079
10.5376,128.180965,37.952572,6839.09478,-128.556,-10.628,343.014
10.5544,128.180952,37.952618,6838.206897600001,-127.806,-10.698,342.979
10.5711,128.180939,37.952663,6837.313224,-127.215,-10.744,342.985
10.5878,128.180926,37.952709,6836.4134544,-126.786,-10.755,343.042
10.6045,128.180913,37.952755,6835.5085032,-126.506,-10.736,343.151
10.6212,128.1809,37.9528,6834.597151200001,-126.371,-10.696,343.296
10.6379,128.180887,37.952846,6833.6797032,-126.375,-10.644,343.463
10.6546,128.180874,37.952891,6832.756464,-126.51,-10.589,343.636
10.6713,128.180861,37.952937,6831.8271288000005,-126.773,-10.537,343.808
10.6879,128.180848,37.952983,6830.891392800001,-127.159,-10.488,343.976
10.7046,128.180835,37.953028,6829.9498656000005,-127.663,-10.444,344.136
10.7213,128.180821,37.953074,6829.0016328,-128.284,-10.406,344.288
10.7381,128.180808,37.953119,6828.047304000001,-129.016,-10.373,344.43
10.7548,128.180794,37.953165,6827.086574400001,-129.858,-10.345,344.563
10.7715,128.180781,37.95321,6826.119444,-130.805,-10.321,344.687
10.7882,128.180767,37.953256,6825.145608,-131.853,-10.302,344.801
10.8049,128.180754,37.953301,6824.1650664,-133.0,-10.287,344.907
10.8216,128.18074,37.953347,6823.1775144,-134.241,-10.276,345.004
10.8383,128.180726,37.953392,6822.1838664,-135.573,-10.269,345.093
10.855,128.180713,37.953437,6821.1835128,-136.992,-10.266,345.175
10.8717,128.180699,37.953483,6820.1767584,-138.495,-10.267,345.25
10.8883,128.180685,37.953528,6819.1636032,-140.079,-10.271,345.319
10.905,128.180671,37.953573,6818.1440472,-141.739,-10.278,345.381
10.9218,128.180657,37.953619,6817.1174808000005,-143.266,-10.289,345.408
10.9385,128.180643,37.953664,6816.084818400001,-144.663,-10.317,345.392
10.9552,128.180629,37.953709,6815.0463648,-145.919,-10.381,345.331
10.9719,128.180615,37.953755,6814.001815200001,-147.028,-10.496,345.229
10.9886,128.180601,37.9538,6812.951779200001,-147.99,-10.651,345.1
11.0053,128.180587,37.953845,6811.896256800001,-148.807,-10.834,344.955
11.022,128.180573,37.95389,6810.8358576,-149.487,-11.031,344.806
11.0387,128.180559,37.953936,6809.769972,-150.036,-11.229,344.661
11.0554,128.180545,37.953981,6808.6995144,-150.46,-11.417,344.526
11.072,128.180531,37.954026,6807.6238752,-150.765,-11.592,344.403
11.0887,128.180517,37.954071,6806.543664000001,-150.958,-11.754,344.291
11.1054,128.180502,37.954117,6805.4588808,-151.042,-11.904,344.188
11.1222,128.180488,37.954162,6804.3695256,-151.025,-12.043,344.094
11.1389,128.180474,37.954207,6803.276208,-150.911,-12.173,344.008
11.1556,128.18046,37.954253,6802.1783184000005,-150.703,-12.294,343.927
11.1723,128.180445,37.954298,6801.0767712,-150.407,-12.408,343.851
11.189,128.180431,37.954343,6799.9712616,-150.027,-12.515,343.779
11.2057,128.180417,37.954388,6798.8620944,-149.566,-12.618,343.71
11.2224,128.180403,37.954434,6797.74866,-149.027,-12.716,343.643
11.2391,128.180388,37.954479,6796.6312632,-148.413,-12.811,343.578
11.2557,128.180374,37.954524,6795.509599200001,-147.729,-12.904,343.513
11.2724,128.18036,37.954569,6794.3833632000005,-146.975,-12.995,343.449
11.2891,128.180345,37.954615,6793.2528600000005,-146.156,-13.084,343.384
11.3059,128.180331,37.95466,6792.1177848,-145.273,-13.172,343.318
11.3226,128.180317,37.954705,6790.978137600001,-144.329,-13.26,343.25
11.3393,128.180302,37.954751,6789.833613600001,-143.326,-13.348,343.18
11.356,128.180288,37.954796,6788.684517600001,-142.266,-13.436,343.108
11.3727,128.180273,37.954841,6787.5305448,-141.151,-13.524,343.033
11.3894,128.180259,37.954887,6786.3707808,-139.98,-13.623,342.946
11.4061,128.180244,37.954932,6785.2058352,-138.755,-13.735,342.844
11.4228,128.18023,37.954977,6784.0354032,-137.477,-13.855,342.73
11.4394,128.180215,37.955023,6782.8597896,-136.15,-13.979,342.607
11.4561,128.180201,37.955068,6781.6789944,-134.984,-14.11,342.503
11.4728,128.180186,37.955113,6780.492408,-133.975,-14.236,342.428
11.4896,128.180171,37.955158,6779.2997256,-133.131,-14.341,342.391
11.5063,128.180156,37.955204,6778.101252,-132.456,-14.409,342.399
11.523,128.180142,37.955249,6776.896682400001,-131.95,-14.43,342.462
11.5397,128.180127,37.955294,6775.6860168,-131.607,-14.415,342.567
11.5564,128.180112,37.955339,6774.468950400001,-131.417,-14.374,342.697
11.5731,128.180097,37.955385,6773.2451784,-131.371,-14.321,342.841
11.5898,128.180082,37.95543,6772.015310400001,-131.46,-14.266,342.984
11.6065,128.180067,37.955475,6770.778736800001,-131.678,-14.213,343.123
11.6231,128.180052,37.95552,6769.5357624,-132.017,-14.165,343.254
11.6398,128.180037,37.955566,6768.286387200001,-132.475,-14.122,343.377
11.6565,128.180021,37.955611,6767.030001600001,-133.045,-14.085,343.492
11.6733,128.180006,37.955656,6765.7672152000005,-133.725,-14.052,343.599
11.69,128.179991,37.955701,6764.4974184,-134.509,-14.025,343.699
11.7067,128.179976,37.955746,6763.220611200001,-135.395,-14.002,343.791
11.7234,128.17996,37.955791,6761.9364888,-136.378,-13.984,343.876
11.7401,128.179945,37.955836,6760.645356000001,-137.454,-13.969,343.955
11.7568,128.179929,37.955881,6759.3475176,-138.62,-13.959,344.027
11.7735,128.179914,37.955926,6758.042973600001,-139.873,-13.952,344.093
11.7902,128.179898,37.955971,6756.7311144000005,-141.208,-13.949,344.154
11.8068,128.179883,37.956016,6755.4128544000005,-142.623,-13.949,344.21
11.8235,128.179867,37.956061,6754.0878888,-144.113,-13.952,344.261
11.8402,128.179851,37.956106,6752.7562176,-145.676,-13.958,344.307
11.857,128.179836,37.956151,6751.418145600001,-147.308,-13.967,344.35
11.8737,128.17982,37.956196,6750.0724536,-148.792,-13.98,344.358
11.8904,128.179804,37.956241,6748.720970400001,-150.128,-14.011,344.323
11.9071,128.179789,37.956286,6747.3627816,-151.307,-14.081,344.249
11.9238,128.179773,37.956331,6745.998801600001,-152.322,-14.202,344.14
11.9405,128.179757,37.956376,6744.6293352,-153.174,-14.361,344.011
11.9572,128.179741,37.956421,6743.253772800001,-153.867,-14.545,343.872
11.9739,128.179725,37.956466,6741.873028800001,-154.411,-14.738,343.734
11.9905,128.17971,37.956511,6740.4871032,-154.812,-14.926,343.602
12.0072,128.179694,37.956555,6739.0956912,-155.078,-15.104,343.48
12.0239,128.179678,37.9566,6737.6994024,-155.216,-15.27,343.366
12.0407,128.179662,37.956645,6736.2982368,-155.233,-15.426,343.261
12.0574,128.179646,37.95669,6734.8921944,-155.134,-15.571,343.162
12.0741,128.17963,37.956735,6733.4812752,-154.927,-15.707,343.07
12.0908,128.179614,37.95678,6732.0660888,-154.615,-15.835,342.983
12.1075,128.179598,37.956825,6730.6466352,-154.205,-15.956,342.899
12.1242,128.179582,37.95687,6729.2229144,-153.7,-16.071,342.819
12.1409,128.179566,37.956915,6727.7949264,-153.105,-16.181,342.741
12.1576,128.17955,37.95696,6726.3635856,-152.424,-16.288,342.664
12.1743,128.179534,37.957005,6724.927368000001,-151.661,-16.392,342.587
12.1909,128.179518,37.95705,6723.486883200001,-150.819,-16.493,342.511
12.2076,128.179502,37.957095,6722.0418264,-149.901,-16.593,342.434
12.2243,128.179486,37.957139,6720.592197600001,-148.911,-16.693,342.356
12.2411,128.17947,37.957184,6719.137996800001,-147.852,-16.792,342.275
12.2578,128.179454,37.957229,6717.678919200001,-146.726,-16.891,342.193
12.2745,128.179438,37.957274,6716.214660000001,-145.536,-16.99,342.107
12.2912,128.179422,37.957319,6714.745524000001,-144.283,-17.089,342.018
12.3079,128.179406,37.957364,6713.270901600001,-142.971,-17.19,341.925
12.3246,128.179389,37.957409,6711.7914024,-141.602,-17.29,341.827
12.3413,128.179373,37.957454,6710.3070264,-140.396,-17.393,341.756
12.358,128.179357,37.957499,6708.817164,-139.352,-17.484,341.721
12.3746,128.179341,37.957544,6707.321510400001,-138.476,-17.548,341.728
12.3913,128.179324,37.957589,6705.820370400001,-137.777,-17.567,341.783
12.408,128.179308,37.957634,6704.3131344,-137.248,-17.552,341.873
12.4248,128.179292,37.957679,6702.7998024,-136.883,-17.514,341.982
12.4415,128.179275,37.957724,6701.2800696,-136.671,-17.466,342.098
12.4582,128.179259,37.957769,6699.7542408,-136.603,-17.416,342.214
12.4749,128.179242,37.957814,6698.2220112,-136.671,-17.368,342.326
12.4916,128.179226,37.957859,6696.683076,-136.87,-17.324,342.432
12.5083,128.179209,37.957904,6695.1380448,-137.194,-17.286,342.533
12.525,128.179193,37.957948,6693.5860032,-137.637,-17.252,342.627
12.5417,128.179176,37.957993,6692.027560800001,-138.194,-17.223,342.715
12.5583,128.179159,37.958038,6690.462108,-138.862,-17.198,342.797
12.575,128.179143,37.958083,6688.8899496,-139.635,-17.178,342.873
12.5917,128.179126,37.958128,6687.310476,-140.51,-17.162,342.944
12.6085,128.179109,37.958172,6685.7236872,-141.483,-17.149,343.009
12.6252,128.179092,37.958217,6684.1295832000005,-142.549,-17.141,343.07
12.6419,128.179075,37.958262,6682.5284688,-143.704,-17.135,343.125
12.6586,128.179059,37.958307,6680.920344,-144.945,-17.133,343.177
12.6753,128.179042,37.958351,6679.3052088,-146.267,-17.134,343.224
12.692,128.179025,37.958396,6677.683368,-147.669,-17.138,343.267
12.7087,128.179008,37.958441,6676.0545168,-149.145,-17.145,343.307
12.7254,128.178991,37.958485,6674.418960000001,-150.694,-17.154,343.344
12.742,128.178974,37.95853,6672.7760880000005,-152.085,-17.167,343.345
12.7587,128.178957,37.958574,6671.1265104,-153.321,-17.201,343.302
12.7754,128.17894,37.958619,6669.4708368,-154.39,-17.276,343.219
12.7922,128.178923,37.958664,6667.8090672,-155.286,-17.391,343.111
12.8089,128.178905,37.958708,6666.141811200001,-156.012,-17.534,342.992
12.8256,128.178888,37.958753,6664.468764,-156.574,-17.689,342.871
12.8423,128.178871,37.958797,6662.7905352,-156.98,-17.843,342.755
12.859,128.178854,37.958842,6661.106820000001,-157.238,-17.991,342.646
12.8757,128.178837,37.958886,6659.418228,-157.358,-18.131,342.545
12.8924,128.17882,37.958931,6657.7247592,-157.345,-18.262,342.449
12.9091,128.178803,37.958975,6656.0264136000005,-157.207,-18.386,342.359
12.9257,128.178785,37.95902,6654.323496000001,-156.951,-18.502,342.274
12.9424,128.178768,37.959065,6652.616311200001,-156.582,-18.613,342.192
12.9591,128.178751,37.959109,6650.9048592,-156.107,-18.718,342.113
12.9759,128.178734,37.959154,6649.18914,-155.529,-18.819,342.036
12.9926,128.178717,37.959198,6647.4700680000005,-154.855,-18.917,341.961
13.0093,128.178699,37.959243,6645.747033600001,-154.088,-19.013,341.886
13.026,128.178682,37.959288,6644.0188176,-153.468,-19.128,341.821
13.0427,128.178665,37.959332,6642.2851152,-152.988,-19.277,341.757
13.0594,128.178647,37.959377,6640.545012,-152.649,-19.47,341.679
13.0761,128.17863,37.959421,6638.7978984,-152.449,-19.717,341.573
13.0928,128.178613,37.959466,6637.0428600000005,-152.384,-20.025,341.432
13.1095,128.178595,37.95951,6635.279287200001,-152.44,-20.399,341.26
13.1262,128.178578,37.959555,6633.506265600001,-152.611,-20.826,341.063
13.1429,128.17856,37.959599,6631.7231856,-152.898,-21.29,340.85
13.1596,128.178543,37.959644,6629.929132800001,-153.297,-21.772,340.63
13.1763,128.178525,37.959688,6628.1238023999995,-153.808,-22.255,340.414
13.193,128.178508,37.959732,6626.30628,-154.43,-22.719,340.211
13.2097,128.17849,37.959777,6624.475956000001,-155.142,-23.153,340.028
13.2264,128.178472,37.959821,6622.6316112,-155.915,-23.558,339.863
13.2431,128.178455,37.959865,6620.7750744,-156.724,-23.938,339.713
13.2598,128.178437,37.959909,6618.9051264,-157.546,-24.296,339.576
13.2765,128.178419,37.959953,6617.0223768000005,-158.365,-24.636,339.45
13.2932,128.178401,37.959998,6615.126216,-159.168,-24.961,339.334
13.3099,128.178383,37.960042,6613.2172536,-159.944,-25.273,339.227
13.3266,128.178366,37.960086,6611.2951848,-160.684,-25.573,339.13
13.3433,128.178348,37.96013,6609.3597048,-161.384,-25.863,339.043
13.36,128.17833,37.960173,6607.4111184,-162.042,-26.145,338.964
13.3767,128.178312,37.960217,6605.4491208,-162.659,-26.418,338.893
13.3934,128.178294,37.960261,6603.4731024,-163.234,-26.683,338.829
13.4101,128.178276,37.960305,6601.4836728,-163.769,-26.942,338.772
13.4268,128.178258,37.960349,6599.4802224000005,-164.267,-27.193,338.722
13.4435,128.178239,37.960392,6597.462751200001,-164.728,-27.439,338.676
13.4602,128.178221,37.960436,6595.431259200001,-165.157,-27.68,338.636
13.4769,128.178203,37.960479,6593.3854416,-165.555,-27.915,338.6
13.4936,128.178185,37.960523,6591.3249936,-165.925,-28.146,338.569
13.5103,128.178167,37.960566,6589.250220000001,-166.271,-28.372,338.539
13.527,128.178149,37.96061,6587.160816,-166.596,-28.593,338.511
13.5437,128.178131,37.960653,6585.0567816,-166.9,-28.811,338.484
13.5604,128.178112,37.960696,6582.937812,-167.185,-29.026,338.46
13.5771,128.178094,37.96074,6580.804212,-167.453,-29.237,338.438
13.5938,128.178076,37.960783,6578.6559816,-167.704,-29.446,338.418
13.6105,128.178058,37.960826,6576.492511200001,-167.94,-29.652,338.4
13.6272,128.178039,37.960869,6574.3141056,-168.163,-29.856,338.384
13.6439,128.178021,37.960912,6572.120764800001,-168.374,-30.057,338.37
13.6606,128.178003,37.960955,6569.9124888,-168.574,-30.257,338.357
13.6773,128.177984,37.960998,6567.688668000001,-168.765,-30.456,338.345
13.694,128.177966,37.961041,6565.4502168,-168.947,-30.652,338.335
13.7107,128.177948,37.961084,6563.1962207999995,-169.121,-30.847,338.325
13.7274,128.177929,37.961126,6560.9272896,-169.288,-31.041,338.317
13.7441,128.177911,37.961169,6558.6431184,-169.449,-31.234,338.309
13.7608,128.177893,37.961212,6556.3437072,-169.604,-31.426,338.302
13.7775,128.177874,37.961254,6554.029056,-169.753,-31.616,338.296
13.7942,128.177856,37.961297,6551.6991648,-169.898,-31.806,338.291
13.8109,128.177838,37.961339,6549.354033600001,-170.038,-31.995,338.286
13.8276,128.177819,37.961381,6546.9936624,-170.173,-32.183,338.282
13.8443,128.177801,37.961424,6544.618051200001,-170.305,-32.37,338.278
13.861,128.177783,37.961466,6542.2272,-170.433,-32.556,338.274
13.8777,128.177764,37.961508,6539.8211088,-170.558,-32.742,338.271
13.8944,128.177746,37.96155,6537.399472800001,-170.68,-32.927,338.269
13.9111,128.177727,37.961592,6534.962901600001,-170.798,-33.111,338.267
13.9278,128.177709,37.961634,6532.5107856,-170.914,-33.295,338.265
13.9445,128.177691,37.961676,6530.0437344,-171.027,-33.479,338.263
13.9612,128.177672,37.961718,6527.561138400001,-171.138,-33.662,338.261
13.9779,128.177654,37.961759,6525.0636072,-171.246,-33.845,338.26
13.9946,128.177636,37.961801,6522.5505312000005,-171.352,-34.028,338.259
14.0113,128.177617,37.961843,6520.022215200001,-171.455,-34.21,338.258
14.028,128.177599,37.961884,6517.478964000001,-171.556,-34.392,338.258
14.0447,128.17758,37.961926,6514.920168000001,-171.655,-34.574,338.257
14.0614,128.177562,37.961967,6512.3464368,-171.753,-34.755,338.257
14.0781,128.177544,37.962009,6509.757465600001,-171.848,-34.937,338.257
14.0948,128.177525,37.96205,6507.1529496,-171.941,-35.118,338.257
14.1115,128.177507,37.962091,6504.5334984,-172.033,-35.299,338.257
14.1282,128.177489,37.962132,6501.899112,-172.123,-35.48,338.257
14.1449,128.17747,37.962173,6499.2491808,-172.211,-35.661,338.257
14.1616,128.177452,37.962214,6496.584314400001,-172.297,-35.842,338.257
14.1783,128.177434,37.962255,6493.904208,-172.382,-36.022,338.258
14.195,128.177415,37.962296,6491.2088616,-172.465,-36.203,338.258
14.2117,128.177397,37.962337,6488.4985799999995,-172.547,-36.383,338.259
14.2284,128.177379,37.962378,6485.7730584,-172.627,-36.563,338.259
14.2451,128.177361,37.962418,6483.032601600001,-172.706,-36.744,338.26
14.2618,128.177342,37.962459,6480.2769048,-172.784,-36.924,338.261
14.2785,128.177324,37.962499,6477.505968,-172.86,-37.104,338.261
14.2952,128.177306,37.96254,6474.720096,-172.934,-37.284,338.262
14.3119,128.177287,37.96258,6471.9192888,-173.008,-37.464,338.263
14.3286,128.177269,37.962621,6469.103546400001,-173.08,-37.644,338.264
14.3453,128.177251,37.962661,6466.272564000001,-173.151,-37.824,338.264
14.362,128.177233,37.962701,6463.4266464,-173.22,-38.004,338.265
14.3787,128.177215,37.962741,6460.5657936,-173.288,-38.183,338.266
14.3954,128.177196,37.962781,6457.6897008000005,-173.355,-38.363,338.267
14.4121,128.177178,37.962821,6454.7989776,-173.421,-38.543,338.268
14.4288,128.17716,37.962861,6451.8930144000005,-173.486,-38.723,338.269
14.4455,128.177142,37.962901,6448.972116,-173.55,-38.902,338.27
14.4622,128.177124,37.96294,6446.0365872,-173.612,-39.082,338.27
14.4789,128.177106,37.96298,6443.085818400001,-173.674,-39.262,338.271
14.4956,128.177088,37.963019,6440.1204192000005,-173.734,-39.441,338.272
14.5123,128.17707,37.963059,6437.1397799999995,-173.793,-39.621,338.273
14.529,128.177051,37.963098,6434.1445104,-173.852,-39.801,338.274
14.5457,128.177033,37.963138,6431.1346104,-173.909,-39.98,338.274
14.5624,128.177015,37.963177,6428.109470400001,-173.965,-40.16,338.275
14.5791,128.176997,37.963216,6425.0697,-174.02,-40.339,338.276
14.5958,128.176979,37.963255,6422.0152992,-174.075,-40.519,338.277
14.6125,128.176961,37.963294,6418.9459632,-174.128,-40.699,338.277
14.6292,128.176943,37.963333,6415.861692,-174.18,-40.878,338.278
14.6459,128.176926,37.963372,6412.7627904,-174.232,-41.058,338.279
14.6626,128.176908,37.963411,6409.6507824,-174.177,-41.219,338.26
14.6793,128.17689,37.963449,6406.5253632,-174.021,-41.343,338.225
14.696,128.176872,37.963488,6403.387142400001,-173.764,-41.414,338.184
14.7127,128.176854,37.963527,6400.2370344,-173.408,-41.417,338.147
14.7294,128.176836,37.963565,6397.0762584,-172.958,-41.335,338.122
14.7461,128.176818,37.963604,6393.904814400001,-172.417,-41.164,338.114
14.7628,128.1768,37.963642,6390.7236168,-171.786,-40.926,338.119
14.7795,128.176783,37.96368,6387.53358,-171.067,-40.643,338.135
14.7962,128.176765,37.963719,6384.334704,-170.26,-40.336,338.159
14.8129,128.176747,37.963757,6381.1275984,-169.363,-40.029,338.186
14.8296,128.176729,37.963795,6377.9122632,-168.375,-39.743,338.211
14.8463,128.176711,37.963834,6374.6890032,-167.294,-39.496,338.23
14.863,128.176693,37.963872,6371.458732800001,-166.122,-39.29,338.242
14.8797,128.176675,37.96391,6368.221147200001,-164.862,-39.12,338.248
14.8964,128.176657,37.963948,6364.976856,-163.516,-38.979,338.249
14.9131,128.17664,37.963987,6361.725859200001,-162.09,-38.86,338.246
14.9298,128.176622,37.964025,6358.4681568000005,-160.585,-38.76,338.239
14.9465,128.176604,37.964063,6355.2043584,-159.006,-38.676,338.23
14.9632,128.176586,37.964101,6351.9341592,-157.354,-38.606,338.216
14.9799,128.176568,37.964139,6348.658168800001,-155.632,-38.549,338.197
14.9966,128.17655,37.964177,6345.3760824,-153.843,-38.506,338.173
15.0133,128.176532,37.964216,6342.0882048,-151.988,-38.474,338.143
15.03,128.176514,37.964254,6338.7942312000005,-150.312,-38.486,338.128
15.0467,128.176496,37.964292,6335.493552000001,-148.8,-38.556,338.113
15.0634,128.176478,37.96433,6332.1858624,-147.449,-38.689,338.073
15.0801,128.17646,37.964368,6328.870248,-146.253,-38.886,337.983
15.0968,128.176442,37.964406,6325.5467088000005,-145.203,-39.155,337.824
15.1135,128.176424,37.964443,6322.2140256,-144.297,-39.478,337.604
15.1302,128.176406,37.964481,6318.8721984,-143.531,-39.841,337.33
15.1469,128.176388,37.964519,6315.5203128,-142.903,-40.231,337.016
15.1636,128.176369,37.964557,6312.1583688,-142.415,-40.631,336.679
15.1803,128.176351,37.964594,6308.785756800001,-142.07,-41.025,336.336
15.197,128.176333,37.964632,6305.4018672,-141.871,-41.396,336.007
15.2137,128.176314,37.964669,6302.0067,-141.821,-41.734,335.704
15.2304,128.176296,37.964706,6298.5993408,-141.91,-42.044,335.425
