Time,Longitude,Latitude,Altitude,Roll (deg),Pitch (deg),Yaw (deg)
0.0,128.181313,37.914631,4000.0467624000003,0.0,-0.003,0.0
0.0167,128.181313,37.914669,4000.05804,0.0,-0.013,0.0
0.0334,128.181313,37.914706,4000.0665744000003,0.011,-0.014,0.002
0.0501,128.181313,37.914744,4000.0744992,0.034,0.005,0.007
0.0668,128.181313,37.914781,4000.0815096,0.069,0.058,0.014
0.0834,128.181313,37.914819,4000.0882152,0.115,0.158,0.022
0.1002,128.181313,37.914856,4000.0949208,0.171,0.315,0.03
0.1169,128.181313,37.914894,4000.1025408,0.237,0.537,0.038
0.1336,128.181313,37.914931,4000.1116848,0.312,0.833,0.047
0.1503,128.181313,37.914969,4000.1223528000005,0.397,1.205,0.057
0.1669,128.181313,37.915006,4000.1354592000002,0.491,1.643,0.067
0.1837,128.181313,37.915043,4000.1510040000003,0.593,2.138,0.079
0.2004,128.181313,37.915081,4000.1695968,0.705,2.68,0.093
0.2171,128.181313,37.915118,4000.1918472,0.826,3.253,0.108
0.2338,128.181313,37.915156,4000.2183648,0.958,3.847,0.125
0.2505,128.181313,37.915193,4000.2491496000002,1.102,4.447,0.145
0.2672,128.181313,37.915231,4000.2845064000003,1.257,5.042,0.166
0.2839,128.181313,37.915268,4000.3250448,1.426,5.618,0.19
0.3006,128.181313,37.915305,4000.3710696,1.61,6.17,0.215
0.3172,128.181313,37.915343,4000.4228856,1.81,6.698,0.243
0.3339,128.181313,37.91538,4000.4807976,2.029,7.206,0.272
0.3507,128.181313,37.915418,4000.5451104,2.266,7.697,0.304
0.3674,128.181313,37.915455,4000.615824,2.525,8.171,0.337
0.3841,128.181313,37.915492,4000.6932432000003,2.806,8.631,0.374
0.4008,128.181313,37.91553,4000.7776728000003,3.112,9.077,0.413
0.4175,128.181313,37.915567,4000.8688079999997,3.445,9.511,0.454
0.4342,128.181313,37.915604,4000.9672584,3.806,9.934,0.499
0.4509,128.181313,37.915642,4001.0724144000005,4.198,10.345,0.548
0.4676,128.181313,37.915679,4001.1848856,4.624,10.745,0.6
0.4843,128.181313,37.915716,4001.3043672,5.087,11.135,0.656
0.501,128.181313,37.915754,4001.4308592,5.589,11.515,0.717
0.5176,128.181313,37.915791,4001.5640568000003,6.133,11.886,0.782
0.5344,128.181313,37.915828,4001.707008,6.658,12.248,0.845
0.5511,128.181313,37.915865,4001.859408,7.163,12.602,0.904
0.5678,128.181314,37.915903,4002.0221712000002,7.65,12.95,0.962
0.5845,128.181314,37.91594,4002.1965168000006,8.122,13.29,1.022
0.6012,128.181314,37.915977,4002.3827496,8.583,13.624,1.085
0.6179,128.181314,37.916014,4002.5796504000004,9.035,13.952,1.153
0.6345,128.181314,37.916051,4002.7878288,9.484,14.274,1.224
0.6513,128.181315,37.916088,4003.00698,9.933,14.59,1.3
0.6679,128.181315,37.916125,4003.2367992,10.384,14.901,1.381
0.6847,128.181315,37.916162,4003.4775912000005,10.841,15.208,1.466
0.7014,128.181315,37.916199,4003.7290512,11.307,15.509,1.556
0.7181,128.181316,37.916236,4003.991484,11.783,15.806,1.649
0.7348,128.181316,37.916273,4004.2642800000003,12.271,16.099,1.747
0.7514,128.181317,37.91631,4004.5477440000004,12.772,16.388,1.849
0.7682,128.181317,37.916347,4004.8415712000005,13.288,16.672,1.955
0.7848,128.181317,37.916383,4005.1460664,13.819,16.952,2.065
0.8016,128.181318,37.91642,4005.4612296,14.368,17.228,2.178
0.8183,128.181318,37.916457,4005.7864512,14.933,17.5,2.296
0.835,128.181319,37.916494,4006.122036,15.517,17.768,2.418
0.8517,128.18132,37.91653,4006.4676792,16.12,18.032,2.543
0.8684,128.18132,37.916567,4006.8236856,16.741,18.291,2.673
0.8851,128.181321,37.916604,4007.1897504000003,17.383,18.546,2.807
0.9018,128.181322,37.91664,4007.5655688,18.045,18.797,2.946
0.9185,128.181322,37.916677,4007.9514456,18.728,19.043,3.089
0.9352,128.181323,37.916713,4008.3470760000005,19.433,19.286,3.236
0.9519,128.181324,37.91675,4008.7518504000004,20.159,19.523,3.388
0.9686,128.181325,37.916786,4009.1663784000007,20.908,19.757,3.545
0.9853,128.181326,37.916823,4009.5903552000004,21.68,19.986,3.706
1.002,128.181327,37.916859,4010.0231712000004,22.475,20.21,3.872
1.0187,128.181328,37.916895,4010.4651312,23.295,20.429,4.044
1.0353,128.181329,37.916932,4010.9156256000006,24.139,20.644,4.22
1.0521,128.18133,37.916968,4011.3749592000004,25.008,20.854,4.401
1.0688,128.181331,37.917004,4011.8428272,25.902,21.058,4.587
1.0855,128.181332,37.91704,4012.3189248000003,26.822,21.258,4.778
1.1022,128.181333,37.917076,4012.8029472000003,27.768,21.453,4.974
1.1189,128.181335,37.917113,4013.2948944,28.74,21.642,5.176
1.1356,128.181336,37.917149,4013.7944616000004,29.739,21.825,5.383
1.1522,128.181337,37.917185,4014.3019536,30.762,22.003,5.595
1.169,128.181339,37.917221,4014.8170656,31.808,22.175,5.813
1.1857,128.18134,37.917257,4015.3397976,32.874,22.341,6.035
1.2024,128.181342,37.917293,4015.8701496000003,33.957,22.502,6.261
1.2191,128.181344,37.917329,4016.4078168000005,35.056,22.657,6.493
1.2358,128.181345,37.917365,4016.953104,36.167,22.806,6.729
1.2525,128.181347,37.9174,4017.5057064000002,37.289,22.948,6.969
1.2691,128.181349,37.917436,4018.0653192000004,38.421,23.085,7.215
1.2859,128.181351,37.917472,4018.6322472,39.56,23.215,7.464
1.3026,128.181353,37.917508,4019.2058808,40.705,23.338,7.719
1.3193,128.181355,37.917543,4019.7868296,41.856,23.455,7.978
1.3359,128.181357,37.917579,4020.3741792,43.01,23.565,8.241
1.3527,128.181359,37.917615,4020.9682344000003,44.167,23.668,8.509
1.3694,128.181361,37.91765,4021.5689952000002,45.324,23.764,8.782
1.386,128.181364,37.917686,4022.1758520000003,46.481,23.852,9.06
1.4028,128.181366,37.917721,4022.7894144,47.636,23.931,9.344
1.4195,128.181369,37.917757,4023.4087680000002,48.787,24.002,9.633
1.4362,128.181371,37.917792,4024.0342176,49.934,24.064,9.928
1.4528,128.181374,37.917828,4024.6654584000003,51.074,24.116,10.228
1.4696,128.181377,37.917863,4025.3024904,52.208,24.157,10.534
1.4863,128.181379,37.917899,4025.9450088000003,53.334,24.189,10.846
1.5029,128.181382,37.917934,4026.5930136,54.451,24.21,11.164
1.5197,128.181385,37.917969,4027.2462,55.559,24.219,11.487
1.5364,128.181388,37.918004,4027.9045680000004,56.657,24.217,11.816
1.5531,128.181391,37.91804,4028.5681176000003,57.745,24.203,12.15
1.5697,128.181395,37.918075,4029.2362392000005,58.822,24.176,12.489
1.5865,128.181398,37.91811,4029.9092376,59.887,24.138,12.833
1.6032,128.181401,37.918145,4030.5865032000006,60.941,24.086,13.18
1.6198,128.181405,37.91818,4031.2683408000003,61.984,24.022,13.532
1.6366,128.181409,37.918215,4031.9541408,63.014,23.945,13.888
1.6533,128.181412,37.91825,4032.644208,64.033,23.855,14.246
1.67,128.181416,37.918285,4033.3382376,65.04,23.752,14.607
1.6867,128.18142,37.91832,4034.03562,66.035,23.636,14.971
1.7034,128.181424,37.918355,4034.7369648,67.019,23.507,15.336
1.7201,128.181428,37.91839,4035.4413576,67.991,23.365,15.702
1.7368,128.181432,37.918424,4036.1491032000004,68.953,23.21,16.069
1.7535,128.181437,37.918459,4036.8598968,69.904,23.043,16.437
1.7702,128.181441,37.918494,4037.5737384000004,70.845,22.864,16.804
1.7869,128.181445,37.918529,4038.2900184000005,71.776,22.672,17.17
1.8036,128.18145,37.918563,4039.0087368000004,72.698,22.469,17.535
1.8203,128.181455,37.918598,4039.7301984000005,73.611,22.255,17.898
1.837,128.18146,37.918633,4040.4534888000003,74.516,22.029,18.26
1.8537,128.181464,37.918667,4041.1789128,75.414,21.793,18.618
1.8704,128.181469,37.918702,4041.9061656000003,76.305,21.547,18.974
1.8871,128.181475,37.918736,4042.6349424,77.19,21.291,19.327
1.9038,128.18148,37.918771,4043.3652432000004,78.07,21.026,19.675
1.9205,128.181485,37.918805,4044.097068,78.945,20.753,20.02
1.9372,128.181491,37.918839,4044.8298072000002,79.817,20.471,20.36
1.9539,128.181496,37.918874,4045.563156,80.685,20.181,20.696
1.9706,128.181502,37.918908,4046.2974192000006,81.551,19.885,21.027
1.9873,128.181508,37.918942,4047.0322920000003,82.415,19.581,21.352
2.004,128.181513,37.918976,4047.7674696,83.279,19.272,21.672
2.0207,128.181519,37.919011,4048.5026472,84.143,18.957,21.987
2.0374,128.181525,37.919045,4049.2381296000003,85.008,18.638,22.296
2.0541,128.181532,37.919079,4049.9730024,85.874,18.314,22.599
2.0707,128.181538,37.919113,4050.7075704000003,86.742,17.986,22.896
2.0875,128.181544,37.919147,4051.4415288,87.613,17.655,23.187
2.1042,128.181551,37.919181,4052.1745728,88.487,17.321,23.472
2.1208,128.181558,37.919215,4052.9067024,89.366,16.984,23.75
2.1376,128.181564,37.919249,4053.6376128,90.249,16.646,24.022
2.1543,128.181571,37.919283,4054.3669992,91.137,16.306,24.289
2.171,128.181578,37.919317,4055.0948616,92.031,15.965,24.548
2.1877,128.181585,37.919351,4055.8208952,92.93,15.624,24.802
2.2044,128.181593,37.919384,4056.5451000000003,93.836,15.282,25.049
2.2211,128.1816,37.919418,4057.2668664000003,94.748,14.94,25.291
2.2378,128.181607,37.919452,4057.9864992,95.667,14.599,25.526
2.2544,128.181615,37.919486,4058.7033888,96.593,14.259,25.755
2.2712,128.181623,37.919519,4059.4175352000007,97.525,13.919,25.978
2.2879,128.181631,37.919553,4060.1289384,98.465,13.581,26.195
2.3045,128.181638,37.919587,4060.8369888,99.411,13.245,26.407
2.3213,128.181647,37.91962,4061.5416864000003,100.364,12.91,26.613
2.338,128.181655,37.919654,4062.2430312,101.325,12.577,26.813
2.3546,128.181663,37.919687,4062.9407184,102.291,12.246,27.008
2.3714,128.181671,37.919721,4063.6344432,103.264,11.917,27.198
2.3881,128.18168,37.919754,4064.3239008000005,104.243,11.59,27.382
2.4048,128.181688,37.919787,4065.0093960000004,105.228,11.265,27.561
2.4215,128.181697,37.919821,4065.6903192000004,106.217,10.943,27.736
2.4382,128.181706,37.919854,4066.3669752,107.211,10.622,27.905
2.4549,128.181715,37.919887,4067.0384496,108.209,10.304,28.07
2.4716,128.181724,37.919921,4067.705352,109.21,9.989,28.23
2.4882,128.181733,37.919954,4068.3670728,110.214,9.675,28.386
2.505,128.181742,37.919987,4069.0236120000004,111.219,9.364,28.537
2.5217,128.181752,37.92002,4069.6743600000004,112.225,9.055,28.685
2.5383,128.181761,37.920053,4070.3199264,113.231,8.747,28.827
2.5551,128.181771,37.920086,4070.9597016000002,114.237,8.442,28.966
2.5718,128.181781,37.92012,4071.5936856,115.242,8.138,29.101
2.5884,128.18179,37.920153,4072.2212688000004,116.244,7.836,29.232
2.6052,128.1818,37.920186,4072.8430608,117.244,7.535,29.359
2.6219,128.18181,37.920219,4073.4584520000003,118.24,7.236,29.482
2.6386,128.181821,37.920251,4074.0674424,119.232,6.938,29.601
2.6553,128.181831,37.920284,4074.6697272,120.219,6.64,29.716
2.6719,128.181841,37.920317,4075.2653064,121.201,6.344,29.828
2.6887,128.181852,37.92035,4075.8541800000003,122.176,6.048,29.936
2.7054,128.181862,37.920383,4076.4360432000003,123.144,5.752,30.04
2.722,128.181873,37.920416,4077.0108960000002,124.104,5.457,30.14
2.7388,128.181883,37.920448,4077.5787384,125.056,5.162,30.236
2.7555,128.181894,37.920481,4078.1389608,125.999,4.867,30.329
2.7721,128.181905,37.920514,4078.6918680000003,126.933,4.571,30.418
2.7889,128.181916,37.920546,4079.2371552000004,127.857,4.276,30.502
2.8056,128.181927,37.920579,4079.7751272,128.771,3.98,30.583
2.8222,128.181938,37.920612,4080.3051744,129.674,3.683,30.66
2.839,128.18195,37.920644,4080.8272968,130.566,3.386,30.733
2.8557,128.181961,37.920677,4081.3414944,131.446,3.088,30.802
2.8724,128.181973,37.920709,4081.8477672,132.316,2.789,30.867
2.8891,128.181984,37.920742,4082.3458104,133.173,2.489,30.927
2.9057,128.181996,37.920774,4082.8359288,134.018,2.189,30.983
2.9225,128.182007,37.920807,4083.3175128,134.851,1.887,31.036
2.9392,128.182019,37.920839,4083.7899528000003,135.669,1.584,31.083
2.9558,128.182031,37.920871,4084.2535536,136.469,1.281,31.127
2.9726,128.182043,37.920904,4084.7080104,137.247,0.977,31.168
2.9893,128.182055,37.920936,4085.1527136,138.003,0.672,31.204
3.0059,128.182067,37.920968,4085.5873584,138.735,0.368,31.237
3.0227,128.18208,37.921,4086.0125544,139.441,0.063,31.266
3.0394,128.182092,37.921033,4086.4270824000005,140.121,-0.242,31.292
3.056,128.182104,37.921065,4086.831552,140.773,-0.547,31.315
3.0728,128.182117,37.921097,4087.2256584,141.398,-0.853,31.335
3.0895,128.182129,37.921129,4087.6087920000004,141.995,-1.158,31.352
3.1062,128.182142,37.921161,4087.9815624000003,142.565,-1.464,31.367
3.1229,128.182155,37.921193,4088.3433600000003,143.107,-1.769,31.378
3.1395,128.182168,37.921225,4088.6941848000006,143.622,-2.075,31.388
3.1563,128.182181,37.921257,4089.0337320000003,144.111,-2.38,31.396
3.173,128.182194,37.921289,4089.3626112,144.574,-2.685,31.401
3.1896,128.182207,37.921321,4089.679908,145.013,-2.99,31.405
3.2064,128.18222,37.921353,4089.9859272000003,145.427,-3.294,31.407
3.2231,128.182233,37.921385,4090.2809736000004,145.819,-3.598,31.407
3.2397,128.182246,37.921417,4090.5641328000006,146.188,-3.901,31.407
3.2565,128.18226,37.921448,4090.8360144000003,146.537,-4.203,31.405
3.2732,128.182273,37.92148,4091.0966184000004,146.866,-4.505,31.402
3.2899,128.182287,37.921512,4091.3453352000006,147.177,-4.806,31.399
3.3066,128.1823,37.921544,4091.5824696,147.47,-5.106,31.395
3.3233,128.182314,37.921575,4091.8080216,147.746,-5.404,31.391
3.34,128.182328,37.921607,4092.0219912000002,148.007,-5.701,31.387
3.3567,128.182342,37.921638,4092.2240736000003,148.254,-5.997,31.384
3.3734,128.182355,37.92167,4092.4142688,148.487,-6.292,31.38
3.3901,128.182369,37.921701,4092.5928816,148.708,-6.585,31.378
3.4068,128.182383,37.921733,4092.7593024000003,148.918,-6.876,31.376
3.4235,128.182397,37.921764,4092.9141408,149.117,-7.165,31.376
3.4402,128.182412,37.921796,4093.0567872000006,149.307,-7.453,31.377
3.4569,128.182426,37.921827,4093.1875464000004,149.488,-7.738,31.379
3.4736,128.18244,37.921859,4093.3061136,149.661,-8.021,31.384
3.4903,128.182454,37.92189,4093.4127936000004,149.827,-8.302,31.39
3.507,128.182469,37.921921,4093.5069768000003,149.986,-8.581,31.399
3.5237,128.182483,37.921952,4093.5892728000003,150.139,-8.857,31.41
3.5404,128.182498,37.921984,4093.6593768000002,150.287,-9.131,31.424
3.5571,128.182512,37.922015,4093.7172888000005,150.429,-9.402,31.441
3.5738,128.182527,37.922046,4093.762704,150.567,-9.67,31.461
3.5905,128.182542,37.922077,4093.7956224,150.701,-9.936,31.484
3.6072,128.182556,37.922108,4093.8163488000005,150.831,-10.198,31.511
3.6239,128.182571,37.922139,4093.8248832,150.958,-10.459,31.541
3.6406,128.182586,37.92217,4093.8206160000004,151.082,-10.716,31.575
3.6573,128.182601,37.922201,4093.8041568000003,151.203,-10.97,31.612
3.674,128.182616,37.922232,4093.7748960000004,151.32,-11.223,31.653
3.6907,128.182631,37.922263,4093.7331384000004,151.432,-11.473,31.695
3.7074,128.182646,37.922294,4093.6791888000002,151.538,-11.722,31.739
3.7241,128.182661,37.922325,4093.6124376,151.637,-11.969,31.784
3.7408,128.182676,37.922355,4093.5331896000002,151.731,-12.215,31.831
3.7575,128.182692,37.922386,4093.4414448,151.818,-12.461,31.877
3.7742,128.182707,37.922417,4093.3368984000003,151.898,-12.705,31.924
3.7909,128.182722,37.922447,4093.2201600000003,151.973,-12.949,31.972
3.8076,128.182738,37.922478,4093.09062,152.042,-13.192,32.019
3.8243,128.182753,37.922509,4092.948888,152.105,-13.435,32.067
3.841,128.182769,37.922539,4092.7943544,152.164,-13.677,32.114
3.8577,128.182784,37.92257,4092.627324,152.219,-13.919,32.162
3.8744,128.1828,37.9226,4092.4477968,152.269,-14.16,32.21
3.8911,128.182816,37.92263,4092.2557728,152.317,-14.4,32.258
3.9078,128.182831,37.922661,4092.051252,152.361,-14.64,32.306
3.9245,128.182847,37.922691,4091.8342344000002,152.403,-14.88,32.355
3.9412,128.182863,37.922721,4091.6047200000003,152.442,-15.119,32.403
3.9579,128.182879,37.922752,4091.3627088000003,152.479,-15.357,32.452
3.9746,128.182895,37.922782,4091.1078960000004,152.515,-15.595,32.5
3.9913,128.182911,37.922812,4090.8405864,152.55,-15.833,32.549
4.008,128.182927,37.922842,4090.5610848000006,152.584,-16.07,32.599
4.0247,128.182943,37.922872,4090.2687816000002,152.617,-16.306,32.648
4.0414,128.182959,37.922902,4089.9639816000004,152.65,-16.542,32.698
4.058,128.182975,37.922932,4089.64638,152.683,-16.778,32.747
4.0748,128.182991,37.922962,4089.3165864000002,152.715,-17.013,32.797
4.0915,128.183007,37.922992,4088.9739912000005,152.748,-17.247,32.848
4.1082,128.183023,37.923022,4088.6185944,152.781,-17.481,32.898
4.1249,128.18304,37.923052,4088.2510056000006,152.814,-17.715,32.949
4.1415,128.183056,37.923081,4087.8706152,152.848,-17.948,33.001
4.1583,128.183073,37.923111,4087.4777280000003,152.882,-18.181,33.052
4.175,128.183089,37.923141,4087.0723440000006,152.917,-18.413,33.104
4.1917,128.183105,37.92317,4086.6541584,152.953,-18.645,33.156
4.2084,128.183122,37.9232,4086.2231712000003,152.989,-18.876,33.208
4.2251,128.183139,37.923229,4085.7796872000004,153.026,-19.107,33.261
4.2417,128.183155,37.923259,4085.3237064,153.064,-19.338,33.314
4.2585,128.183172,37.923288,4084.8549239999998,153.103,-19.568,33.367
4.2752,128.183189,37.923318,4084.3736448,153.143,-19.798,33.42
4.2919,128.183205,37.923347,4083.8795640000003,153.183,-20.027,33.474
4.3086,128.183222,37.923376,4083.3729864,153.224,-20.257,33.528
4.3252,128.183239,37.923406,4082.8533024000003,153.265,-20.486,33.582
4.342,128.183256,37.923435,4082.3214264,153.307,-20.714,33.637
4.3587,128.183273,37.923464,4081.7764440000005,153.35,-20.942,33.692
4.3754,128.18329,37.923493,4081.2192696,153.394,-21.17,33.747
4.3921,128.183306,37.923522,4080.6489888,153.438,-21.398,33.802
4.4088,128.183323,37.923551,4080.0662112,153.482,-21.626,33.858
4.4254,128.183341,37.92358,4079.470632,153.527,-21.853,33.914
4.4422,128.183358,37.923609,4078.8622511999997,153.572,-22.08,33.97
4.4589,128.183375,37.923638,4078.2413736000003,153.618,-22.307,34.026
4.4756,128.183392,37.923666,4077.6076944,153.663,-22.533,34.083
4.4923,128.183409,37.923695,4076.9612136,153.709,-22.76,34.139
4.5089,128.183426,37.923724,4076.302236,153.756,-22.986,34.196
4.5256,128.183443,37.923752,4075.6304568,153.802,-23.212,34.254
4.5424,128.183461,37.923781,4074.945876,153.848,-23.438,34.311
4.5591,128.183478,37.923809,4074.2487984000004,153.895,-23.664,34.369
4.5758,128.183495,37.923838,4073.5386144000004,153.941,-23.889,34.427
4.5925,128.183513,37.923866,4072.8162384,153.988,-24.115,34.485
4.6091,128.18353,37.923895,4072.080756,154.034,-24.34,34.543
4.6259,128.183548,37.923923,4071.3327768,154.08,-24.565,34.602
4.6426,128.183565,37.923951,4070.571996,154.126,-24.79,34.661
4.6593,128.183583,37.923979,4069.7987184000003,154.171,-25.015,34.719
4.676,128.1836,37.924008,4069.0126392,154.217,-25.24,34.779
4.6927,128.183618,37.924036,4068.2137584,154.262,-25.465,34.838
4.7093,128.183635,37.924064,4067.4023808,154.306,-25.69,34.898
4.7261,128.183653,37.924092,4066.5782016,154.351,-25.914,34.958
4.7428,128.183671,37.92412,4065.7415256000004,154.395,-26.139,35.018
4.7595,128.183688,37.924147,4064.892048,154.438,-26.364,35.078
4.7762,128.183706,37.924175,4064.0300736000004,154.482,-26.588,35.138
4.7928,128.183724,37.924203,4063.1552976000003,154.524,-26.812,35.199
4.8096,128.183741,37.924231,4062.2680248,154.567,-27.037,35.26
4.8263,128.183759,37.924258,4061.3679504,154.608,-27.261,35.321
4.843,128.183777,37.924286,4060.4553792,154.65,-27.485,35.382
4.8597,128.183795,37.924313,4059.5303112,154.69,-27.71,35.444
4.8764,128.183813,37.924341,4058.5924416000003,154.731,-27.934,35.506
4.893,128.18383,37.924368,4057.6420752000004,154.77,-28.158,35.568
4.9098,128.183848,37.924395,4056.6807360000003,154.85,-28.383,35.627
4.9265,128.183866,37.924423,4055.708424,154.97,-28.61,35.683
4.9432,128.183884,37.92445,4054.7254440000006,155.128,-28.837,35.737
4.9599,128.183902,37.924477,4053.7327104,155.325,-29.065,35.79
4.9765,128.18392,37.924504,4052.7302232,155.558,-29.294,35.841
4.9932,128.183938,37.924531,4051.7176776,155.821,-29.523,35.891
5.01,128.183956,37.924559,4050.6941592000003,156.111,-29.752,35.94
5.0267,128.183974,37.924586,4049.6599728,156.421,-29.981,35.988
5.0434,128.183992,37.924612,4048.6145088000003,156.748,-30.21,36.036
5.0601,128.18401,37.924639,4047.5577672,157.086,-30.438,36.083
5.0767,128.184028,37.924666,4046.4894432,157.431,-30.666,36.13
5.0935,128.184046,37.924693,4045.4092320000004,157.779,-30.894,36.175
5.1102,128.184064,37.92472,4044.3168288,158.127,-31.121,36.22
5.1269,128.184083,37.924746,4043.2122336,158.471,-31.348,36.263
5.1436,128.184101,37.924773,4042.0954464000006,158.807,-31.575,36.305
5.1602,128.184119,37.9248,4040.9661624000005,159.134,-31.801,36.346
5.1769,128.184137,37.924826,4039.8240768,159.449,-32.027,36.386
5.1937,128.184155,37.924853,4038.6694944,159.751,-32.253,36.425
5.2104,128.184173,37.924879,4037.5021103999998,160.037,-32.48,36.462
5.2271,128.184191,37.924905,4036.3222296000004,160.307,-32.706,36.498
5.2438,128.18421,37.924932,4035.1292424,160.56,-32.933,36.533
5.2604,128.184228,37.924958,4033.9237584,160.795,-33.16,36.566
5.2772,128.184246,37.924984,4032.705168,161.013,-33.387,36.599
5.2939,128.184264,37.92501,4031.4740808,161.213,-33.615,36.63
5.3106,128.184282,37.925036,4030.2298872000006,161.396,-33.843,36.66
5.3273,128.184301,37.925062,4028.9731968,161.561,-34.071,36.689
5.3439,128.184319,37.925088,4027.7040096000005,161.71,-34.3,36.717
5.3606,128.184337,37.925114,4026.4220208,161.843,-34.53,36.744
5.3774,128.184355,37.925139,4025.1272304000004,161.96,-34.759,36.771
5.3941,128.184373,37.925165,4023.8202480000004,162.063,-34.99,36.797
5.4108,128.184392,37.925191,4022.500464,162.153,-35.22,36.823
5.4275,128.18441,37.925216,4021.1681832,162.23,-35.451,36.847
5.4441,128.184428,37.925242,4019.8237104,162.295,-35.683,36.872
5.4609,128.184446,37.925267,4018.4667408,162.349,-35.914,36.896
5.4776,128.184464,37.925292,4017.0975792,162.393,-36.146,36.921
5.4943,128.184483,37.925318,4015.7162256,162.429,-36.378,36.945
5.511,128.184501,37.925343,4014.32268,162.456,-36.61,36.969
5.5277,128.184519,37.925368,4012.9166376,162.477,-36.843,36.993
5.5443,128.184537,37.925393,4011.498708,162.491,-37.075,37.017
5.5611,128.184555,37.925418,4010.0685864,162.499,-37.308,37.042
5.5778,128.184573,37.925443,4008.6265776000005,162.503,-37.54,37.067
5.5945,128.184592,37.925468,4007.1723768,162.503,-37.773,37.092
5.6112,128.18461,37.925493,4005.7062888,162.5,-38.005,37.119
5.6278,128.184628,37.925518,4004.2283136,162.495,-38.237,37.148
5.6445,128.184646,37.925543,4002.7381464000005,162.488,-38.469,37.177
5.6613,128.184664,37.925567,4001.2363968,162.48,-38.7,37.209
5.678,128.184682,37.925592,3999.7224552000002,162.47,-38.932,37.241
5.6947,128.184701,37.925616,3998.1969312,162.46,-39.163,37.274
5.7114,128.184719,37.925641,3996.6592152,162.448,-39.393,37.308
5.728,128.184737,37.925665,3995.1099168000005,162.436,-39.624,37.343
5.7448,128.184755,37.925689,3993.5487312,162.424,-39.854,37.379
5.7615,128.184773,37.925714,3991.9759632,162.412,-40.084,37.416
5.7782,128.184791,37.925738,3990.3913079999998,162.4,-40.314,37.454
5.7949,128.184809,37.925762,3988.7947656,162.388,-40.544,37.492
5.8115,128.184827,37.925786,3987.1866408,162.376,-40.773,37.532
5.8282,128.184845,37.92581,3985.5669336,162.365,-41.003,37.572
5.845,128.184863,37.925834,3983.9353392000003,162.355,-41.232,37.613
5.8617,128.184881,37.925858,3982.2921624000005,162.346,-41.461,37.654
5.8784,128.184899,37.925882,3980.6374032000003,162.337,-41.69,37.697
5.8951,128.184918,37.925905,3978.9710616,162.329,-41.918,37.74
5.9117,128.184936,37.925929,3977.2931376,162.322,-42.146,37.784
5.9285,128.184954,37.925953,3975.6033264,162.316,-42.375,37.828
5.9452,128.184971,37.925976,3973.9022376,162.311,-42.603,37.873
5.9619,128.184989,37.926,3972.1892616000005,162.307,-42.831,37.919
5.9786,128.185007,37.926023,3970.465008,162.303,-43.059,37.966
5.9952,128.185025,37.926046,3968.729172,162.3,-43.286,38.014
6.0119,128.185043,37.926069,3966.9817536,162.298,-43.514,38.062
6.0287,128.185061,37.926093,3965.2227528000003,162.297,-43.741,38.111
6.0454,128.185079,37.926116,3963.4524744,162.296,-43.968,38.16
6.0621,128.185097,37.926139,3961.6706136000003,162.296,-44.196,38.211
6.0788,128.185115,37.926162,3959.8771704,162.297,-44.423,38.262
6.0954,128.185133,37.926184,3958.0724496000003,162.297,-44.65,38.313
6.1121,128.185151,37.926207,3956.2564512,162.298,-44.877,38.366
6.1289,128.185168,37.92623,3954.4288704,162.3,-45.103,38.418
6.1456,128.185186,37.926253,3952.5900120000006,162.301,-45.33,38.472
6.1623,128.185204,37.926275,3950.7395712000002,162.303,-45.557,38.526
6.179,128.185222,37.926298,3948.8781576000006,162.304,-45.783,38.581
6.1956,128.18524,37.92632,3947.0051616,162.306,-46.01,38.637
6.2124,128.185257,37.926342,3945.120888,162.307,-46.237,38.693
6.2291,128.185275,37.926365,3943.2253368,162.308,-46.463,38.75
6.2458,128.185293,37.926387,3941.3188128,162.308,-46.69,38.808
6.2625,128.18531,37.926409,3939.4007064,162.309,-46.916,38.866
6.2791,128.185328,37.926431,3937.4716272,162.308,-47.142,38.925
6.2958,128.185346,37.926453,3935.5312704000003,162.308,-47.369,38.984
6.3126,128.185363,37.926475,3933.579636,162.306,-47.595,39.044
6.3293,128.185381,37.926497,3931.6170288,162.304,-47.821,39.105
6.346,128.185398,37.926518,3929.6434488000004,162.302,-48.048,39.166
6.3627,128.185416,37.92654,3927.6585912,162.298,-48.274,39.229
6.3793,128.185433,37.926562,3925.6627608,162.294,-48.5,39.291
6.3961,128.185451,37.926583,3923.6556528000006,162.289,-48.727,39.355
6.4128,128.185468,37.926604,3921.6378768,162.283,-48.953,39.419
6.4295,128.185486,37.926626,3919.6088232,162.276,-49.179,39.484
6.4462,128.185503,37.926647,3917.5691016,162.268,-49.406,39.549
6.4628,128.185521,37.926668,3915.5184072,162.259,-49.632,39.616
6.4795,128.185538,37.926689,3913.45674,162.249,-49.858,39.682
6.4963,128.185555,37.92671,3911.3841,162.238,-50.085,39.75
6.513,128.185573,37.926731,3909.3007920000005,162.226,-50.311,39.818
6.5297,128.18559,37.926752,3907.2065112,162.213,-50.537,39.888
6.5464,128.185607,37.926773,3905.1015624000006,162.199,-50.764,39.957
6.5631,128.185625,37.926794,3902.9859456000004,162.184,-50.99,40.028
6.5798,128.185642,37.926814,3900.859356,162.168,-51.217,40.099
6.5965,128.185659,37.926835,3898.7224032000004,162.151,-51.443,40.172
6.6132,128.185676,37.926855,3896.5747824000005,162.132,-51.669,40.244
6.6299,128.185693,37.926876,3894.4161888000003,162.112,-51.896,40.318
6.6466,128.18571,37.926896,3892.247232,162.091,-52.122,40.393
6.6633,128.185728,37.926916,3890.0676072,162.069,-52.348,40.468
6.68,128.185745,37.926936,3887.8776192000005,162.046,-52.575,40.544
6.6967,128.185762,37.926956,3885.6769632,162.021,-52.801,40.622
6.7134,128.185779,37.926976,3883.4659440000005,161.996,-53.027,40.7
6.7301,128.185796,37.926996,3881.2445616000005,161.969,-53.254,40.778
6.7468,128.185812,37.927016,3879.0125112,161.94,-53.48,40.858
6.7635,128.185829,37.927036,3876.7704024000004,161.911,-53.706,40.939
6.7802,128.185846,37.927055,3874.5179304000003,161.88,-53.933,41.021
6.7969,128.185863,37.927075,3872.2547904000003,161.849,-54.159,41.103
6.8136,128.18588,37.927094,3869.9815920000005,161.815,-54.385,41.187
6.8303,128.185897,37.927114,3867.6983352000007,161.781,-54.612,41.271
6.847,128.185913,37.927133,3865.4047152,161.745,-54.838,41.357
6.8637,128.18593,37.927152,3863.1007320000003,161.708,-55.064,41.443
6.8804,128.185947,37.927171,3860.7869952,161.67,-55.29,41.531
6.8971,128.185963,37.92719,3858.4628952000003,161.63,-55.516,41.62
6.9138,128.18598,37.927209,3856.1287368000003,161.589,-55.743,41.71
6.9305,128.185997,37.927228,3853.78452,161.547,-55.969,41.8
6.9472,128.186013,37.927247,3851.4302448,161.504,-56.195,41.893
6.9639,128.18603,37.927266,3849.066216,161.459,-56.421,41.986
6.9806,128.186046,37.927284,3846.6921288,161.412,-56.647,42.08
6.9973,128.186062,37.927303,3844.308288,161.364,-56.873,42.176
7.014,128.186079,37.927321,3841.9143888000003,161.315,-57.099,42.272
7.0307,128.186095,37.92734,3839.510736,161.265,-57.325,42.37
7.0474,128.186111,37.927358,3837.0973296,161.213,-57.55,42.47
7.0641,128.186128,37.927376,3834.6741696,161.159,-57.776,42.57
7.0808,128.186144,37.927394,3832.2409512,161.104,-58.002,42.672
7.0975,128.18616,37.927412,3829.7985888000003,161.048,-58.227,42.775
7.1142,128.186176,37.92743,3827.346168,160.99,-58.453,42.88
7.1309,128.186192,37.927448,3824.8842984000003,160.931,-58.679,42.986
7.1476,128.186209,37.927466,3822.4129800000005,160.87,-58.904,43.093
7.1643,128.186225,37.927483,3819.931908,160.807,-59.129,43.202
7.181,128.186241,37.927501,3817.4413872000005,160.742,-59.355,43.312
7.1977,128.186257,37.927518,3814.9414176,160.676,-59.58,43.424
7.2144,128.186273,37.927536,3812.4319992,160.609,-59.805,43.537
7.2311,128.186288,37.927553,3809.913132,160.539,-60.03,43.652
7.2478,128.186304,37.92757,3807.3851208,160.468,-60.255,43.768
7.2645,128.18632,37.927587,3804.8476608,160.395,-60.48,43.887
7.2812,128.186336,37.927604,3802.300752,160.32,-60.705,44.006
7.2979,128.186352,37.927621,3799.7446992,160.244,-60.93,44.128
7.3146,128.186367,37.927638,3797.1795024000003,160.165,-61.155,44.251
7.3313,128.186383,37.927655,3794.6051616000004,160.085,-61.379,44.376
7.348,128.186398,37.927671,3792.0216768,160.003,-61.604,44.503
7.3647,128.186414,37.927688,3789.4290480000004,159.919,-61.828,44.632
7.3814,128.186429,37.927704,3786.82758,159.832,-62.052,44.763
7.3981,128.186445,37.927721,3784.216968,159.744,-62.277,44.895
7.4148,128.18646,37.927737,3781.597212,159.653,-62.501,45.03
7.4315,128.186476,37.927753,3778.9686168000003,159.561,-62.725,45.166
7.4482,128.186491,37.927769,3776.3311824,159.466,-62.948,45.305
7.4649,128.186506,37.927785,3773.6849088,159.369,-63.172,45.446
7.4816,128.186522,37.927801,3771.0297960000003,159.269,-63.396,45.589
7.4983,128.186537,37.927817,3768.3658440000004,159.167,-63.619,45.735
7.515,128.186552,37.927833,3765.6933576000006,159.063,-63.843,45.882
7.5317,128.186567,37.927848,3763.012032,158.956,-64.066,46.032
7.5484,128.186582,37.927864,3760.3218672,158.847,-64.289,46.185
7.5651,128.186597,37.927879,3757.6234728000004,158.735,-64.512,46.339
7.5818,128.186612,37.927895,3754.9162392000003,158.621,-64.734,46.497
7.5985,128.186627,37.92791,3752.2004712000003,158.503,-64.957,46.657
7.6152,128.186642,37.927925,3749.4761688000003,158.383,-65.179,46.82
7.6319,128.186657,37.92794,3746.7436368000003,158.26,-65.402,46.985
7.6486,128.186671,37.927955,3744.0025704,158.134,-65.624,47.153
7.6653,128.186686,37.92797,3741.2529696,158.005,-65.846,47.324
7.682,128.186701,37.927985,3738.4954440000006,157.873,-66.067,47.498
7.6987,128.186715,37.928,3735.729384,157.738,-66.289,47.675
7.7154,128.18673,37.928014,3732.9550944,157.6,-66.51,47.856
7.7321,128.186744,37.928029,3730.1725752,157.458,-66.731,48.039
7.7488,128.186759,37.928043,3727.3818264,157.313,-66.952,48.226
7.7655,128.186773,37.928057,3724.5828480000005,157.165,-67.173,48.416
7.7822,128.186788,37.928072,3721.7759448,157.012,-67.394,48.609
7.7989,128.186802,37.928086,3718.9611168000006,156.856,-67.614,48.807
7.8156,128.186816,37.9281,3716.1383640000004,156.697,-67.834,49.007
7.8323,128.18683,37.928114,3713.3073816,156.533,-68.054,49.212
7.849,128.186845,37.928127,3710.4684744,156.365,-68.273,49.42
7.8657,128.186859,37.928141,3707.6219472000002,156.193,-68.492,49.633
7.8824,128.186873,37.928155,3704.7674952,156.017,-68.712,49.85
7.8991,128.186887,37.928168,3701.9051184000004,155.837,-68.93,50.07
7.9158,128.186901,37.928182,3699.0351216,155.652,-69.149,50.296
7.9325,128.186915,37.928195,3696.1575048000004,155.462,-69.367,50.525
7.9492,128.186928,37.928208,3693.272268,155.268,-69.585,50.76
7.9659,128.186942,37.928222,3690.3794112,155.069,-69.802,50.999
7.9826,128.186956,37.928235,3687.4789344,154.865,-70.02,51.243
7.9993,128.18697,37.928248,3684.5708376,154.655,-70.236,51.492
8.016,128.186983,37.92826,3681.6554256000004,154.441,-70.453,51.746
8.0327,128.186997,37.928273,3678.7323936000003,154.221,-70.669,52.006
8.0494,128.18701,37.928286,3675.8020464000006,153.995,-70.885,52.271
8.0661,128.187024,37.928298,3672.864384,153.763,-71.1,52.542
8.0828,128.187037,37.928311,3669.9194064000003,153.525,-71.315,52.819
8.0994,128.187051,37.928323,3666.9674184,153.281,-71.53,53.102
8.1161,128.187064,37.928335,3664.0078104,153.031,-71.744,53.392
8.1329,128.187077,37.928348,3661.0411920000006,152.773,-71.958,53.688
8.1496,128.18709,37.92836,3658.0675632,152.509,-72.171,53.99
8.1663,128.187103,37.928372,3655.0869239999997,152.238,-72.384,54.3
8.183,128.187116,37.928383,3652.0989696,151.96,-72.596,54.617
8.1997,128.187129,37.928395,3649.1043096000003,151.674,-72.808,54.942
8.2164,128.187142,37.928407,3646.1026392000003,151.38,-73.02,55.274
8.2331,128.187155,37.928418,3643.0939584,151.078,-73.23,55.614
8.2498,128.187168,37.92843,3640.078572,150.768,-73.441,55.962
8.2665,128.187181,37.928441,3637.05648,150.449,-73.65,56.32
8.2831,128.187194,37.928452,3634.0273776000004,150.121,-73.859,56.686
8.2998,128.187206,37.928464,3630.9918744,149.784,-74.067,57.061
8.3166,128.187219,37.928475,3627.9493608000002,149.437,-74.275,57.445
8.3333,128.187231,37.928486,3624.9004464000004,149.08,-74.482,57.84
8.35,128.187244,37.928496,3621.8448264,148.713,-74.688,58.245
8.3667,128.187256,37.928507,3618.7828056000003,148.335,-74.894,58.661
8.3834,128.187269,37.928518,3615.7143840000003,147.945,-75.099,59.087
8.4001,128.187281,37.928528,3612.6395616000004,147.545,-75.303,59.525
8.4168,128.187293,37.928539,3609.5583384,147.132,-75.506,59.975
8.4335,128.187305,37.928549,3606.4704096000005,146.707,-75.708,60.437
8.4502,128.187317,37.928559,3603.3766896,146.269,-75.909,60.912
8.4668,128.18733,37.92857,3600.2765688000004,145.817,-76.11,61.401
8.4835,128.187342,37.92858,3597.1700472,145.352,-76.309,61.903
8.5003,128.187353,37.92859,3594.0577344000003,144.872,-76.507,62.42
8.517,128.187365,37.928599,3590.9390208000004,144.377,-76.705,62.951
8.5337,128.187377,37.928609,3587.8145160000004,143.867,-76.901,63.498
8.5504,128.187389,37.928619,3584.6839152000002,143.34,-77.096,64.061
8.5671,128.1874,37.928628,3581.5472184,142.797,-77.289,64.641
8.5838,128.187412,37.928638,3578.4047304000005,142.236,-77.482,65.239
8.6005,128.187424,37.928647,3575.2564512,141.657,-77.673,65.854
8.6172,128.187435,37.928656,3572.1023808,141.058,-77.862,66.488
8.6339,128.187447,37.928665,3568.9425192000003,140.441,-78.051,67.142
8.6505,128.187458,37.928674,3565.7768664000005,139.803,-78.237,67.816
8.6672,128.187469,37.928683,3562.6057272000003,139.143,-78.422,68.511
8.684,128.18748,37.928692,3559.4287968,138.462,-78.605,69.228
8.7007,128.187492,37.928701,3556.2463800000005,137.758,-78.787,69.968
8.7174,128.187503,37.928709,3553.0584768,137.03,-78.966,70.732
8.7341,128.187514,37.928718,3549.8650872000003,136.277,-79.144,71.52
8.7508,128.187525,37.928726,3546.6665160000002,135.499,-79.32,72.334
8.7675,128.187536,37.928734,3543.4624584,134.694,-79.493,73.174
8.7842,128.187546,37.928743,3540.2529144000005,133.862,-79.664,74.042
8.8009,128.187557,37.928751,3537.0381888,133.001,-79.833,74.938
8.8176,128.187568,37.928759,3533.8182816000003,132.11,-79.999,75.864
8.8342,128.187578,37.928766,3530.5931928,131.189,-80.163,76.82
8.8509,128.187589,37.928774,3527.3629224,130.237,-80.324,77.807
8.8676,128.187599,37.928782,3524.1277752,129.252,-80.482,78.828
8.8844,128.18761,37.928789,3520.8874464000005,128.233,-80.637,79.881
8.9011,128.18762,37.928797,3517.6422408000003,127.18,-80.788,80.969
8.9178,128.187631,37.928804,3514.3921584,126.091,-80.937,82.093
8.9345,128.187641,37.928811,3511.1371992,124.966,-81.081,83.253
8.9512,128.187651,37.928818,3507.8773632,123.803,-81.222,84.45
8.9679,128.187661,37.928826,3504.6126504000003,122.603,-81.36,85.685
8.9846,128.187671,37.928832,3501.3433656,121.363,-81.493,86.958
9.0013,128.187681,37.928839,3498.0695088,120.085,-81.622,88.271
9.0179,128.187691,37.928846,3494.7910800000004,118.766,-81.746,89.624
9.0346,128.187701,37.928853,3491.5077744,117.408,-81.866,91.017
9.0513,128.18771,37.928859,3488.2202016,116.009,-81.981,92.45
9.0681,128.18772,37.928865,3484.9283616000002,114.57,-82.091,93.923
9.0848,128.18773,37.928872,3481.6319496,113.091,-82.196,95.436
9.1015,128.187739,37.928878,3478.3309656,111.573,-82.295,96.988
9.1182,128.187749,37.928884,3475.0260192000005,110.016,-82.388,98.579
9.1349,128.187758,37.92889,3471.7165008,108.42,-82.476,100.208
9.1516,128.187767,37.928896,3468.40302,106.789,-82.557,101.874
9.1683,128.187777,37.928901,3465.0855768,105.122,-82.632,103.574
9.185,128.187786,37.928907,3461.7635616000002,103.423,-82.701,105.307
9.2016,128.187795,37.928913,3458.4378888,101.692,-82.762,107.071
9.2183,128.187804,37.928918,3455.1082536,99.934,-82.817,108.863
9.235,128.187813,37.928923,3451.7743511999997,98.15,-82.865,110.681
9.2518,128.187822,37.928929,3448.4367912000002,96.343,-82.906,112.521
9.2685,128.187831,37.928934,3445.0952688,94.517,-82.94,114.38
9.2852,128.187839,37.928939,3441.7500888000004,92.676,-82.966,116.254
9.3019,128.187848,37.928944,3438.4012512,90.824,-82.985,118.14
9.3186,128.187857,37.928948,3435.048756,88.963,-82.996,120.034
9.3353,128.187865,37.928953,3431.6926032000006,87.099,-82.999,121.931
9.352,128.187873,37.928958,3428.3327928,85.235,-82.995,123.828
9.3687,128.187882,37.928962,3424.9693248000003,83.375,-82.984,125.721
9.3854,128.18789,37.928966,3421.6028088000003,81.524,-82.965,127.605
9.402,128.187898,37.928971,3418.2326352000005,79.685,-82.938,129.477
9.4187,128.187907,37.928975,3414.8591088000003,77.861,-82.905,131.333
9.4355,128.187915,37.928979,3411.4822296,76.058,-82.864,133.169
9.4522,128.187923,37.928983,3408.1023024,74.277,-82.815,134.983
9.4689,128.187931,37.928987,3404.7190224,72.522,-82.76,136.77
9.4856,128.187938,37.92899,3401.3326944,70.796,-82.698,138.529
9.5023,128.187946,37.928994,3397.9433184000004,69.101,-82.63,140.257
9.519,128.187954,37.928997,3394.5505896000004,67.439,-82.555,141.951
9.5357,128.187962,37.929001,3391.1551176,65.812,-82.473,143.611
9.5524,128.187969,37.929004,3387.7569024000004,64.222,-82.386,145.233
9.5691,128.187977,37.929007,3384.3556392000005,62.67,-82.293,146.818
9.5857,128.187984,37.92901,3380.9516328000004,61.156,-82.194,148.364
9.6024,128.187991,37.929013,3377.5445784000003,59.682,-82.09,149.87
9.6192,128.187999,37.929016,3374.1350856,58.246,-81.981,151.337
9.6359,128.188006,37.929019,3370.7228496000002,56.849,-81.867,152.765
9.6526,128.188013,37.929021,3367.3081752000003,55.491,-81.748,154.155
9.6693,128.18802,37.929024,3363.8907576,54.171,-81.625,155.505
9.686,128.188027,37.929026,3360.4709016,52.889,-81.498,156.818
9.7027,128.188034,37.929029,3357.0486072000003,51.644,-81.367,158.093
9.7194,128.18804,37.929031,3353.6238744,50.435,-81.232,159.331
9.7361,128.188047,37.929033,3350.197008,49.261,-81.094,160.534
9.7528,128.188054,37.929035,3346.7677032000006,48.122,-80.953,161.702
9.7694,128.18806,37.929037,3343.3362647999998,47.016,-80.808,162.835
9.7861,128.188067,37.929039,3339.9026928000003,45.943,-80.661,163.936
9.8029,128.188073,37.92904,3336.4669872000004,44.902,-80.51,165.005
9.8196,128.18808,37.929042,3333.029148,43.892,-80.357,166.043
9.8363,128.188086,37.929043,3329.5891752,42.911,-80.201,167.051
9.853,128.188092,37.929045,3326.1476784000006,41.959,-80.043,168.031
9.8697,128.188098,37.929046,3322.704048,41.034,-79.883,168.982
9.8864,128.188104,37.929047,3319.2585888000003,40.135,-79.721,169.908
9.9031,128.18811,37.929048,3315.8113008000005,39.262,-79.556,170.808
9.9198,128.188116,37.929049,3312.362184,38.414,-79.39,171.683
9.9365,128.188122,37.92905,3308.9115432000003,37.588,-79.222,172.535
9.9531,128.188127,37.92905,3305.4593784000003,36.785,-79.052,173.365
9.9698,128.188133,37.929051,3302.0056896000006,36.003,-78.881,174.174
9.9865,128.188138,37.929052,3298.550172,35.241,-78.708,174.962
10.0033,128.188144,37.929052,3295.0934352000004,34.499,-78.534,175.731
10.02,128.188149,37.929052,3291.6354792,33.776,-78.358,176.481
10.0367,128.188155,37.929052,3288.1759991999998,33.072,-78.182,177.213
10.0534,128.18816,37.929052,3284.7149952,32.386,-78.003,177.928
10.0701,128.188165,37.929052,3281.2530768,31.717,-77.824,178.625
10.0868,128.18817,37.929052,3277.7899392000004,31.066,-77.644,179.306
10.1035,128.188175,37.929052,3274.3258872000006,30.431,-77.462,179.971
10.1202,128.18818,37.929052,3270.8606160000004,29.812,-77.279,180.621
10.1368,128.188185,37.929051,3267.3941256000003,29.21,-77.095,181.255
10.1535,128.18819,37.92905,3263.9270256000004,28.623,-76.91,181.875
10.1702,128.188194,37.92905,3260.4590112,28.051,-76.724,182.482
10.187,128.188199,37.929049,3256.9900824,27.494,-76.537,183.074
10.2037,128.188203,37.929048,3253.5202392,26.951,-76.35,183.654
10.2204,128.188208,37.929047,3250.0500912,26.423,-76.161,184.22
10.2371,128.188212,37.929046,3246.5790288,25.908,-75.971,184.774
10.2538,128.188216,37.929045,3243.1073568,25.407,-75.78,185.316
10.2705,128.18822,37.929043,3239.63538,24.92,-75.588,185.845
10.2872,128.188224,37.929042,3236.1627936000004,24.447,-75.396,186.362
10.3039,128.188228,37.92904,3232.6899024000004,23.989,-75.202,186.867
10.3205,128.188232,37.929039,3229.2164016,23.546,-75.007,187.358
10.3372,128.188236,37.929037,3225.7429008000004,23.119,-74.811,187.836
10.3539,128.18824,37.929035,3222.2690952000003,22.709,-74.614,188.301
10.3707,128.188244,37.929033,3218.7949848000003,22.316,-74.416,188.751
10.3874,128.188247,37.929031,3215.3211792,21.94,-74.216,189.187
10.4041,128.188251,37.929029,3211.8470688,21.583,-74.015,189.608
10.4208,128.188254,37.929026,3208.3729584,21.244,-73.813,190.014
10.4375,128.188257,37.929024,3204.8988480000003,20.924,-73.609,190.404
10.4542,128.188261,37.929021,3201.4250424,20.623,-73.405,190.779
10.4709,128.188264,37.929019,3197.9512368,20.342,-73.198,191.138
10.4876,128.188267,37.929016,3194.4780408,20.08,-72.99,191.481
10.5042,128.18827,37.929013,3191.0048448000002,19.837,-72.781,191.808
10.5209,128.188273,37.92901,3187.5322584,19.614,-72.57,192.118
10.5376,128.188275,37.929007,3184.0599768,19.409,-72.358,192.412
10.5544,128.188278,37.929004,3180.5883048,19.224,-72.145,192.69
10.5711,128.188281,37.929,3177.1172424,19.056,-71.93,192.952
10.5878,128.188283,37.928997,3173.6467896000004,18.906,-71.713,193.197
10.6045,128.188285,37.928993,3170.1772512,18.772,-71.495,193.428
10.6212,128.188288,37.92899,3166.7083224000003,18.652,-71.276,193.643
10.6379,128.18829,37.928986,3163.240308,18.545,-71.055,193.846
10.6546,128.188292,37.928982,3159.773208,18.45,-70.833,194.035
10.6713,128.188294,37.928978,3156.3070224000003,18.364,-70.61,194.212
10.6879,128.188296,37.928974,3152.8417512,18.287,-70.386,194.378
10.7046,128.188298,37.92897,3149.3776992,18.217,-70.161,194.534
10.7213,128.1883,37.928966,3145.9148664000004,18.152,-69.935,194.681
10.7381,128.188302,37.928961,3142.452948,18.091,-69.708,194.819
10.7548,128.188303,37.928957,3138.9925536,18.032,-69.481,194.95
10.7715,128.188305,37.928952,3135.5333784000004,17.974,-69.252,195.074
10.7882,128.188306,37.928948,3132.0754224,17.915,-69.024,195.193
10.8049,128.188307,37.928943,3128.6189904000003,17.855,-68.794,195.308
10.8216,128.188309,37.928938,3125.1637776000002,17.791,-68.565,195.42
10.8383,128.18831,37.928933,3121.7100888,17.722,-68.335,195.53
10.855,128.188311,37.928928,3118.2582288,17.647,-68.106,195.639
10.8717,128.188312,37.928923,3114.807588,17.565,-67.876,195.748
10.8883,128.188313,37.928917,3111.3584712,17.475,-67.647,195.858
10.905,128.188313,37.928912,3107.9111832,17.377,-67.418,195.97
10.9218,128.188314,37.928906,3104.4654192000003,17.269,-67.189,196.084
10.9385,128.188315,37.928901,3101.0214840000003,17.152,-66.961,196.201
10.9552,128.188315,37.928895,3097.5790728,17.025,-66.734,196.321
10.9719,128.188316,37.928889,3094.1387952,16.887,-66.507,196.446
10.9886,128.188316,37.928883,3090.7000416000005,16.739,-66.281,196.575
11.0053,128.188316,37.928877,3087.2631168000003,16.581,-66.056,196.708
11.022,128.188317,37.928871,3083.8283256000004,16.414,-65.831,196.846
11.0387,128.188317,37.928865,3080.3950584,16.239,-65.608,196.988
11.0554,128.188317,37.928858,3076.9642296,16.057,-65.385,197.133
11.072,128.188317,37.928852,3073.5352296,15.869,-65.163,197.282
11.0887,128.188317,37.928845,3070.1083632,15.678,-64.942,197.432
11.1054,128.188316,37.928839,3066.6836304000003,15.487,-64.726,197.581
11.1222,128.188316,37.928832,3063.2610312,15.298,-64.515,197.727
11.1389,128.188316,37.928825,3059.8405656,15.114,-64.312,197.869
11.1556,128.188315,37.928818,3056.4225384,14.938,-64.117,198.005
11.1723,128.188315,37.928811,3053.0069496,14.77,-63.931,198.134
11.189,128.188314,37.928804,3049.5934944,14.611,-63.754,198.255
11.2057,128.188313,37.928797,3046.1827824,14.462,-63.586,198.369
11.2224,128.188313,37.92879,3042.774204,14.323,-63.428,198.475
11.2391,128.188312,37.928782,3039.3680640000002,14.193,-63.278,198.574
11.2557,128.188311,37.928775,3035.9643624000005,14.072,-63.138,198.665
11.2724,128.18831,37.928767,3032.5630992,13.959,-63.006,198.751
11.2891,128.188309,37.92876,3029.1645792,13.854,-62.882,198.83
11.3059,128.188307,37.928752,3025.7684976,13.757,-62.766,198.903
11.3226,128.188306,37.928744,3022.3748544,13.666,-62.657,198.971
11.3393,128.188305,37.928736,3018.9836496000003,13.582,-62.555,199.034
11.356,128.188303,37.928728,3015.595188,13.503,-62.459,199.092
11.3727,128.188302,37.92872,3012.2091648,13.43,-62.368,199.147
11.3894,128.1883,37.928712,3008.82558,13.361,-62.283,199.197
11.4061,128.188299,37.928703,3005.4444336,13.297,-62.203,199.245
11.4228,128.188297,37.928695,3002.0657256000004,13.237,-62.128,199.289
11.4394,128.188295,37.928686,2998.6897608,13.18,-62.057,199.33
11.4561,128.188293,37.928678,2995.3159296000003,13.128,-61.991,199.367
11.4728,128.188291,37.928669,2991.9448416000005,13.078,-61.929,199.402
11.4896,128.188289,37.92866,2988.5758872000006,13.031,-61.869,199.434
11.5063,128.188287,37.928652,2985.2096760000004,12.986,-61.814,199.464
11.523,128.188285,37.928643,2981.8455984,12.943,-61.76,199.493
11.5397,128.188283,37.928634,2978.484264,12.901,-61.71,199.519
11.5564,128.188281,37.928625,2975.1247584,12.861,-61.661,199.545
11.5731,128.188278,37.928615,2971.7679960000005,12.821,-61.615,199.569
11.5898,128.188276,37.928606,2968.413672,12.782,-61.571,199.591
11.6065,128.188274,37.928597,2965.0611768,12.744,-61.528,199.612
11.6231,128.188271,37.928587,2961.71112,12.706,-61.488,199.632
11.6398,128.188268,37.928578,2958.3635016,12.668,-61.448,199.651
11.6565,128.188266,37.928568,2955.0177120000003,12.631,-61.41,199.67
11.6733,128.188263,37.928559,2951.6743608,12.594,-61.373,199.688
11.69,128.18826,37.928549,2948.3331432,12.556,-61.337,199.705
11.7067,128.188257,37.928539,2944.9937544,12.518,-61.302,199.722
11.7234,128.188254,37.928529,2941.656804,12.48,-61.268,199.737
11.7401,128.188251,37.92852,2938.3216824,12.442,-61.235,199.753
11.7568,128.188248,37.92851,2934.9886944,12.404,-61.202,199.768
11.7735,128.188245,37.928499,2931.6575352000004,12.365,-61.171,199.782
11.7902,128.188242,37.928489,2928.3285096000004,12.325,-61.14,199.796
11.8068,128.188239,37.928479,2925.0016176,12.285,-61.11,199.809
11.8235,128.188236,37.928469,2921.6762496,12.245,-61.081,199.822
11.8402,128.188232,37.928459,2918.3530152,12.204,-61.051,199.835
11.857,128.188229,37.928448,2915.0316096,12.162,-61.021,199.848
11.8737,128.188225,37.928438,2911.7123376,12.122,-61.002,199.856
11.8904,128.188222,37.928427,2908.3945896000005,12.085,-60.992,199.86
11.9071,128.188218,37.928416,2905.0786704,12.05,-60.988,199.86
11.9238,128.188215,37.928406,2901.7642752,12.017,-60.99,199.86
11.9405,128.188211,37.928395,2898.4520136,11.984,-60.995,199.857
11.9572,128.188207,37.928384,2895.1409712000004,11.95,-61.002,199.853
11.9739,128.188204,37.928373,2891.8317576000004,11.917,-61.009,199.849
11.9905,128.1882,37.928362,2888.5237632,11.885,-61.016,199.846
12.0072,128.188196,37.928352,2885.2175976000003,11.851,-61.021,199.843
12.0239,128.188192,37.92834,2881.9126512,11.817,-61.026,199.841
12.0407,128.188188,37.928329,2878.6092288,11.787,-61.039,199.835
12.0574,128.188184,37.928318,2875.3067208,11.762,-61.062,199.825
12.0741,128.18818,37.928307,2872.0060416,11.739,-61.091,199.812
12.0908,128.188176,37.928296,2868.7062768,11.718,-61.125,199.798
12.1075,128.188172,37.928284,2865.4077312,11.699,-61.16,199.782
12.1242,128.188168,37.928273,2862.1101000000003,11.682,-61.195,199.767
12.1409,128.188163,37.928262,2858.813688,11.665,-61.23,199.753
12.1576,128.188159,37.92825,2855.5181904,11.648,-61.262,199.739
12.1743,128.188155,37.928239,2852.2236072,11.631,-61.291,199.727
12.1909,128.18815,37.928227,2848.9302432,11.614,-61.317,199.716
12.2076,128.188146,37.928216,2845.6377936000004,11.596,-61.339,199.706
12.2243,128.188142,37.928204,2842.3459536,11.578,-61.357,199.698
12.2411,128.188137,37.928192,2839.055028,11.559,-61.37,199.693
12.2578,128.188133,37.92818,2835.7650168000005,11.54,-61.38,199.689
12.2745,128.188128,37.928169,2832.4756152,11.52,-61.386,199.687
12.2912,128.188123,37.928157,2829.1871280000005,11.5,-61.388,199.686
12.3079,128.188119,37.928145,2825.8992504000003,11.479,-61.387,199.687
12.3246,128.188114,37.928133,2822.6122872000005,11.458,-61.382,199.689
12.3413,128.18811,37.928121,2819.3256288,11.436,-61.375,199.692
12.358,128.188105,37.928109,2816.0398848000004,11.413,-61.364,199.696
12.3746,128.1881,37.928097,2812.7547504000004,11.39,-61.352,199.702
12.3913,128.188095,37.928085,2809.4699208,11.367,-61.338,199.708
12.408,128.18809,37.928073,2806.1860056000005,11.344,-61.322,199.716
12.4248,128.188086,37.92806,2802.9027,11.321,-61.304,199.723
12.4415,128.188081,37.928048,2799.6196992,11.298,-61.286,199.731
12.4582,128.188076,37.928036,2796.3370032000003,11.275,-61.267,199.74
12.4749,128.188071,37.928023,2793.0552215999996,11.252,-61.247,199.748
12.4916,128.188066,37.928011,2789.7737448,11.228,-61.227,199.757
12.5083,128.188061,37.927999,2786.4928776,11.205,-61.207,199.766
12.525,128.188056,37.927986,2783.2123152,11.182,-61.186,199.774
12.5417,128.18805,37.927974,2779.9323624000003,11.158,-61.166,199.782
12.5583,128.188045,37.927961,2776.6524096000003,11.135,-61.146,199.791
12.575,128.18804,37.927949,2773.3733712000003,11.112,-61.127,199.799
12.5917,128.188035,37.927936,2770.0943328000003,11.088,-61.107,199.806
12.6085,128.18803,37.927923,2766.815904,11.065,-61.088,199.814
12.6252,128.188024,37.927911,2763.53778,11.041,-61.07,199.822
12.6419,128.188019,37.927898,2760.2596559999997,11.017,-61.052,199.829
12.6586,128.188014,37.927885,2756.9821416000004,10.994,-61.035,199.837
12.6753,128.188008,37.927872,2753.704932,10.97,-61.018,199.844
12.692,128.188003,37.927859,2750.4280272,10.946,-61.002,199.85
12.7087,128.187998,37.927846,2747.1514272,10.923,-60.986,199.857
12.7254,128.187992,37.927833,2743.875132,10.899,-60.971,199.864
12.742,128.187987,37.927821,2740.5988368000003,10.875,-60.956,199.87
12.7587,128.187981,37.927808,2737.3228464000003,10.851,-60.941,199.876
12.7754,128.187976,37.927794,2734.0471608,10.827,-60.927,199.882
12.7922,128.18797,37.927781,2730.77178,10.803,-60.913,199.888
12.8089,128.187965,37.927768,2727.4963992,10.78,-60.9,199.894
12.8256,128.187959,37.927755,2724.2213232000004,10.756,-60.886,199.9
12.8423,128.187953,37.927742,2720.9462472,10.732,-60.874,199.906
12.859,128.187948,37.927729,2717.6717808,10.707,-60.861,199.911
12.8757,128.187942,37.927716,2714.3970096000003,10.682,-60.849,199.915
12.8924,128.187936,37.927702,2711.1225432,10.657,-60.837,199.92
12.9091,128.18793,37.927689,2707.8483816000003,10.631,-60.826,199.925
12.9257,128.187925,37.927676,2704.5739152,10.605,-60.814,199.929
12.9424,128.187919,37.927662,2701.2997536,10.578,-60.803,199.934
12.9591,128.187913,37.927649,2698.0258968,10.551,-60.792,199.938
12.9759,128.187907,37.927635,2694.7517352000004,10.524,-60.781,199.942
12.9926,128.187901,37.927622,2691.4781832,10.496,-60.77,199.946
13.0093,128.187895,37.927608,2688.2043264,10.467,-60.76,199.95
13.026,128.187889,37.927595,2684.9301648,10.439,-60.749,199.954
13.0427,128.187884,37.927581,2681.6566128,10.409,-60.739,199.958
13.0594,128.187878,37.927568,2678.382756,10.379,-60.729,199.961
13.0761,128.187872,37.927554,2675.109204,10.348,-60.719,199.965
13.0928,128.187865,37.92754,2671.8353472,10.316,-60.71,199.968
13.1095,128.187859,37.927527,2668.5611856,10.285,-60.7,199.972
13.1262,128.187853,37.927513,2665.2876336,10.253,-60.69,199.975
13.1429,128.187847,37.927499,2662.013472,10.22,-60.681,199.978
13.1596,128.187841,37.927485,2658.7393104,10.188,-60.672,199.983
13.1763,128.187835,37.927472,2655.4651488000004,10.156,-60.662,199.986
13.193,128.187829,37.927458,2652.1906824000002,10.124,-60.653,199.991
13.2097,128.187823,37.927444,2648.9165208000004,10.091,-60.644,199.994
13.2264,128.187816,37.92743,2645.6417496,10.058,-60.635,199.998
13.2431,128.18781,37.927416,2642.3666736000005,10.026,-60.626,200.002
13.2598,128.187804,37.927402,2639.0919024,9.993,-60.617,200.005
13.2765,128.187798,37.927388,2635.8168264,9.96,-60.608,200.009
13.2932,128.187791,37.927374,2632.5417504,9.926,-60.599,200.012
13.3099,128.187785,37.92736,2629.2663696,9.892,-60.591,200.015
13.3266,128.187779,37.927346,2625.9903792,9.858,-60.582,200.019
13.3433,128.187772,37.927332,2622.7146936000004,9.824,-60.574,200.022
13.36,128.187766,37.927318,2619.4383984,9.789,-60.566,200.025
13.3767,128.18776,37.927304,2616.1624079999997,9.754,-60.558,200.028
13.3934,128.187753,37.927289,2612.885808,9.718,-60.55,200.031
13.4101,128.187747,37.927275,2609.609208,9.681,-60.542,200.033
13.4268,128.18774,37.927261,2606.3323032000003,9.642,-60.535,200.034
13.4435,128.187734,37.927247,2603.0547888,9.604,-60.528,200.037
13.4602,128.187727,37.927232,2599.7772744,9.565,-60.52,200.039
13.4769,128.187721,37.927218,2596.4994552000003,9.526,-60.513,200.042
13.4936,128.187714,37.927204,2593.2213312,9.485,-60.506,200.044
13.5103,128.187708,37.927189,2589.9425976,9.445,-60.499,200.046
13.527,128.187701,37.927175,2586.6644736000003,9.402,-60.493,200.047
13.5437,128.187695,37.927161,2583.3851304000004,9.359,-60.486,200.049
13.5604,128.187688,37.927146,2580.1054824000003,9.317,-60.48,200.051
13.5771,128.187681,37.927132,2576.8258344,9.274,-60.473,200.053
13.5938,128.187675,37.927117,2573.5455768,9.231,-60.467,200.056
13.6105,128.187668,37.927103,2570.2650144000004,9.187,-60.46,200.058
13.6272,128.187661,37.927088,2566.9838424,9.144,-60.454,200.06
13.6439,128.187655,37.927074,2563.7029752000003,9.098,-60.447,200.061
13.6606,128.187648,37.927059,2560.4208888000003,9.053,-60.441,200.062
13.6773,128.187641,37.927045,2557.1384976,9.008,-60.435,200.065
13.694,128.187634,37.92703,2553.8561064,8.963,-60.429,200.067
13.7107,128.187628,37.927015,2550.5724960000002,8.918,-60.423,200.069
13.7274,128.187621,37.927001,2547.2891904,8.872,-60.417,200.071
13.7441,128.187614,37.926986,2544.0046656,8.828,-60.411,200.074
13.7608,128.187607,37.926971,2540.7204456,8.781,-60.406,200.075
13.7775,128.187601,37.926957,2537.4353112,8.735,-60.4,200.077
13.7942,128.187594,37.926942,2534.1501768,8.686,-60.394,200.077
13.8109,128.187587,37.926927,2530.8644328000005,8.636,-60.389,200.078
13.8276,128.18758,37.926912,2527.5774696,8.587,-60.384,200.079
13.8443,128.187573,37.926898,2524.2908112,8.537,-60.378,200.081
13.861,128.187566,37.926883,2521.0029336000002,8.489,-60.373,200.083
13.8777,128.187559,37.926868,2517.715056,8.439,-60.368,200.085
13.8944,128.187552,37.926853,2514.4259592000003,8.391,-60.363,200.086
13.9111,128.187545,37.926838,2511.1371672,8.34,-60.357,200.088
13.9278,128.187538,37.926823,2507.847156,8.289,-60.352,200.089
13.9445,128.187531,37.926808,2504.5574496,8.236,-60.347,200.089
13.9612,128.187524,37.926793,2501.2665239999997,8.183,-60.342,200.089
13.9779,128.187517,37.926778,2497.9759032,8.126,-60.338,200.089
13.9946,128.18751,37.926763,2494.6837584000004,8.069,-60.333,200.089
14.0113,128.187503,37.926748,2491.391004,8.013,-60.329,200.09
14.028,128.187496,37.926733,2488.0979448000003,7.958,-60.324,200.091
14.0447,128.187489,37.926718,2484.8036664,7.904,-60.32,200.094
14.0614,128.187482,37.926703,2481.5093880000004,7.849,-60.315,200.096
14.0781,128.187475,37.926688,2478.2135856000004,7.797,-60.311,200.098
14.0948,128.187468,37.926673,2474.9180880000004,7.743,-60.307,200.1
14.1115,128.187461,37.926658,2471.6213712,7.69,-60.302,200.101
14.1282,128.187454,37.926643,2468.3246544,7.634,-60.298,200.101
14.1449,128.187447,37.926628,2465.0267184000004,7.578,-60.293,200.101
14.1616,128.187439,37.926612,2461.7290872,7.519,-60.289,200.101
14.1783,128.187432,37.926597,2458.429932,7.459,-60.285,200.1
14.195,128.187425,37.926582,2455.1298624,7.4,-60.281,200.101
14.2117,128.187418,37.926567,2451.8294880000003,7.341,-60.277,200.102
14.2284,128.187411,37.926551,2448.5278944,7.284,-60.272,200.104
14.2451,128.187403,37.926536,2445.225996,7.227,-60.268,200.106
14.2618,128.187396,37.926521,2441.9228784,7.172,-60.264,200.108
14.2785,128.187389,37.926506,2438.6197607999998,7.116,-60.26,200.11
14.2952,128.187382,37.92649,2435.3151192,7.061,-60.256,200.111
14.3119,128.187375,37.926475,2432.0104776000003,7.005,-60.252,200.112
14.3286,128.187367,37.92646,2428.704312,6.948,-60.248,200.113
14.3453,128.18736,37.926444,2425.3984512,6.889,-60.244,200.112
14.362,128.187353,37.926429,2422.0910664000003,6.83,-60.241,200.112
14.3787,128.187345,37.926413,2418.7839864000002,6.767,-60.238,200.111
14.3954,128.187338,37.926398,2415.4750776,6.705,-60.234,200.111
14.4121,128.187331,37.926383,2412.1667784,6.638,-60.231,200.109
14.4288,128.187323,37.926367,2408.8563456,6.571,-60.228,200.108
14.4455,128.187316,37.926352,2405.5465224,6.501,-60.225,200.107
14.4622,128.187309,37.926336,2402.2348704,6.43,-60.222,200.106
14.4789,128.187301,37.926321,2398.9235232,6.357,-60.219,200.105
14.4956,128.187294,37.926305,2395.6103472,6.284,-60.216,200.104
14.5123,128.187287,37.926289,2392.2971712,6.209,-60.213,200.103
14.529,128.187279,37.926274,2388.9824712,6.136,-60.21,200.103
14.5457,128.187272,37.926258,2385.6674664,6.061,-60.208,200.103
14.5624,128.187264,37.926243,2382.3509376,5.988,-60.205,200.104
14.5791,128.187257,37.926227,2379.0331896000002,5.919,-60.203,200.106
14.5958,128.187249,37.926211,2375.7151368000004,5.852,-60.2,200.108
14.6125,128.187242,37.926196,2372.3952552,5.789,-60.197,200.112
14.6292,128.187234,37.92618,2369.0750688,5.727,-60.194,200.114
14.6459,128.187227,37.926164,2365.7533584000003,5.668,-60.191,200.117
14.6626,128.18722,37.926149,2362.431648,5.609,-60.188,200.119
14.6793,128.187212,37.926133,2359.1084136,5.552,-60.184,200.12
14.696,128.187205,37.926117,2355.7848744000003,5.492,-60.181,200.12
14.7127,128.187197,37.926102,2352.4598112,5.434,-60.179,200.121
14.7294,128.18719,37.926086,2349.1347480000004,5.373,-60.176,200.12
14.7461,128.187182,37.92607,2345.8081607999998,5.312,-60.173,200.12
14.7628,128.187175,37.926054,2342.4815736,5.248,-60.171,200.119
14.7795,128.187167,37.926039,2339.1531576,5.183,-60.168,200.118
14.7962,128.187159,37.926023,2335.8247416,5.115,-60.166,200.117
14.8129,128.187152,37.926007,2332.4944968,5.047,-60.164,200.116
14.8296,128.187144,37.925991,2329.1648616,4.976,-60.162,200.115
14.8463,128.187137,37.925975,2325.832788,4.905,-60.16,200.114
14.863,128.187129,37.925959,2322.5010192,4.832,-60.158,200.113
14.8797,128.187122,37.925943,2319.1671168000003,4.761,-60.156,200.113
14.8964,128.187114,37.925928,2315.8335192,4.687,-60.154,200.112
14.9131,128.187106,37.925912,2312.497788,4.614,-60.152,200.112
14.9298,128.187099,37.925896,2309.1620568000003,4.54,-60.15,200.111
14.9465,128.187091,37.92588,2305.8244968000004,4.468,-60.148,200.112
14.9632,128.187083,37.925864,2302.4869368000004,4.394,-60.146,200.112
14.9799,128.187076,37.925848,2299.1472432,4.323,-60.144,200.112
14.9966,128.187068,37.925832,2295.8078544,4.248,-60.142,200.111
15.0133,128.18706,37.925816,2292.466332,4.176,-60.14,200.111
15.03,128.187053,37.9258,2289.1251144,4.102,-60.138,200.111
15.0467,128.187045,37.925784,2285.7814584000002,4.029,-60.136,200.111
15.0634,128.187037,37.925768,2282.4381072,3.954,-60.135,200.11
15.0801,128.18703,37.925752,2279.0929272000003,3.881,-60.133,200.11
15.0968,128.187022,37.925736,2275.7477472,3.805,-60.131,200.109
15.1135,128.187014,37.92572,2272.4004336,3.731,-60.129,200.108
15.1302,128.187007,37.925703,2269.05312,3.654,-60.127,200.107
15.1469,128.186999,37.925687,2265.7036728000003,3.58,-60.126,200.107
15.1636,128.186991,37.925671,2262.3545304,3.503,-60.124,200.107
15.1803,128.186984,37.925655,2259.0029496,3.429,-60.122,200.107
15.197,128.186976,37.925639,2255.6516736,3.353,-60.121,200.107
15.2137,128.186968,37.925623,2252.2979592,3.28,-60.119,200.107
15.2304,128.18696,37.925607,2248.9445496,3.205,-60.118,200.107
15.2471,128.186953,37.92559,2245.5890064,3.131,-60.116,200.107
15.2638,128.186945,37.925574,2242.233768,3.055,-60.115,200.106
15.2805,128.186937,37.925558,2238.8760912000002,2.982,-60.113,200.106
15.2972,128.186929,37.925542,2235.5187192000003,2.906,-60.112,200.105
