Time,Longitude,Latitude,Altitude,Roll (deg),Pitch (deg),Yaw (deg)
0.0,128.181881,37.932466,7000.3172159999995,0.0,-0.003,179.999
0.0167,128.181881,37.932421,7000.2986232,0.0,-0.012,180.0
0.0334,128.181881,37.932376,7000.279116,0.0,-0.025,180.0
0.0501,128.181881,37.932331,7000.2589992,0.0,-0.04,180.0
0.0668,128.181881,37.932286,7000.237968,0.0,-0.057,180.0
0.0834,128.181881,37.932241,7000.2157176,0.0,-0.075,180.0
0.1002,128.181881,37.932196,7000.1928576,0.0,-0.094,180.0
0.1169,128.181881,37.932151,7000.1690832,0.0,-0.112,180.0
0.1336,128.181881,37.932106,7000.1443944,0.001,-0.131,180.0
0.1503,128.181881,37.932061,7000.118486400001,0.001,-0.149,180.0
0.1669,128.181881,37.932016,7000.0919688,0.001,-0.167,180.0
0.1837,128.181881,37.931971,7000.0645368000005,0.002,-0.185,180.0
0.2004,128.181881,37.931927,7000.0358856,0.002,-0.203,180.0
0.2171,128.181881,37.931882,7000.00632,0.003,-0.22,180.0
0.2338,128.181881,37.931837,6999.97584,0.003,-0.237,180.0
0.2505,128.181881,37.931792,6999.9444456,0.004,-0.254,180.0
0.2672,128.181881,37.931747,6999.912136800001,0.004,-0.271,180.0
0.2839,128.181881,37.931702,6999.878608800001,0.005,-0.287,180.0
0.3006,128.181881,37.931657,6999.8444712,0.005,-0.304,180.0
0.3172,128.181881,37.931612,6999.8088096,0.006,-0.32,180.0
0.3339,128.181881,37.931568,6999.7725384000005,0.007,-0.335,180.0
0.3507,128.181881,37.931523,6999.735048,0.008,-0.351,180.0
0.3674,128.181881,37.931478,6999.6966432,0.009,-0.366,180.0
0.3841,128.181881,37.931433,6999.657324000001,0.01,-0.381,180.0
0.4008,128.181881,37.931388,6999.6167856,0.011,-0.396,180.0
0.4175,128.181881,37.931343,6999.575028,0.012,-0.411,180.001
0.4342,128.181881,37.931299,6999.5326608000005,0.014,-0.426,180.001
0.4509,128.181881,37.931254,6999.4890744,0.015,-0.441,180.001
0.4676,128.181881,37.931209,6999.444268800001,0.017,-0.455,180.001
0.4843,128.181881,37.931164,6999.3985488,0.019,-0.469,180.001
0.501,128.181881,37.931119,6999.3519144,0.02,-0.484,180.001
0.5176,128.181881,37.931075,6999.304060800001,0.023,-0.498,180.001
0.5344,128.181881,37.93103,6999.2552928000005,0.025,-0.512,180.001
0.5511,128.181881,37.930985,6999.2053056,0.027,-0.526,180.001
0.5678,128.181881,37.93094,6999.1540992,0.03,-0.54,180.002
0.5845,128.181881,37.930896,6999.102283200001,0.033,-0.553,180.002
0.6012,128.181881,37.930851,6999.0489431999995,0.036,-0.567,180.002
0.6179,128.181881,37.930806,6998.9946887999995,0.039,-0.581,180.002
0.6345,128.181881,37.930761,6998.939520000001,0.043,-0.594,180.002
0.6513,128.181881,37.930717,6998.883132000001,0.047,-0.608,180.003
0.6679,128.181881,37.930672,6998.825829599999,0.051,-0.621,180.003
0.6847,128.181881,37.930627,6998.767308,0.056,-0.635,180.003
0.7014,128.181881,37.930583,6998.7075672,0.061,-0.648,180.004
0.7181,128.181881,37.930538,6998.646912,0.067,-0.662,180.004
0.7348,128.181881,37.930493,6998.585037600001,0.073,-0.675,180.004
0.7514,128.181881,37.930449,6998.5222488,0.079,-0.688,180.005
0.7682,128.181881,37.930404,6998.458240800001,0.086,-0.702,180.005
0.7848,128.181881,37.930359,6998.3930136,0.094,-0.715,180.006
0.8016,128.181881,37.930315,6998.326872000001,0.102,-0.728,180.006
0.8183,128.181881,37.93027,6998.259511200001,0.111,-0.741,180.007
0.835,128.181881,37.930225,6998.1909312,0.121,-0.755,180.007
0.8517,128.181881,37.930181,6998.1214368,0.132,-0.768,180.008
0.8684,128.181881,37.930136,6998.050723200001,0.143,-0.781,180.008
0.8851,128.181881,37.930092,6997.9787904,0.156,-0.794,180.009
0.9018,128.181881,37.930047,6997.9059431999995,0.169,-0.808,180.01
0.9185,128.181881,37.930002,6997.8318768,0.184,-0.821,180.011
0.9352,128.181881,37.929958,6997.7565912,0.2,-0.834,180.012
0.9519,128.181881,37.929913,6997.680086400001,0.217,-0.847,180.013
0.9686,128.181881,37.929869,6997.6026672,0.236,-0.861,180.014
0.9853,128.181881,37.929824,6997.523724000001,0.256,-0.874,180.015
1.002,128.181881,37.92978,6997.4438664,0.278,-0.887,180.016
1.0187,128.181881,37.929735,6997.3627896,0.302,-0.901,180.017
1.0353,128.181881,37.929691,6997.2804936,0.328,-0.914,180.019
1.0521,128.181881,37.929646,6997.1969784,0.356,-0.927,180.021
1.0688,128.181881,37.929602,6997.112244,0.387,-0.941,180.022
1.0855,128.181881,37.929557,6997.0262904,0.42,-0.954,180.024
1.1022,128.181881,37.929513,6996.9391176,0.456,-0.968,180.026
1.1189,128.181881,37.929468,6996.8507256,0.495,-0.981,180.028
1.1356,128.181881,37.929424,6996.7611144,0.537,-0.995,180.031
1.1522,128.181881,37.929379,6996.669979200001,0.583,-1.008,180.033
1.169,128.181881,37.929335,6996.577624800001,0.633,-1.022,180.036
1.1857,128.181881,37.929291,6996.484051200001,0.687,-1.036,180.039
1.2024,128.181881,37.929246,6996.3892584000005,0.745,-1.05,180.042
1.2191,128.181881,37.929202,6996.292941600001,0.809,-1.064,180.046
1.2358,128.181881,37.929157,6996.1954056,0.877,-1.078,180.05
1.2525,128.181881,37.929113,6996.0963456,0.952,-1.092,180.054
1.2691,128.18188,37.929069,6995.9957616,1.033,-1.106,180.059
1.2859,128.18188,37.929024,6995.8939584,1.12,-1.12,180.063
1.3026,128.18188,37.92898,6995.7903264,1.215,-1.135,180.069
1.3193,128.18188,37.928936,6995.6854752,1.319,-1.149,180.075
1.3359,128.18188,37.928891,6995.5791,1.43,-1.164,180.081
1.3527,128.18188,37.928847,6995.470896000001,1.552,-1.179,180.088
1.3694,128.18188,37.928803,6995.361168,1.683,-1.194,180.095
1.386,128.18188,37.928758,6995.249611200001,1.826,-1.209,180.103
1.4028,128.18188,37.928714,6995.1365304,1.98,-1.224,180.112
1.4195,128.18188,37.92867,6995.0216208,2.148,-1.24,180.121
1.4362,128.18188,37.928625,6994.9045776,2.33,-1.255,180.131
1.4528,128.18188,37.928581,6994.786010400001,2.528,-1.271,180.141
1.4696,128.18188,37.928537,6994.665309600001,2.744,-1.287,180.151
1.4863,128.18188,37.928492,6994.5424752,2.979,-1.304,180.162
1.5029,128.18188,37.928448,6994.4175072,3.234,-1.321,180.173
1.5197,128.18188,37.928404,6994.290405600001,3.512,-1.338,180.184
1.5364,128.18188,37.92836,6994.160865600001,3.813,-1.356,180.196
1.5531,128.18188,37.928315,6994.028887200001,4.141,-1.373,180.208
1.5697,128.18188,37.928271,6993.8944704000005,4.497,-1.392,180.221
1.5865,128.18188,37.928227,6993.757615200001,4.884,-1.411,180.234
1.6032,128.18188,37.928183,6993.617712,5.305,-1.43,180.247
1.6198,128.18188,37.928138,6993.474760800001,5.762,-1.45,180.261
1.6366,128.18188,37.928094,6993.3287616,6.258,-1.471,180.276
1.6533,128.18188,37.92805,6993.1797144,6.798,-1.492,180.291
1.67,128.18188,37.928006,6993.0270096,7.384,-1.514,180.307
1.6867,128.18188,37.927962,6992.8724760000005,7.943,-1.537,180.319
1.7034,128.18188,37.927917,6992.715808800001,8.474,-1.558,180.324
1.7201,128.18188,37.927873,6992.557312800001,8.982,-1.58,180.327
1.7368,128.18188,37.927829,6992.397597600001,9.469,-1.602,180.329
1.7535,128.18188,37.927785,6992.2366632,9.943,-1.624,180.331
1.7702,128.18188,37.927741,6992.0745096,10.407,-1.646,180.333
1.7869,128.18188,37.927696,6991.9108320000005,10.867,-1.668,180.337
1.8036,128.18188,37.927652,6991.7450208,11.326,-1.691,180.342
1.8203,128.18188,37.927608,6991.5776856,11.79,-1.715,180.348
1.837,128.18188,37.927564,6991.4082168,12.261,-1.739,180.354
1.8537,128.18188,37.92752,6991.236919200001,12.741,-1.763,180.362
1.8704,128.18188,37.927476,6991.063488000001,13.234,-1.787,180.37
1.8871,128.18188,37.927431,6990.887923200001,13.74,-1.812,180.379
1.9038,128.18188,37.927387,6990.710224800001,14.263,-1.837,180.388
1.9205,128.18188,37.927343,6990.530088,14.802,-1.862,180.397
1.9372,128.18188,37.927299,6990.3475128,15.36,-1.888,180.407
1.9539,128.18188,37.927255,6990.1628040000005,15.938,-1.914,180.417
1.9706,128.181879,37.927211,6989.975352000001,16.536,-1.941,180.427
1.9873,128.181879,37.927167,6989.7857664,17.156,-1.968,180.437
2.004,128.181879,37.927123,6989.5934376000005,17.799,-1.996,180.448
2.0207,128.181879,37.927079,6989.398365600001,18.465,-2.024,180.458
2.0374,128.181879,37.927034,6989.200855200001,19.156,-2.052,180.469
2.0541,128.181879,37.92699,6989.000601600001,19.873,-2.081,180.48
2.0707,128.181879,37.926946,6988.7973,20.616,-2.111,180.491
2.0875,128.181879,37.926902,6988.591560000001,21.386,-2.141,180.502
2.1042,128.181879,37.926858,6988.3824672,22.185,-2.172,180.512
2.1208,128.181879,37.926814,6988.170631200001,23.013,-2.204,180.523
2.1376,128.181879,37.92677,6987.956052,23.873,-2.236,180.534
2.1543,128.181879,37.926726,6987.738120000001,24.764,-2.269,180.544
2.171,128.181879,37.926682,6987.51714,25.689,-2.302,180.554
2.1877,128.181879,37.926638,6987.2928071999995,26.647,-2.336,180.563
2.2044,128.181879,37.926594,6987.0654264,27.641,-2.371,180.572
2.2211,128.181879,37.92655,6986.834692800001,28.671,-2.407,180.581
2.2378,128.181879,37.926506,6986.600606400001,29.739,-2.443,180.589
2.2544,128.181879,37.926462,6986.3628624,30.846,-2.48,180.596
2.2712,128.181879,37.926418,6986.122070400001,31.992,-2.518,180.603
2.2879,128.181878,37.926374,6985.877316,33.18,-2.557,180.609
2.3045,128.181878,37.92633,6985.6292088,34.409,-2.596,180.615
2.3213,128.181878,37.926286,6985.377444,35.683,-2.636,180.619
2.338,128.181878,37.926241,6985.1220216,37.001,-2.677,180.623
2.3546,128.181878,37.926197,6984.8626368000005,38.365,-2.719,180.626
2.3714,128.181878,37.926153,6984.5995944,39.776,-2.762,180.628
2.3881,128.181878,37.926109,6984.3331992,41.232,-2.805,180.629
2.4048,128.181879,37.926065,6984.062841600001,42.731,-2.849,180.629
2.4215,128.181879,37.926021,6983.7891312,44.274,-2.893,180.627
2.4382,128.181879,37.925977,6983.5117632,45.857,-2.938,180.624
2.4549,128.181879,37.925933,6983.230737600001,47.48,-2.983,180.619
2.4716,128.181879,37.925889,6982.9463592,49.141,-3.027,180.613
2.4882,128.181879,37.925845,6982.658628,50.84,-3.072,180.605
2.505,128.181879,37.925801,6982.3672392,52.575,-3.117,180.595
2.5217,128.181879,37.925757,6982.0728024,54.344,-3.162,180.584
2.5383,128.181879,37.925713,6981.774708,56.148,-3.207,180.571
2.5551,128.181879,37.925669,6981.473565600001,57.984,-3.252,180.557
2.5718,128.181879,37.925625,6981.168765600001,59.851,-3.297,180.541
2.5884,128.181879,37.925581,6980.8612224,61.75,-3.341,180.523
2.6052,128.18188,37.925537,6980.5500216,63.678,-3.384,180.504
2.6219,128.18188,37.925493,6980.2360776000005,65.635,-3.428,180.484
2.6386,128.18188,37.925449,6979.9187808,67.621,-3.471,180.462
2.6553,128.18188,37.925405,6979.598436,69.634,-3.513,180.439
2.6719,128.18188,37.925361,6979.2750432,71.673,-3.554,180.414
2.6887,128.18188,37.925317,6978.9486024,73.739,-3.595,180.388
2.7054,128.181881,37.925273,6978.6194184000005,75.829,-3.635,180.361
2.722,128.181881,37.925229,6978.287186400001,77.944,-3.674,180.333
2.7388,128.181881,37.925185,6977.9522112,80.083,-3.712,180.303
2.7555,128.181881,37.925141,6977.6141880000005,82.246,-3.749,180.273
2.7721,128.181882,37.925097,6977.2734216,84.431,-3.786,180.241
2.7889,128.181882,37.925053,6976.9302168,86.638,-3.821,180.208
2.8056,128.181882,37.925009,6976.583964,88.866,-3.855,180.175
2.8222,128.181883,37.924965,6976.2352728000005,91.115,-3.887,180.14
2.839,128.181883,37.924921,6975.8841432,93.385,-3.919,180.105
2.8557,128.181883,37.924877,6975.5302704000005,95.674,-3.949,180.07
2.8724,128.181884,37.924833,6975.1739592,97.983,-3.979,180.036
2.8891,128.181884,37.924789,6974.8155144,100.309,-4.008,180.01
2.9057,128.181884,37.924745,6974.4543264,102.653,-4.039,179.997
2.9225,128.181885,37.924701,6974.0910048000005,105.013,-4.074,180.0
2.9392,128.181885,37.924657,6973.7252448,107.389,-4.113,180.021
2.9558,128.181886,37.924613,6973.3573512,109.78,-4.158,180.061
2.9726,128.181886,37.924569,6972.987019200001,112.185,-4.212,180.12
2.9893,128.181886,37.924525,6972.6145536,114.602,-4.276,180.198
3.0059,128.181887,37.924482,6972.2396496,117.032,-4.352,180.295
3.0227,128.181887,37.924438,6971.8623072,119.473,-4.44,180.408
3.0394,128.181888,37.924394,6971.4819168,121.912,-4.542,180.538
3.056,128.181888,37.92435,6971.0981736,124.336,-4.659,180.684
3.0728,128.181888,37.924306,6970.7107728,126.732,-4.791,180.844
3.0895,128.181889,37.924262,6970.319409600001,129.087,-4.939,181.017
3.1062,128.181889,37.924218,6969.923779200001,131.39,-5.103,181.202
3.1229,128.181889,37.924174,6969.5229672000005,133.63,-5.286,181.396
3.1395,128.181889,37.92413,6969.1166688,135.799,-5.486,181.599
3.1563,128.18189,37.924086,6968.703969600001,137.89,-5.705,181.807
3.173,128.18189,37.924042,6968.284869600001,139.897,-5.943,182.02
3.1896,128.18189,37.923998,6967.8584544000005,141.817,-6.199,182.236
3.2064,128.18189,37.923954,6967.423809600001,143.646,-6.473,182.452
3.2231,128.18189,37.923911,6966.98124,145.383,-6.765,182.667
3.2397,128.18189,37.923867,6966.530136,147.029,-7.073,182.88
3.2565,128.18189,37.923823,6966.069583200001,148.583,-7.397,183.089
3.2732,128.181889,37.923779,6965.5995816,150.049,-7.735,183.294
3.2899,128.181889,37.923735,6965.1198264,151.429,-8.086,183.492
3.3066,128.181889,37.923692,6964.629708,152.726,-8.448,183.683
3.3233,128.181889,37.923648,6964.1289216000005,153.944,-8.821,183.867
3.34,128.181888,37.923604,6963.6174672,155.087,-9.201,184.042
3.3567,128.181888,37.923561,6963.0947352,156.16,-9.584,184.206
3.3734,128.181887,37.923517,6962.5604207999995,157.166,-9.966,184.359
3.3901,128.181887,37.923473,6962.014524000001,158.111,-10.346,184.5
3.4068,128.181886,37.92343,6961.4570448,158.999,-10.721,184.628
3.4235,128.181885,37.923386,6960.887068800001,159.834,-11.091,184.745
3.4402,128.181885,37.923343,6960.304900800001,160.62,-11.454,184.85
3.4569,128.181884,37.923299,6959.710540800001,161.362,-11.81,184.945
3.4736,128.181883,37.923256,6959.103379200001,162.062,-12.159,185.03
3.4903,128.181882,37.923212,6958.483111200001,162.725,-12.501,185.105
3.507,128.181881,37.923169,6957.8503464000005,163.353,-12.835,185.171
3.5237,128.18188,37.923125,6957.2044752,163.949,-13.162,185.229
3.5404,128.181879,37.923082,6956.5461072,164.579,-13.484,185.275
3.5571,128.181878,37.923039,6955.875852000001,165.24,-13.8,185.308
3.5738,128.181877,37.922995,6955.1931,165.924,-14.11,185.332
3.5905,128.181876,37.922952,6954.498765600001,166.625,-14.414,185.349
3.6072,128.181875,37.922909,6953.791629599999,167.336,-14.712,185.36
3.6239,128.181874,37.922865,6953.071387200001,168.049,-15.004,185.366
3.6406,128.181873,37.922822,6952.337733600001,168.759,-15.29,185.369
3.6573,128.181872,37.922779,6951.590364000001,169.458,-15.571,185.367
3.674,128.18187,37.922736,6950.8292784000005,170.142,-15.846,185.362
3.6907,128.181869,37.922693,6950.0538672,170.807,-16.117,185.354
3.7074,128.181868,37.92265,6949.2641304,171.45,-16.384,185.342
3.7241,128.181866,37.922607,6948.460068,172.069,-16.648,185.327
3.7408,128.181865,37.922564,6947.6413752,172.662,-16.908,185.309
3.7575,128.181864,37.922521,6946.808052000001,173.228,-17.165,185.288
3.7742,128.181862,37.922478,6945.9600984,173.767,-17.419,185.263
3.7909,128.181861,37.922435,6945.0972096000005,174.28,-17.67,185.237
3.8076,128.18186,37.922392,6944.2196904,174.77,-17.919,185.209
3.8243,128.181858,37.922349,6943.327236,175.234,-18.167,185.18
3.841,128.181857,37.922307,6942.420151200001,175.675,-18.412,185.149
3.8577,128.181855,37.922264,6941.4978264,176.093,-18.655,185.115
3.8744,128.181854,37.922221,6940.5608712,176.489,-18.897,185.08
3.8911,128.181852,37.922179,6939.6092856000005,176.865,-19.137,185.042
3.9078,128.181851,37.922136,6938.642764800001,177.221,-19.375,185.003
3.9245,128.181849,37.922093,6937.6613088,177.559,-19.612,184.961
3.9412,128.181848,37.922051,6936.6649176,177.88,-19.848,184.918
3.9579,128.181846,37.922008,6935.654200800001,178.186,-20.082,184.874
3.9746,128.181845,37.921966,6934.6282439999995,178.478,-20.315,184.827
3.9913,128.181843,37.921924,6933.5879616,178.757,-20.546,184.779
4.008,128.181842,37.921881,6932.5324392,179.025,-20.776,184.73
4.0247,128.18184,37.921839,6931.4625912,179.281,-21.005,184.68
4.0414,128.181839,37.921797,6930.3781128,179.528,-21.233,184.628
4.058,128.181837,37.921755,6929.2786992,179.766,-21.459,184.576
4.0748,128.181836,37.921712,6928.1646552,179.997,-21.684,184.523
4.0915,128.181834,37.92167,6927.0359808,-179.779,-21.908,184.469
4.1082,128.181832,37.921628,6925.892676,-179.561,-22.131,184.416
4.1249,128.181831,37.921586,6924.7347408000005,-179.348,-22.353,184.362
4.1415,128.181829,37.921544,6923.5621752,-179.14,-22.574,184.31
4.1583,128.181828,37.921502,6922.375284000001,-178.935,-22.793,184.257
4.175,128.181826,37.921461,6921.1734576,-178.735,-23.012,184.205
4.1917,128.181825,37.921419,6919.957000800001,-178.538,-23.229,184.154
4.2084,128.181823,37.921377,6918.7262184,-178.345,-23.446,184.104
4.2251,128.181822,37.921335,6917.4808056,-178.154,-23.662,184.053
4.2417,128.18182,37.921294,6916.2207624,-177.967,-23.877,184.004
4.2585,128.181818,37.921252,6914.946088799999,-177.782,-24.091,183.955
4.2752,128.181817,37.92121,6913.6567847999995,-177.601,-24.304,183.907
4.2919,128.181815,37.921169,6912.3531552,-177.422,-24.517,183.859
4.3086,128.181814,37.921127,6911.0348952,-177.247,-24.729,183.812
4.3252,128.181812,37.921086,6909.7023096,-177.074,-24.94,183.766
4.342,128.181811,37.921045,6908.3547888,-176.906,-25.151,183.719
4.3587,128.181809,37.921003,6906.992942400001,-176.74,-25.361,183.672
4.3754,128.181808,37.920962,6905.616770400001,-176.579,-25.571,183.625
4.3921,128.181806,37.920921,6904.225968000001,-176.421,-25.78,183.578
4.4088,128.181805,37.92088,6902.8205352,-176.267,-25.988,183.53
4.4254,128.181803,37.920838,6901.400472,-176.116,-26.196,183.482
4.4422,128.181802,37.920797,6899.966388000001,-175.969,-26.404,183.434
4.4589,128.1818,37.920756,6898.5173688,-175.825,-26.611,183.386
4.4756,128.181799,37.920715,6897.054328800001,-175.685,-26.818,183.337
4.4923,128.181797,37.920674,6895.5766584,-175.549,-27.024,183.288
4.5089,128.181796,37.920634,6894.0843576,-175.416,-27.23,183.239
4.5256,128.181795,37.920593,6892.578036,-175.287,-27.436,183.189
4.5424,128.181793,37.920552,6891.057084000001,-175.161,-27.641,183.14
4.5591,128.181792,37.920511,6889.521501600001,-175.039,-27.846,183.09
4.5758,128.18179,37.920471,6887.9718984,-174.921,-28.051,183.04
4.5925,128.181789,37.92043,6886.407664800001,-174.806,-28.255,182.99
4.6091,128.181788,37.92039,6884.829105600001,-174.694,-28.459,182.94
4.6259,128.181786,37.920349,6883.2362207999995,-174.587,-28.663,182.889
4.6426,128.181785,37.920309,6881.629010400001,-174.483,-28.867,182.839
4.6593,128.181783,37.920268,6880.0074744,-174.383,-29.07,182.788
4.676,128.181782,37.920228,6878.371612800001,-174.286,-29.273,182.737
4.6927,128.181781,37.920188,6876.7214256,-174.194,-29.476,182.687
4.7093,128.18178,37.920148,6875.0569128,-174.105,-29.679,182.636
4.7261,128.181778,37.920108,6873.3780744000005,-174.019,-29.882,182.585
4.7428,128.181777,37.920068,6871.685215200001,-173.938,-30.084,182.534
4.7595,128.181776,37.920028,6869.9777256,-173.86,-30.286,182.484
4.7762,128.181775,37.919988,6868.256215200001,-173.786,-30.488,182.433
4.7928,128.181773,37.919948,6866.520684000001,-173.716,-30.69,182.382
4.8096,128.181772,37.919908,6864.7708272,-173.649,-30.892,182.332
4.8263,128.181771,37.919868,6863.0066448,-173.586,-31.094,182.281
4.843,128.18177,37.919829,6861.2284416,-173.527,-31.295,182.23
4.8597,128.181769,37.919789,6859.435912800001,-173.472,-31.497,182.18
4.8764,128.181767,37.919749,6857.629363200001,-173.42,-31.698,182.13
4.893,128.181766,37.91971,6855.8087928,-173.371,-31.899,182.08
4.9098,128.181765,37.919671,6853.973896800001,-173.326,-32.1,182.03
4.9265,128.181764,37.919631,6852.1252848,-173.284,-32.301,181.98
4.9432,128.181763,37.919592,6850.2623472000005,-173.246,-32.502,181.93
4.9599,128.181762,37.919553,6848.385388799999,-173.211,-32.703,181.881
4.9765,128.181761,37.919513,6846.494714400001,-173.179,-32.903,181.832
4.9932,128.18176,37.919474,6844.589714400001,-173.15,-33.104,181.783
5.01,128.181759,37.919435,6842.6706936,-173.125,-33.304,181.734
5.0267,128.181758,37.919396,6840.737956800001,-173.102,-33.505,181.685
5.0434,128.181757,37.919357,6838.7911992,-173.083,-33.705,181.637
5.0601,128.181756,37.919319,6836.8307256,-173.066,-33.905,181.589
5.0767,128.181755,37.91928,6834.8562312,-173.052,-34.106,181.541
5.0935,128.181754,37.919241,6832.867716,-173.041,-34.306,181.494
5.1102,128.181753,37.919203,6830.8654848,-173.033,-34.506,181.447
5.1269,128.181752,37.919164,6828.849537600001,-173.027,-34.706,181.4
5.1436,128.181751,37.919125,6826.819874400001,-173.023,-34.906,181.353
5.1602,128.181751,37.919087,6824.7761904,-173.022,-35.106,181.307
5.1769,128.18175,37.919049,6822.7190952,-173.023,-35.306,181.261
5.1937,128.181749,37.91901,6820.647979200001,-173.026,-35.506,181.216
5.2104,128.181748,37.918972,6818.5631472000005,-173.032,-35.706,181.171
5.2271,128.181747,37.918934,6816.464904,-173.039,-35.906,181.126
5.2438,128.181747,37.918896,6814.3529448,-173.048,-36.106,181.082
5.2604,128.181746,37.918858,6812.227269600001,-173.06,-36.305,181.038
5.2772,128.181745,37.91882,6810.0881832000005,-173.073,-36.505,180.994
5.2939,128.181744,37.918782,6807.9353808000005,-173.088,-36.705,180.951
5.3106,128.181744,37.918744,6805.7688624,-173.104,-36.905,180.908
5.3273,128.181743,37.918706,6803.589237600001,-173.122,-37.104,180.865
5.3439,128.181742,37.918669,6801.395896800001,-173.141,-37.304,180.823
5.3606,128.181742,37.918631,6799.18884,-173.162,-37.504,180.782
5.3774,128.181741,37.918594,6796.9686768,-173.184,-37.703,180.74
5.3941,128.18174,37.918556,6794.7351024,-173.208,-37.903,180.7
5.4108,128.18174,37.918519,6792.4881168,-173.233,-38.102,180.659
5.4275,128.181739,37.918482,6790.227415200001,-173.259,-38.302,180.619
5.4441,128.181739,37.918444,6787.953912,-173.285,-38.501,180.58
5.4609,128.181738,37.918407,6785.6666928,-173.313,-38.701,180.541
5.4776,128.181738,37.91837,6783.3663672,-173.342,-38.9,180.502
5.4943,128.181737,37.918333,6781.0526303999995,-173.372,-39.1,180.464
5.511,128.181737,37.918296,6778.725787200001,-173.403,-39.299,180.426
5.5277,128.181736,37.918259,6776.385837600001,-173.434,-39.499,180.389
5.5443,128.181736,37.918223,6774.0324768,-173.466,-39.698,180.352
5.5611,128.181735,37.918186,6771.6660096000005,-173.498,-39.898,180.315
5.5778,128.181735,37.918149,6769.286436,-173.531,-40.097,180.279
5.5945,128.181734,37.918113,6766.893756,-173.565,-40.297,180.244
5.6112,128.181734,37.918076,6764.487969600001,-173.599,-40.496,180.209
5.6278,128.181734,37.91804,6762.0690768,-173.634,-40.696,180.174
5.6445,128.181733,37.918004,6759.6373824,-173.669,-40.895,180.14
5.6613,128.181733,37.917967,6757.1925816,-173.705,-41.094,180.106
5.678,128.181732,37.917931,6754.734674400001,-173.741,-41.294,180.072
5.6947,128.181732,37.917895,6752.263965600001,-173.777,-41.493,180.039
5.7114,128.181732,37.917859,6749.780150400001,-173.813,-41.692,180.007
5.728,128.181732,37.917823,6747.283838400001,-173.85,-41.892,179.975
5.7448,128.181731,37.917788,6744.774115200001,-173.887,-42.091,179.943
5.7615,128.181731,37.917752,6742.2518952,-173.924,-42.291,179.912
5.7782,128.181731,37.917716,6739.7168736,-173.961,-42.49,179.881
5.7949,128.18173,37.917681,6737.169050400001,-173.999,-42.689,179.85
5.8115,128.18173,37.917645,6734.6081208,-174.036,-42.889,179.82
5.8282,128.18173,37.91761,6732.0349992,-174.074,-43.088,179.79
5.845,128.18173,37.917574,6729.4487712,-174.112,-43.287,179.761
5.8617,128.18173,37.917539,6726.850046400001,-174.149,-43.487,179.732
5.8784,128.18173,37.917504,6724.238520000001,-174.187,-43.686,179.704
5.8951,128.181729,37.917469,6721.614496800001,-174.225,-43.885,179.676
5.9117,128.181729,37.917434,6718.977672,-174.262,-44.084,179.648
5.9285,128.181729,37.917399,6716.328655200001,-174.3,-44.283,179.621
5.9452,128.181729,37.917364,6713.6668368,-174.338,-44.482,179.594
5.9619,128.181729,37.917329,6710.9925216,-174.376,-44.681,179.568
5.9786,128.181729,37.917295,6708.3057096,-174.413,-44.879,179.541
5.9952,128.181729,37.91726,6705.6064008,-174.45,-45.078,179.516
6.0119,128.181729,37.917226,6702.8949,-174.488,-45.277,179.49
6.0287,128.181729,37.917191,6700.1709024,-174.525,-45.475,179.465
6.0454,128.181729,37.917157,6697.434408,-174.562,-45.674,179.441
6.0621,128.181729,37.917123,6694.6854168,-174.599,-45.872,179.417
6.0788,128.181729,37.917088,6691.9245384000005,-174.636,-46.071,179.393
6.0954,128.181729,37.917054,6689.1511632,-174.673,-46.269,179.369
6.1121,128.181729,37.91702,6686.365596000001,-174.709,-46.468,179.346
6.1289,128.181729,37.916986,6683.567532,-174.745,-46.666,179.323
6.1456,128.181729,37.916953,6680.7575808,-174.781,-46.865,179.3
6.1623,128.181729,37.916919,6677.935437600001,-174.817,-47.063,179.278
6.179,128.181729,37.916885,6675.1011024,-174.853,-47.262,179.256
6.1956,128.181729,37.916852,6672.2545752,-174.888,-47.46,179.234
6.2124,128.181729,37.916818,6669.395856000001,-174.924,-47.659,179.213
6.2291,128.181729,37.916785,6666.5255544,-174.959,-47.857,179.192
6.2458,128.181729,37.916752,6663.642756000001,-174.993,-48.056,179.171
6.2625,128.181729,37.916719,6660.748070400001,-175.028,-48.254,179.151
6.2791,128.181729,37.916685,6657.841497600001,-175.062,-48.453,179.13
6.2958,128.18173,37.916652,6654.9230376000005,-175.096,-48.652,179.111
6.3126,128.18173,37.91662,6651.9926904,-175.13,-48.85,179.091
6.3293,128.18173,37.916587,6649.050456000001,-175.163,-49.049,179.072
6.346,128.18173,37.916554,6646.0963344,-175.196,-49.247,179.052
6.3627,128.18173,37.916521,6643.1306304,-175.229,-49.446,179.034
6.3793,128.18173,37.916489,6640.1527344,-175.262,-49.644,179.015
6.3961,128.181731,37.916456,6637.163560800001,-175.294,-49.843,178.997
6.4128,128.181731,37.916424,6634.1621952000005,-175.326,-50.041,178.978
6.4295,128.181731,37.916392,6631.149552000001,-175.357,-50.24,178.961
6.4462,128.181731,37.91636,6628.1250216,-175.389,-50.438,178.943
6.4628,128.181731,37.916328,6625.0889088,-175.42,-50.637,178.926
6.4795,128.181732,37.916296,6622.0412136,-175.45,-50.835,178.908
6.4963,128.181732,37.916264,6618.981936,-175.481,-51.034,178.891
6.513,128.181732,37.916232,6615.9113808,-175.511,-51.232,178.875
6.5297,128.181733,37.9162,6612.828938400001,-175.54,-51.43,178.858
6.5464,128.181733,37.916169,6609.7352184,-175.57,-51.629,178.842
6.5631,128.181733,37.916137,6606.629916,-175.599,-51.827,178.826
6.5798,128.181733,37.916106,6603.513336,-175.628,-52.026,178.81
6.5965,128.181734,37.916075,6600.3854784000005,-175.656,-52.224,178.794
6.6132,128.181734,37.916043,6597.2463431999995,-175.684,-52.423,178.778
6.6299,128.181734,37.916012,6594.0956256,-175.712,-52.621,178.763
6.6466,128.181735,37.915981,6590.9339352,-175.739,-52.819,178.748
6.6633,128.181735,37.91595,6587.7606624,-175.766,-53.018,178.733
6.68,128.181736,37.915919,6584.5764168,-175.793,-53.216,178.718
6.6967,128.181736,37.915889,6581.3808936,-175.819,-53.415,178.703
6.7134,128.181736,37.915858,6578.174397600001,-175.845,-53.613,178.689
6.7301,128.181737,37.915828,6574.956624,-175.871,-53.811,178.674
6.7468,128.181737,37.915797,6571.7278776,-175.896,-54.01,178.66
6.7635,128.181737,37.915767,6568.4878536,-175.922,-54.208,178.646
6.7802,128.181738,37.915737,6565.2371616,-175.946,-54.406,178.632
6.7969,128.181738,37.915707,6561.975192000001,-175.971,-54.605,178.618
6.8136,128.181739,37.915677,6558.7022496,-175.995,-54.803,178.605
6.8303,128.181739,37.915647,6555.4186392,-176.018,-55.001,178.591
6.847,128.18174,37.915617,6552.124056000001,-176.042,-55.2,178.578
6.8637,128.18174,37.915587,6548.8188048,-176.065,-55.398,178.564
6.8804,128.18174,37.915557,6545.5025808,-176.087,-55.596,178.551
6.8971,128.181741,37.915528,6542.175384000001,-176.11,-55.795,178.538
6.9138,128.181741,37.915499,6538.837824000001,-176.132,-55.993,178.525
6.9305,128.181742,37.915469,6535.4892912000005,-176.153,-56.191,178.513
6.9472,128.181742,37.91544,6532.1300904,-176.175,-56.389,178.5
6.9639,128.181743,37.915411,6528.7602216000005,-176.196,-56.588,178.487
6.9806,128.181743,37.915382,6525.3799896,-176.217,-56.786,178.475
6.9973,128.181744,37.915353,6521.9890896,-176.237,-56.984,178.462
7.014,128.181744,37.915324,6518.5875216,-176.258,-57.182,178.45
7.0307,128.181745,37.915296,6515.1755904,-176.278,-57.38,178.438
7.0474,128.181745,37.915267,6511.753296000001,-176.297,-57.579,178.425
7.0641,128.181746,37.915239,6508.320333600001,-176.317,-57.777,178.413
7.0808,128.181746,37.91521,6504.877008,-176.335,-57.975,178.401
7.0975,128.181747,37.915182,6501.4233192,-176.354,-58.173,178.389
7.1142,128.181748,37.915154,6497.959572,-176.372,-58.371,178.377
7.1309,128.181748,37.915126,6494.485156800001,-176.39,-58.569,178.365
7.1476,128.181749,37.915098,6491.000683200001,-176.408,-58.768,178.354
7.1643,128.181749,37.91507,6487.5061512,-176.425,-58.966,178.342
7.181,128.18175,37.915042,6484.0012560000005,-176.442,-59.164,178.33
7.1977,128.18175,37.915015,6480.4863024,-176.459,-59.362,178.319
7.2144,128.181751,37.914987,6476.9612904000005,-176.476,-59.56,178.307
7.2311,128.181752,37.91496,6473.4259152,-176.492,-59.758,178.295
7.2478,128.181752,37.914933,6469.8807864,-176.507,-59.956,178.284
7.2645,128.181753,37.914905,6466.3255992,-176.523,-60.154,178.272
7.2812,128.181753,37.914878,6462.7603536,-176.538,-60.352,178.261
7.2979,128.181754,37.914851,6459.1853544000005,-176.552,-60.55,178.249
7.3146,128.181755,37.914824,6455.6002968,-176.567,-60.748,178.238
7.3313,128.181755,37.914798,6452.0057904000005,-176.581,-60.946,178.226
7.348,128.181756,37.914771,6448.4009208,-176.595,-61.144,178.215
7.3647,128.181756,37.914745,6444.7866023999995,-176.608,-61.342,178.203
7.3814,128.181757,37.914718,6441.1625304,-176.621,-61.54,178.192
7.3981,128.181758,37.914692,6437.5287048,-176.634,-61.738,178.18
7.4148,128.181758,37.914666,6433.8854304,-176.647,-61.936,178.169
7.4315,128.181759,37.91464,6430.232097600001,-176.659,-62.134,178.157
7.4482,128.18176,37.914614,6426.5696208,-176.671,-62.332,178.146
7.4649,128.18176,37.914588,6422.8973904,-176.683,-62.53,178.134
7.4816,128.181761,37.914562,6419.2157112,-176.694,-62.728,178.123
7.4983,128.181762,37.914536,6415.524583200001,-176.705,-62.926,178.111
7.515,128.181762,37.914511,6411.824006400001,-176.716,-63.124,178.1
7.5317,128.181763,37.914485,6408.1139808,-176.726,-63.322,178.088
7.5484,128.181764,37.91446,6404.394506400001,-176.737,-63.52,178.077
7.5651,128.181764,37.914435,6400.665888,-176.746,-63.718,178.065
7.5818,128.181765,37.91441,6396.9281255999995,-176.756,-63.916,178.053
7.5985,128.181766,37.914385,6393.180914400001,-176.765,-64.114,178.041
7.6152,128.181766,37.91436,6389.424559200001,-176.774,-64.312,178.03
7.6319,128.181767,37.914336,6385.659060000001,-176.783,-64.509,178.018
7.6486,128.181768,37.914311,6381.8844168,-176.791,-64.707,178.006
7.6653,128.181768,37.914286,6378.1009343999995,-176.799,-64.905,177.994
7.682,128.181769,37.914262,6374.308308,-176.807,-65.103,177.982
7.6987,128.18177,37.914238,6370.5065376,-176.814,-65.301,177.969
7.7154,128.181771,37.914214,6366.695928,-176.821,-65.499,177.957
7.7321,128.181771,37.91419,6362.876479200001,-176.828,-65.696,177.945
7.7488,128.181772,37.914166,6359.047886400001,-176.834,-65.894,177.932
7.7655,128.181773,37.914142,6355.2107592,-176.84,-66.092,177.92
7.7822,128.181774,37.914118,6351.364792800001,-176.846,-66.29,177.907
7.7989,128.181774,37.914095,6347.509987200001,-176.852,-66.488,177.894
7.8156,128.181775,37.914071,6343.6463424,-176.857,-66.685,177.882
7.8323,128.181776,37.914048,6339.774163200001,-176.862,-66.883,177.869
7.849,128.181776,37.914025,6335.8934496,-176.866,-67.081,177.856
7.8657,128.181777,37.914002,6332.004201600001,-176.871,-67.279,177.842
7.8824,128.181778,37.913979,6328.1061144000005,-176.875,-67.476,177.829
7.8991,128.181779,37.913956,6324.199797600001,-176.878,-67.674,177.816
7.9158,128.181779,37.913933,6320.284946400001,-176.882,-67.872,177.802
7.9325,128.18178,37.913911,6316.361865600001,-176.885,-68.069,177.788
7.9492,128.181781,37.913888,6312.429945600001,-176.887,-68.267,177.774
7.9659,128.181782,37.913866,6308.490100800001,-176.89,-68.465,177.76
7.9826,128.181782,37.913844,6304.5417216,-176.892,-68.662,177.746
7.9993,128.181783,37.913821,6300.5854176,-176.893,-68.86,177.731
8.016,128.181784,37.913799,6296.620579200001,-176.895,-69.058,177.717
8.0327,128.181785,37.913778,6292.647816,-176.895,-69.255,177.702
8.0494,128.181786,37.913756,6288.6668232,-176.896,-69.453,177.687
8.0661,128.181786,37.913734,6284.677600800001,-176.896,-69.651,177.672
8.0828,128.181787,37.913713,6280.6807584,-176.896,-69.848,177.656
8.0994,128.181788,37.913691,6276.6753816,-176.895,-70.046,177.641
8.1161,128.181789,37.91367,6272.6623848,-176.895,-70.244,177.625
8.1329,128.181789,37.913649,6268.6414632000005,-176.894,-70.441,177.609
8.1496,128.18179,37.913628,6264.6126168,-176.892,-70.639,177.593
8.1663,128.181791,37.913607,6260.5761504,-176.89,-70.836,177.576
8.183,128.181792,37.913586,6256.5317592,-176.888,-71.034,177.559
8.1997,128.181793,37.913566,6252.479748,-176.885,-71.231,177.542
8.2164,128.181793,37.913545,6248.419812,-176.882,-71.429,177.525
8.2331,128.181794,37.913525,6244.352560800001,-176.879,-71.627,177.507
8.2498,128.181795,37.913504,6240.2773848,-176.875,-71.824,177.489
8.2665,128.181796,37.913484,6236.1948936,-176.871,-72.022,177.471
8.2831,128.181797,37.913464,6232.104782400001,-176.866,-72.219,177.453
8.2998,128.181797,37.913444,6228.0070512,-176.861,-72.417,177.434
8.3166,128.181798,37.913425,6223.9023096,-176.856,-72.614,177.414
8.3333,128.181799,37.913405,6219.789948,-176.85,-72.812,177.395
8.35,128.1818,37.913385,6215.6702712,-176.843,-73.009,177.375
8.3667,128.181801,37.913366,6211.543279200001,-176.836,-73.207,177.355
8.3834,128.181801,37.913347,6207.408972,-176.829,-73.404,177.334
8.4001,128.181802,37.913328,6203.2676544000005,-176.821,-73.602,177.313
8.4168,128.181803,37.913309,6199.1190216,-176.813,-73.799,177.291
8.4335,128.181804,37.91329,6194.963683200001,-176.804,-73.997,177.269
8.4502,128.181805,37.913271,6190.800724800001,-176.795,-74.194,177.247
8.4668,128.181805,37.913252,6186.6310608,-176.785,-74.392,177.224
8.4835,128.181806,37.913234,6182.454386400001,-176.775,-74.589,177.201
8.5003,128.181807,37.913215,6178.271006400001,-176.764,-74.787,177.177
8.517,128.181808,37.913197,6174.080616,-176.752,-74.984,177.153
8.5337,128.181809,37.913179,6169.8832152,-176.741,-75.181,177.128
8.5504,128.181809,37.913161,6165.6791088,-176.728,-75.379,177.102
8.5671,128.18181,37.913143,6161.468296800001,-176.715,-75.576,177.076
8.5838,128.181811,37.913125,6157.250779200001,-176.701,-75.774,177.05
8.6005,128.181812,37.913108,6153.026860800001,-176.687,-75.971,177.022
8.6172,128.181813,37.91309,6148.795932,-176.671,-76.168,176.994
8.6339,128.181814,37.913073,6144.5589072,-176.655,-76.366,176.966
8.6505,128.181814,37.913056,6140.3151768,-176.639,-76.563,176.936
8.6672,128.181815,37.913039,6136.0647408,-176.621,-76.761,176.906
8.684,128.181816,37.913022,6131.8082088,-176.603,-76.958,176.875
8.7007,128.181817,37.913005,6127.545276,-176.584,-77.155,176.843
8.7174,128.181818,37.912988,6123.2759424000005,-176.564,-77.353,176.811
8.7341,128.181818,37.912972,6119.0005128,-176.543,-77.55,176.777
8.7508,128.181819,37.912955,6114.7186824,-176.522,-77.747,176.743
8.7675,128.18182,37.912939,6110.430756000001,-176.499,-77.945,176.707
8.7842,128.181821,37.912923,6106.1367336,-176.476,-78.142,176.671
8.8009,128.181822,37.912907,6101.836615200001,-176.451,-78.339,176.634
8.8176,128.181823,37.912891,6097.5304008,-176.426,-78.537,176.595
8.8342,128.181823,37.912875,6093.2183952000005,-176.399,-78.734,176.556
8.8509,128.181824,37.912859,6088.9002936,-176.372,-78.931,176.515
8.8676,128.181825,37.912844,6084.576400800001,-176.343,-79.128,176.473
8.8844,128.181826,37.912828,6080.2467168,-176.313,-79.326,176.429
8.9011,128.181827,37.912813,6075.910936800001,-176.281,-79.523,176.384
8.9178,128.181828,37.912798,6071.569670400001,-176.248,-79.72,176.338
8.9345,128.181828,37.912783,6067.2229176,-176.213,-79.918,176.29
8.9512,128.181829,37.912768,6062.870068800001,-176.177,-80.115,176.24
8.9679,128.18183,37.912754,6058.512038400001,-176.139,-80.312,176.188
8.9846,128.181831,37.912739,6054.1482168,-176.1,-80.509,176.135
9.0013,128.181832,37.912725,6049.779213600001,-176.058,-80.706,176.079
9.0179,128.181832,37.91271,6045.4044192,-176.015,-80.904,176.022
9.0346,128.181833,37.912696,6041.0244432,-175.969,-81.101,175.962
9.0513,128.181834,37.912682,6036.6389808,-175.921,-81.298,175.9
9.0681,128.181835,37.912668,6032.2483368,-175.871,-81.495,175.835
9.0848,128.181836,37.912654,6027.852511200001,-175.819,-81.693,175.768
9.1015,128.181837,37.912641,6023.4511992,-175.764,-81.89,175.698
9.1182,128.181837,37.912627,6019.045010400001,-175.706,-82.087,175.625
9.1349,128.181838,37.912614,6014.63364,-175.645,-82.284,175.548
9.1516,128.181839,37.912601,6010.217088,-175.58,-82.481,175.468
9.1683,128.18184,37.912587,6005.795964000001,-175.512,-82.678,175.384
9.185,128.181841,37.912574,6001.3693536,-175.44,-82.875,175.296
9.2016,128.181841,37.912562,5996.9381711999995,-175.364,-83.073,175.203
9.2183,128.181842,37.912549,5992.502112,-175.283,-83.27,175.106
9.235,128.181843,37.912536,5988.061176,-175.197,-83.467,175.003
9.2518,128.181844,37.912524,5983.615668,-175.106,-83.664,174.894
9.2685,128.181845,37.912512,5979.165283200001,-175.008,-83.861,174.779
9.2852,128.181846,37.912499,5974.7103264,-174.904,-84.058,174.657
9.3019,128.181846,37.912487,5970.250797600001,-174.793,-84.255,174.527
9.3186,128.181847,37.912476,5965.786696800001,-174.673,-84.452,174.389
9.3353,128.181848,37.912464,5961.318328800001,-174.545,-84.649,174.242
9.352,128.181849,37.912452,5956.8453887999995,-174.407,-84.846,174.084
9.3687,128.18185,37.912441,5952.3678768,-174.257,-85.043,173.916
9.3854,128.18185,37.912429,5947.8860976000005,-174.096,-85.24,173.734
9.402,128.181851,37.912418,5943.4000512,-173.922,-85.437,173.539
9.4187,128.181852,37.912407,5938.910042400001,-173.731,-85.633,173.327
9.4355,128.181853,37.912396,5934.4154616,-173.523,-85.83,173.097
9.4522,128.181854,37.912386,5929.9169184,-173.295,-86.027,172.845
9.4689,128.181854,37.912375,5925.4144128,-173.042,-86.224,172.569
9.4856,128.181855,37.912364,5920.90764,-172.762,-86.42,172.265
9.5023,128.181856,37.912354,5916.397209600001,-172.449,-86.617,171.927
9.519,128.181857,37.912344,5911.882512,-172.097,-86.813,171.55
9.5357,128.181857,37.912334,5907.364156800001,-171.699,-87.009,171.125
9.5524,128.181858,37.912324,5902.8418392,-171.245,-87.205,170.644
9.5691,128.181859,37.912314,5898.315864,-170.721,-87.401,170.092
9.5857,128.18186,37.912304,5893.7862312,-170.111,-87.597,169.453
9.6024,128.181861,37.912295,5889.2529408,-169.391,-87.792,168.703
9.6192,128.181861,37.912285,5884.715992800001,-168.53,-87.987,167.811
9.6359,128.181862,37.912276,5880.175387200001,-167.483,-88.182,166.731
9.6526,128.181863,37.912267,5875.6314288,-166.21,-88.372,165.424
9.6693,128.181864,37.912258,5871.0838128000005,-164.664,-88.556,163.843
9.686,128.181864,37.912249,5866.532844,-162.787,-88.73,161.93
9.7027,128.181865,37.912241,5861.978522400001,-160.495,-88.892,159.599
9.7194,128.181866,37.912232,5857.420848,-157.67,-89.043,156.733
9.7361,128.181867,37.912224,5852.8601256,-154.142,-89.18,153.162
9.7528,128.181867,37.912215,5848.2957456,-149.671,-89.304,148.645
9.7694,128.181868,37.912207,5843.7286224,-143.911,-89.414,142.837
9.7861,128.181869,37.912199,5839.1581464,-136.395,-89.508,135.271
9.8029,128.18187,37.912191,5834.584622400001,-126.573,-89.585,125.397
9.8196,128.18187,37.912183,5830.008050400001,-114.055,-89.641,112.824
9.8363,128.181871,37.912176,5825.4284304,-99.16,-89.674,97.872
9.853,128.181872,37.912168,5820.8457624,-83.427,-89.682,82.081
9.8697,128.181872,37.912161,5816.2603512000005,-68.96,-89.668,67.553
9.8864,128.181873,37.912154,5811.672196800001,-57.029,-89.638,55.56
9.9031,128.181874,37.912147,5807.0809944,-47.737,-89.597,46.205
9.9198,128.181875,37.91214,5802.4870488,-40.618,-89.551,39.022
9.9365,128.181875,37.912133,5797.89036,-35.111,-89.501,33.451
9.9531,128.181876,37.912126,5793.2912328,-30.766,-89.449,29.042
9.9698,128.181877,37.91212,5788.6890576,-27.264,-89.397,25.476
9.9865,128.181877,37.912113,5784.084444,-24.384,-89.343,22.531
10.0033,128.181878,37.912107,5779.477087200001,-21.968,-89.289,20.053
10.02,128.181879,37.912101,5774.867292000001,-19.91,-89.234,17.932
10.0367,128.181879,37.912094,5770.2547536,-18.13,-89.179,16.092
10.0534,128.18188,37.912088,5765.6400816000005,-16.569,-89.124,14.471
10.0701,128.181881,37.912083,5761.0226664,-15.185,-89.069,13.028
10.0868,128.181881,37.912077,5756.4028128,-13.949,-89.014,11.734
10.1035,128.181882,37.912071,5751.7805208,-12.842,-88.959,10.57
10.1202,128.181882,37.912066,5747.1560952,-11.849,-88.904,9.522
10.1368,128.181883,37.91206,5742.5289264,-10.958,-88.849,8.577
10.1535,128.181884,37.912055,5737.899624000001,-10.156,-88.794,7.724
10.1702,128.181884,37.91205,5733.268188000001,-9.435,-88.739,6.953
10.187,128.181885,37.912045,5728.634008800001,-8.786,-88.684,6.257
10.2037,128.181886,37.91204,5723.9980008,-8.201,-88.629,5.627
10.2204,128.181886,37.912035,5719.3595544,-7.675,-88.574,5.058
10.2371,128.181887,37.91203,5714.718669600001,-7.2,-88.52,4.545
10.2538,128.181887,37.912025,5710.075956000001,-6.773,-88.465,4.081
10.2705,128.181888,37.912021,5705.4308040000005,-6.389,-88.412,3.664
10.2872,128.181888,37.912016,5700.7835184000005,-6.044,-88.359,3.288
10.3039,128.181889,37.912012,5696.134404,-5.734,-88.306,2.95
10.3205,128.18189,37.912008,5691.4828512,-5.456,-88.254,2.648
10.3372,128.18189,37.912003,5686.8291648,-5.21,-88.203,2.38
10.3539,128.181891,37.911999,5682.1733448,-4.992,-88.152,2.143
10.3707,128.181891,37.911995,5677.515696,-4.802,-88.102,1.935
10.3874,128.181892,37.911992,5672.8559136,-4.637,-88.053,1.755
10.4041,128.181892,37.911988,5668.193997600001,-4.497,-88.005,1.602
10.4208,128.181893,37.911984,5663.529947999999,-4.379,-87.957,1.473
10.4375,128.181893,37.91198,5658.8640696,-4.282,-87.911,1.366
10.4542,128.181894,37.911977,5654.1960576,-4.205,-87.865,1.281
10.4709,128.181894,37.911974,5649.5262168,-4.141,-87.821,1.21
10.4876,128.181895,37.91197,5644.854242400001,-4.089,-87.778,1.152
10.5042,128.181895,37.911967,5640.1804391999995,-4.048,-87.737,1.106
10.5209,128.181896,37.911964,5635.5045024,-4.04,-87.71,1.093
10.5376,128.181896,37.911961,5630.826432000001,-4.065,-87.699,1.113
10.5544,128.181897,37.911958,5626.1465328,-4.115,-87.7,1.159
10.5711,128.181897,37.911955,5621.4648048,-4.181,-87.708,1.221
10.5878,128.181898,37.911952,5616.781248,-4.258,-87.721,1.293
10.6045,128.181898,37.91195,5612.0955576,-4.34,-87.735,1.37
10.6212,128.181898,37.911947,5607.408038400001,-4.421,-87.748,1.447
10.6379,128.181899,37.911944,5602.7183856,-4.499,-87.76,1.519
10.6546,128.181899,37.911942,5598.0272088,-4.569,-87.769,1.583
10.6713,128.1819,37.91194,5593.3338984,-4.628,-87.774,1.637
10.6879,128.1819,37.911937,5588.6387592,-4.676,-87.775,1.678
10.7046,128.181901,37.911935,5583.9417912,-4.71,-87.773,1.705
10.7213,128.181901,37.911933,5579.2429944,-4.73,-87.766,1.717
10.7381,128.181901,37.911931,5574.5423688,-4.735,-87.757,1.714
10.7548,128.181902,37.911929,5569.839609600001,-4.726,-87.744,1.696
10.7715,128.181902,37.911927,5565.1350216,-4.732,-87.742,1.692
10.7882,128.181903,37.911925,5560.4283000000005,-4.76,-87.755,1.71
10.8049,128.181903,37.911923,5555.7197496,-4.806,-87.779,1.745
10.8216,128.181903,37.911922,5551.009065600001,-4.86,-87.811,1.788
10.8383,128.181904,37.91192,5546.2968576,-4.915,-87.846,1.831
10.855,128.181904,37.911919,5541.5825159999995,-4.964,-87.881,1.869
10.8717,128.181904,37.911917,5536.8666504,-5.003,-87.914,1.897
10.8883,128.181905,37.911916,5532.1486512,-5.029,-87.943,1.913
10.905,128.181905,37.911914,5527.428823200001,-5.04,-87.967,1.914
10.9218,128.181906,37.911913,5522.7074712,-5.035,-87.987,1.901
10.9385,128.181906,37.911912,5517.9839856,-5.016,-88.001,1.874
10.9552,128.181906,37.91191,5513.258976,-4.984,-88.009,1.835
10.9719,128.181907,37.911909,5508.5321376,-4.94,-88.013,1.786
10.9886,128.181907,37.911908,5503.803470400001,-4.889,-88.012,1.73
11.0053,128.181907,37.911907,5499.072669600001,-4.831,-88.007,1.67
11.022,128.181908,37.911906,5494.3403448,-4.772,-87.998,1.608
11.0387,128.181908,37.911905,5489.606496,-4.712,-87.987,1.547
11.0554,128.181908,37.911904,5484.8705136,-4.654,-87.973,1.489
11.072,128.181908,37.911904,5480.1327024,-4.595,-87.957,1.429
11.0887,128.181909,37.911903,5475.3933672,-4.535,-87.94,1.37
11.1054,128.181909,37.911902,5470.6522032,-4.477,-87.921,1.312
11.1222,128.181909,37.911901,5465.909210400001,-4.421,-87.903,1.257
11.1389,128.18191,37.911901,5461.1643888,-4.368,-87.884,1.205
11.1556,128.18191,37.9119,5456.4177384,-4.319,-87.865,1.158
11.1723,128.18191,37.9119,5451.669564000001,-4.275,-87.846,1.115
11.189,128.181911,37.911899,5446.919560800001,-4.236,-87.827,1.077
11.2057,128.181911,37.911899,5442.167728800001,-4.201,-87.808,1.045
11.2224,128.181911,37.911899,5437.414068,-4.172,-87.79,1.018
11.2391,128.181911,37.911898,5432.658883200001,-4.148,-87.772,0.996
11.2557,128.181912,37.911898,5427.9018696,-4.128,-87.755,0.978
11.2724,128.181912,37.911898,5423.143027200001,-4.113,-87.738,0.966
11.2891,128.181912,37.911898,5418.382356000001,-4.102,-87.722,0.957
11.3059,128.181912,37.911898,5413.620160800001,-4.094,-87.706,0.952
11.3226,128.181913,37.911898,5408.8561368,-4.09,-87.69,0.95
11.3393,128.181913,37.911898,5404.0905888,-4.087,-87.675,0.95
11.356,128.181913,37.911898,5399.323212,-4.086,-87.661,0.951
11.3727,128.181913,37.911898,5394.554006400001,-4.086,-87.647,0.953
11.3894,128.181914,37.911898,5389.7832768,-4.086,-87.633,0.955
11.4061,128.181914,37.911898,5385.010718400001,-4.086,-87.619,0.956
11.4228,128.181914,37.911898,5380.2363312,-4.085,-87.606,0.956
11.4394,128.181914,37.911899,5375.46042,-4.081,-87.593,0.954
11.4561,128.181915,37.911899,5370.6829848,-4.076,-87.58,0.948
11.4728,128.181915,37.911899,5365.903416,-4.068,-87.568,0.94
11.4896,128.181915,37.9119,5361.1223232,-4.056,-87.555,0.928
11.5063,128.181915,37.9119,5356.339706400001,-4.041,-87.543,0.911
11.523,128.181916,37.911901,5351.555260800001,-4.022,-87.531,0.891
11.5397,128.181916,37.911901,5346.7692912,-3.999,-87.519,0.866
11.5564,128.181916,37.911902,5341.9814928000005,-3.973,-87.507,0.837
11.5731,128.181916,37.911902,5337.191865600001,-3.943,-87.495,0.804
11.5898,128.181916,37.911903,5332.400714400001,-3.909,-87.483,0.767
11.6065,128.181917,37.911904,5327.6077344,-3.873,-87.472,0.728
11.6231,128.181917,37.911904,5322.8132304,-3.834,-87.46,0.685
11.6398,128.181917,37.911905,5318.0168976,-3.793,-87.449,0.641
11.6565,128.181917,37.911906,5313.219040800001,-3.751,-87.438,0.595
11.6733,128.181917,37.911907,5308.419355200001,-3.708,-87.427,0.549
11.69,128.181918,37.911907,5303.6178408000005,-3.665,-87.416,0.503
11.7067,128.181918,37.911908,5298.8148024,-3.623,-87.405,0.458
11.7234,128.181918,37.911909,5294.01024,-3.582,-87.394,0.414
11.7401,128.181918,37.91191,5289.2038488,-3.544,-87.383,0.374
11.7568,128.181918,37.911911,5284.395628800001,-3.508,-87.373,0.336
11.7735,128.181918,37.911912,5279.5858848,-3.475,-87.362,0.302
11.7902,128.181919,37.911913,5274.774312,-3.446,-87.351,0.272
11.8068,128.181919,37.911915,5269.960910400001,-3.421,-87.341,0.248
11.8235,128.181919,37.911916,5265.1459847999995,-3.401,-87.331,0.228
11.8402,128.181919,37.911917,5260.3295352,-3.385,-87.32,0.213
11.857,128.181919,37.911918,5255.5112568,-3.374,-87.311,0.203
11.8737,128.181919,37.911919,5250.6911496,-3.368,-87.301,0.199
11.8904,128.18192,37.911921,5245.869518400001,-3.367,-87.291,0.2
11.9071,128.18192,37.911922,5241.0460584,-3.37,-87.282,0.205
11.9238,128.18192,37.911923,5236.2207696000005,-3.378,-87.272,0.214
11.9405,128.18192,37.911925,5231.3939568000005,-3.389,-87.263,0.227
11.9572,128.18192,37.911926,5226.56562,-3.403,-87.254,0.244
11.9739,128.18192,37.911927,5221.7354544,-3.419,-87.245,0.262
11.9905,128.181921,37.911929,5216.90346,-3.437,-87.237,0.282
12.0072,128.181921,37.91193,5212.069941600001,-3.456,-87.229,0.303
12.0239,128.181921,37.911932,5207.2345944,-3.476,-87.22,0.324
12.0407,128.181921,37.911933,5202.397723200001,-3.495,-87.212,0.343
12.0574,128.181921,37.911935,5197.5590232,-3.512,-87.205,0.36
12.0741,128.181921,37.911937,5192.7184944,-3.527,-87.197,0.374
12.0908,128.181921,37.911938,5187.8764416,-3.539,-87.19,0.384
12.1075,128.181921,37.91194,5183.0328648,-3.547,-87.182,0.39
12.1242,128.181922,37.911942,5178.1874592,-3.551,-87.175,0.389
12.1409,128.181922,37.911943,5173.340224800001,-3.55,-87.168,0.383
12.1576,128.181922,37.911945,5168.4914664,-3.544,-87.161,0.371
12.1743,128.181922,37.911947,5163.641184000001,-3.533,-87.154,0.352
12.1909,128.181922,37.911949,5158.7890728,-3.517,-87.147,0.327
12.2076,128.181922,37.91195,5153.9351328,-3.496,-87.14,0.297
12.2243,128.181922,37.911952,5149.0796688,-3.471,-87.133,0.262
12.2411,128.181922,37.911954,5144.222376,-3.442,-87.126,0.222
12.2578,128.181923,37.911956,5139.3635592,-3.41,-87.119,0.179
12.2745,128.181923,37.911958,5134.5029136,-3.376,-87.113,0.134
12.2912,128.181923,37.91196,5129.6404391999995,-3.341,-87.106,0.089
12.3079,128.181923,37.911962,5124.7764408,-3.298,-87.099,0.032
12.3246,128.181923,37.911964,5119.9109184,-3.248,-87.092,359.967
12.3413,128.181923,37.911966,5115.0432624,-3.193,-87.086,359.896
12.358,128.181923,37.911968,5110.174387200001,-3.135,-87.08,359.82
12.3746,128.181923,37.91197,5105.303378400001,-3.075,-87.073,359.744
12.3913,128.181923,37.911972,5100.4308456,-3.016,-87.067,359.669
12.408,128.181923,37.911974,5095.5567888,-2.96,-87.061,359.599
12.4248,128.181924,37.911976,5090.6805984,-2.907,-87.054,359.534
12.4415,128.181924,37.911979,5085.802884000001,-2.861,-87.047,359.477
12.4582,128.181924,37.911981,5080.9233408,-2.821,-87.041,359.43
12.4749,128.181924,37.911983,5076.0419688,-2.789,-87.034,359.393
12.4916,128.181924,37.911985,5071.1590728,-2.767,-87.027,359.366
12.5083,128.181924,37.911987,5066.274348,-2.754,-87.02,359.352
12.525,128.181924,37.91199,5061.3877944,-2.752,-87.013,359.349
12.5417,128.181924,37.911992,5056.499412,-2.759,-87.006,359.357
12.5583,128.181924,37.911994,5051.6095056,-2.777,-87.0,359.376
12.575,128.181924,37.911997,5046.7177704000005,-2.805,-86.993,359.406
12.5917,128.181924,37.911999,5041.8245112,-2.842,-86.987,359.446
12.6085,128.181924,37.912001,5036.9291184,-2.887,-86.981,359.495
12.6252,128.181924,37.912004,5032.032201600001,-2.939,-86.975,359.551
12.6419,128.181925,37.912006,5027.1334560000005,-2.998,-86.97,359.613
12.6586,128.181925,37.912009,5022.233186400001,-3.06,-86.965,359.68
12.6753,128.181925,37.912011,5017.331088000001,-3.126,-86.96,359.748
12.692,128.181925,37.912013,5012.427465600001,-3.191,-86.956,359.814
12.7087,128.181925,37.912016,5007.5220144,-3.254,-86.952,359.876
12.7254,128.181925,37.912018,5002.6147344,-3.314,-86.948,359.931
12.742,128.181925,37.912021,4997.7062352,-3.366,-86.944,359.974
12.7587,128.181925,37.912023,4992.7959072,-3.41,-86.941,0.002
12.7754,128.181925,37.912026,4987.8840552,-3.443,-86.938,0.012
12.7922,128.181925,37.912029,4982.9703744,-3.464,-86.935,0.003
12.8089,128.181925,37.912031,4978.0554744,-3.472,-86.932,359.973
12.8256,128.181925,37.912034,4973.1387456,-3.468,-86.929,359.924
12.8423,128.181925,37.912036,4968.2204928,-3.451,-86.926,359.856
12.859,128.181925,37.912039,4963.3004112,-3.425,-86.923,359.775
12.8757,128.181925,37.912042,4958.3788056,-3.392,-86.92,359.683
12.8924,128.181925,37.912045,4953.4556760000005,-3.353,-86.916,359.587
12.9091,128.181925,37.912047,4948.5304128,-3.312,-86.913,359.492
12.9257,128.181925,37.91205,4943.603625600001,-3.273,-86.909,359.403
12.9424,128.181925,37.912053,4938.6753144,-3.237,-86.905,359.323
12.9591,128.181925,37.912055,4933.7448696,-3.208,-86.901,359.258
12.9759,128.181926,37.912058,4928.8129008000005,-3.188,-86.897,359.207
12.9926,128.181926,37.912061,4923.879408,-3.177,-86.892,359.173
13.0093,128.181926,37.912064,4918.9437816,-3.177,-86.887,359.155
13.026,128.181926,37.912066,4914.0066312,-3.188,-86.882,359.153
13.0427,128.181926,37.912069,4909.067652000001,-3.211,-86.878,359.166
13.0594,128.181926,37.912072,4904.1271488,-3.246,-86.873,359.194
13.0761,128.181926,37.912075,4899.184816800001,-3.292,-86.869,359.236
13.0928,128.181926,37.912078,4894.240656,-3.348,-86.864,359.29
13.1095,128.181926,37.912081,4889.294971200001,-3.413,-86.86,359.354
13.1262,128.181926,37.912084,4884.347762400001,-3.486,-86.856,359.428
13.1429,128.181926,37.912086,4879.39842,-3.565,-86.853,359.507
13.1596,128.181926,37.912089,4874.4478584,-3.647,-86.849,359.589
13.1763,128.181926,37.912092,4869.495468,-3.73,-86.846,359.669
13.193,128.181926,37.912095,4864.5415536,-3.809,-86.844,359.74
13.2097,128.181926,37.912098,4859.5864200000005,-3.882,-86.841,359.793
13.2264,128.181926,37.912101,4854.6294576,-3.944,-86.839,359.822
13.2431,128.181926,37.912104,4849.6715808,-3.992,-86.836,359.82
13.2598,128.181926,37.912107,4844.711875200001,-4.024,-86.834,359.781
13.2765,128.181926,37.91211,4839.751255200001,-4.039,-86.831,359.702
13.2932,128.181926,37.912113,4834.7888064,-4.037,-86.829,359.587
13.3099,128.181926,37.912116,4829.8251384000005,-4.023,-86.826,359.445
13.3266,128.181926,37.912119,4824.8596416,-4.002,-86.824,359.29
13.3433,128.181926,37.912122,4819.8926208,-3.981,-86.821,359.136
13.36,128.181926,37.912125,4814.9237712,-3.966,-86.819,358.999
13.3767,128.181926,37.912128,4809.9530928,-3.963,-86.816,358.893
13.3934,128.181926,37.912132,4804.9802808,-3.977,-86.814,358.823
13.4101,128.181926,37.912135,4800.0059448,-4.009,-86.81,358.791
13.4268,128.181926,37.912138,4795.029780000001,-4.061,-86.807,358.796
13.4435,128.181926,37.912141,4790.0514816,-4.134,-86.804,358.839
13.4602,128.181926,37.912144,4785.0716592,-4.228,-86.801,358.918
13.4769,128.181926,37.912147,4780.090008,-4.343,-86.798,359.03
13.4936,128.181926,37.91215,4775.106528,-4.474,-86.796,359.168
13.5103,128.181926,37.912153,4770.121524,-4.619,-86.793,359.325
13.527,128.181926,37.912156,4765.134996000001,-4.772,-86.789,359.489
13.5437,128.181926,37.91216,4760.1466392,-4.929,-86.786,359.657
13.5604,128.181926,37.912163,4755.1567584,-5.086,-86.783,359.825
13.5771,128.181926,37.912166,4750.1653536,-5.239,-86.779,359.989
13.5938,128.181926,37.912169,4745.17212,-5.385,-86.775,0.145
13.6105,128.181926,37.912172,4740.177362400001,-5.518,-86.771,0.289
13.6272,128.181926,37.912176,4735.180776,-5.635,-86.767,0.417
13.6439,128.181926,37.912179,4730.1826656,-5.731,-86.762,0.526
13.6606,128.181926,37.912182,4725.1830312,-5.803,-86.758,0.612
13.6773,128.181926,37.912185,4720.181568,-5.849,-86.753,0.673
13.694,128.181926,37.912188,4715.1785808,-5.865,-86.749,0.706
13.7107,128.181926,37.912192,4710.1740696,-5.85,-86.744,0.71
13.7274,128.181926,37.912195,4705.1677296,-5.803,-86.74,0.682
13.7441,128.181926,37.912198,4700.159865600001,-5.722,-86.735,0.623
13.7608,128.181926,37.912201,4695.1501728,-5.609,-86.73,0.533
13.7775,128.181926,37.912205,4690.1392608,-5.464,-86.725,0.411
13.7942,128.181926,37.912208,4685.12652,-5.289,-86.721,0.261
13.8109,128.181926,37.912211,4680.111950400001,-5.086,-86.716,0.083
13.8276,128.181925,37.912215,4675.0961616,-4.859,-86.711,359.881
13.8443,128.181925,37.912218,4670.078544000001,-4.612,-86.706,359.658
13.861,128.181925,37.912221,4665.0594024,-4.349,-86.701,359.419
13.8777,128.181925,37.912225,4660.038432,-4.075,-86.695,359.168
13.8944,128.181925,37.912228,4655.0162424,-3.797,-86.69,358.912
13.9111,128.181925,37.912231,4649.992224,-3.52,-86.684,358.654
13.9278,128.181925,37.912235,4644.9666816,-3.25,-86.678,358.402
13.9445,128.181925,37.912238,4639.9393104,-2.993,-86.672,358.161
13.9612,128.181925,37.912241,4634.91072,-2.756,-86.666,357.938
13.9779,128.181925,37.912245,4629.8803008,-2.545,-86.659,357.736
13.9946,128.181925,37.912248,4624.848662400001,-2.364,-86.652,357.563
14.0113,128.181925,37.912252,4619.8148904,-2.219,-86.645,357.423
14.028,128.181925,37.912255,4614.7798992,-2.114,-86.638,357.318
14.0447,128.181925,37.912258,4609.743384,-2.052,-86.63,357.255
14.0614,128.181925,37.912262,4604.70504,-2.036,-86.622,357.233
14.0781,128.181925,37.912265,4599.6654768,-2.068,-86.614,357.256
14.0948,128.181925,37.912269,4594.624084800001,-2.148,-86.606,357.324
14.1115,128.181925,37.912272,4589.5811688,-2.274,-86.598,357.437
14.1282,128.181925,37.912276,4584.536424,-2.446,-86.589,357.592
14.1449,128.181925,37.912279,4579.490460000001,-2.661,-86.581,357.789
14.1616,128.181925,37.912282,4574.4426672,-2.913,-86.572,358.023
14.1783,128.181925,37.912286,4569.393350400001,-3.199,-86.562,358.289
14.195,128.181924,37.912289,4564.3425096,-3.511,-86.553,358.584
14.2117,128.181924,37.912293,4559.2901448,-3.844,-86.543,358.9
14.2284,128.181924,37.912296,4554.2359512,-4.189,-86.533,359.231
14.2451,128.181924,37.9123,4549.1802336,-4.538,-86.523,359.57
14.2618,128.181924,37.912303,4544.122687200001,-4.882,-86.513,359.907
14.2785,128.181924,37.912307,4539.0639216,-5.212,-86.503,0.236
14.2952,128.181924,37.91231,4534.0033272,-5.52,-86.492,0.549
14.3119,128.181924,37.912314,4528.940904,-5.796,-86.482,0.836
14.3286,128.181924,37.912318,4523.8769568,-6.033,-86.471,1.092
14.3453,128.181924,37.912321,4518.8114856,-6.222,-86.461,1.308
14.362,128.181924,37.912325,4513.7441856000005,-6.357,-86.452,1.479
14.3787,128.181924,37.912328,4508.6753616000005,-6.432,-86.442,1.598
14.3954,128.181924,37.912332,4503.6050136,-6.442,-86.433,1.662
14.4121,128.181924,37.912335,4498.5328368,-6.389,-86.424,1.671
14.4288,128.181924,37.912339,4493.459136,-6.272,-86.416,1.623
14.4455,128.181923,37.912342,4488.3839112000005,-6.091,-86.408,1.519
14.4622,128.181923,37.912346,4483.3068576000005,-5.848,-86.401,1.359
14.4789,128.181923,37.91235,4478.22828,-5.545,-86.394,1.143
14.4956,128.181923,37.912353,4473.147873600001,-5.182,-86.387,0.872
14.5123,128.181923,37.912357,4468.066248,-4.763,-86.38,0.545
14.529,128.181923,37.91236,4462.9830984,-4.289,-86.373,0.166
14.5457,128.181923,37.912364,4457.89812,-3.77,-86.367,359.74
14.5624,128.181923,37.912368,4452.8119224,-3.214,-86.36,359.274
14.5791,128.181923,37.912371,4447.7242008,-2.633,-86.353,358.777
14.5958,128.181923,37.912375,4442.6349552,-2.038,-86.345,358.26
14.6125,128.181923,37.912379,4437.5441856,-1.442,-86.338,357.732
14.6292,128.181923,37.912382,4432.4521968,-0.859,-86.329,357.205
14.6459,128.181923,37.912386,4427.358684,-0.302,-86.32,356.692
14.6626,128.181923,37.91239,4422.2636472,0.213,-86.311,356.205
14.6793,128.181923,37.912393,4417.167696,0.674,-86.301,355.757
14.696,128.181922,37.912397,4412.069916,1.067,-86.291,355.358
14.7127,128.181922,37.912401,4406.9712216,1.38,-86.281,355.021
14.7294,128.181922,37.912405,4401.871003200001,1.607,-86.27,354.75
14.7461,128.181922,37.912408,4396.7692608,1.747,-86.259,354.546
14.7628,128.181922,37.912412,4391.666604,1.798,-86.248,354.41
14.7795,128.181922,37.912416,4386.5624232,1.762,-86.237,354.342
14.7962,128.181922,37.91242,4381.457023200001,1.639,-86.226,354.345
14.8129,128.181922,37.912424,4376.350404,1.43,-86.215,354.417
14.8296,128.181922,37.912427,4371.2422608,1.138,-86.204,354.56
14.8463,128.181922,37.912431,4366.1328984,0.765,-86.193,354.773
14.863,128.181922,37.912435,4361.0223168,0.314,-86.181,355.055
14.8797,128.181921,37.912439,4355.9099064,-0.209,-86.17,355.405
14.8964,128.181921,37.912443,4350.7962768,-0.803,-86.158,355.822
14.9131,128.181921,37.912447,4345.6811232,-1.46,-86.146,356.304
14.9298,128.181921,37.912451,4340.5644456,-2.176,-86.134,356.849
14.9465,128.181921,37.912455,4335.446244000001,-2.944,-86.121,357.453
14.9632,128.181921,37.912458,4330.3265184,-3.749,-86.107,358.106
14.9799,128.181921,37.912462,4325.2049640000005,-4.572,-86.093,358.794
14.9966,128.18192,37.912466,4320.0818856,-5.395,-86.078,359.501
15.0133,128.18192,37.91247,4314.9569784000005,-6.195,-86.062,0.212
15.03,128.18192,37.912474,4309.8302424,-6.954,-86.046,0.91
15.0467,128.18192,37.912478,4304.7016776,-7.65,-86.03,1.578
15.0634,128.18192,37.912482,4299.571284000001,-8.265,-86.014,2.201
15.0801,128.18192,37.912486,4294.4390616,-8.789,-85.998,2.771
15.0968,128.18192,37.91249,4289.3047056000005,-9.22,-85.982,3.288
15.1135,128.18192,37.912494,4284.1685208,-9.556,-85.968,3.75
15.1302,128.181919,37.912497,4279.0305072,-9.796,-85.954,4.156
15.1469,128.181919,37.912501,4273.89036,-9.94,-85.941,4.506
15.1636,128.181919,37.912505,4268.748079200001,-9.988,-85.929,4.796
15.1803,128.181919,37.912509,4263.6039696,-9.938,-85.918,5.025
15.197,128.181919,37.912513,4258.4580312,-9.793,-85.908,5.189
15.2137,128.181919,37.912517,4253.310264000001,-9.552,-85.9,5.286
15.2304,128.181919,37.912521,4248.160668,-9.218,-85.893,5.314
