Time,Longitude,Latitude,Altitude,Roll (deg),Pitch (deg),Yaw (deg)
0.0,128.181881,37.968643,7002.8955192,0.0,-0.003,0.0
0.0167,128.181881,37.968688,7002.909540000001,0.0,-0.012,0.0
0.0334,128.181881,37.968733,7002.923256000001,0.0,-0.013,359.999
0.0501,128.181881,37.968778,7002.9363624,0.0,0.007,359.999
0.0668,128.181881,37.968823,7002.9497736,0.0,0.063,359.999
0.0834,128.181881,37.968868,7002.9634896,0.0,0.168,359.999
0.1002,128.181881,37.968913,7002.977815200001,0.0,0.33,359.999
0.1169,128.181881,37.968958,7002.993969600001,0.0,0.56,359.999
0.1336,128.181881,37.969003,7003.0119528,-0.001,0.863,359.999
0.1503,128.181881,37.969048,7003.032374400001,-0.001,1.242,359.999
0.1669,128.181881,37.969093,7003.055844,-0.001,1.684,359.999
0.1837,128.181881,37.969138,7003.0823616,-0.002,2.175,359.999
0.2004,128.181881,37.969183,7003.113146400001,-0.002,2.704,359.999
0.2171,128.181881,37.969228,7003.1478936,-0.002,3.252,359.999
0.2338,128.181881,37.969273,7003.1878224,-0.003,3.802,359.999
0.2505,128.181881,37.969318,7003.2329328000005,-0.003,4.338,359.999
0.2672,128.181881,37.969363,7003.283529599999,-0.004,4.844,359.999
0.2839,128.181881,37.969408,7003.3405272,-0.004,5.316,359.999
0.3006,128.181881,37.969453,7003.4039256,-0.005,5.757,359.999
0.3172,128.181881,37.969498,7003.4743344,-0.006,6.169,359.999
0.3339,128.181881,37.969543,7003.5523632,-0.006,6.554,359.999
0.3507,128.181881,37.969588,7003.638012,-0.007,6.916,359.999
0.3674,128.181881,37.969633,7003.7315856000005,-0.008,7.255,359.999
0.3841,128.181881,37.969678,7003.8333888,-0.009,7.574,359.999
0.4008,128.181881,37.969723,7003.9437264,-0.01,7.875,359.999
0.4175,128.181881,37.969768,7004.0629032,-0.011,8.159,359.998
0.4342,128.181881,37.969813,7004.1906144,-0.012,8.428,359.998
0.4509,128.181881,37.969858,7004.327469600001,-0.013,8.683,359.998
0.4676,128.181881,37.969903,7004.473773600001,-0.015,8.926,359.998
0.4843,128.181881,37.969948,7004.6292216,-0.016,9.158,359.998
0.501,128.181881,37.969993,7004.7941184,-0.018,9.379,359.998
0.5176,128.181881,37.970038,7004.9687688,-0.02,9.592,359.998
0.5344,128.181881,37.970083,7005.152868,-0.022,9.796,359.997
0.5511,128.181881,37.970128,7005.3470256,-0.024,9.993,359.997
0.5678,128.181881,37.970173,7005.550632,-0.026,10.183,359.997
0.5845,128.181881,37.970218,7005.764601600001,-0.029,10.366,359.997
0.6012,128.181881,37.970263,7005.988324800001,-0.032,10.545,359.997
0.6179,128.181881,37.970308,7006.2221064000005,-0.035,10.718,359.996
0.6345,128.181881,37.970353,7006.4662512,-0.038,10.887,359.996
0.6513,128.181881,37.970397,7006.720454400001,-0.042,11.052,359.996
0.6679,128.181881,37.970442,7006.984716,-0.046,11.213,359.995
0.6847,128.181881,37.970487,7007.2593408,-0.05,11.371,359.995
0.7014,128.181881,37.970532,7007.544328800001,-0.055,11.525,359.994
0.7181,128.181881,37.970577,7007.8393752,-0.06,11.677,359.994
0.7348,128.181881,37.970622,7008.1450896,-0.066,11.827,359.993
0.7514,128.181881,37.970667,7008.4611672,-0.072,11.975,359.993
0.7682,128.181881,37.970712,7008.7873032,-0.079,12.12,359.992
0.7848,128.181881,37.970757,7009.124412,-0.086,12.264,359.991
0.8016,128.181881,37.970801,7009.471579200001,-0.094,12.406,359.991
0.8183,128.181881,37.970846,7009.8294144,-0.103,12.547,359.99
0.835,128.181881,37.970891,7010.197612800001,-0.112,12.686,359.989
0.8517,128.181881,37.970936,7010.576174400001,-0.123,12.825,359.988
0.8684,128.181881,37.970981,7010.9654040000005,-0.134,12.962,359.987
0.8851,128.181881,37.971025,7011.365301600001,-0.146,13.098,359.985
0.9018,128.181881,37.97107,7011.7755624,-0.16,13.234,359.984
0.9185,128.181881,37.971115,7012.1964912,-0.175,13.368,359.983
0.9352,128.181881,37.971159,7012.628088,-0.191,13.502,359.981
0.9519,128.181881,37.971204,7013.070048,-0.208,13.636,359.979
0.9686,128.181881,37.971249,7013.522676,-0.227,13.769,359.977
0.9853,128.181881,37.971294,7013.985972,-0.248,13.901,359.975
1.002,128.181881,37.971338,7014.459936,-0.271,14.033,359.973
1.0187,128.181881,37.971383,7014.9442632,-0.296,14.165,359.97
1.0353,128.181881,37.971428,7015.4392584,-0.323,14.296,359.968
1.0521,128.181881,37.971472,7015.9452264,-0.353,14.427,359.965
1.0688,128.181881,37.971517,7016.4615576,-0.386,14.558,359.961
1.0855,128.181881,37.971561,7016.988556800001,-0.421,14.688,359.958
1.1022,128.181881,37.971606,7017.526224000001,-0.46,14.819,359.954
1.1189,128.181881,37.97165,7018.074864,-0.502,14.949,359.949
1.1356,128.181881,37.971695,7018.6338672,-0.548,15.079,359.945
1.1522,128.181881,37.971739,7019.2038432,-0.598,15.209,359.939
1.169,128.181881,37.971784,7019.7844872000005,-0.653,15.339,359.934
1.1857,128.181881,37.971828,7020.3757992,-0.713,15.469,359.928
1.2024,128.181881,37.971873,7020.978084000001,-0.779,15.599,359.921
1.2191,128.181881,37.971917,7021.5910368,-0.851,15.729,359.913
1.2358,128.181881,37.971962,7022.2146576,-0.929,15.859,359.905
1.2525,128.181881,37.972006,7022.849556000001,-1.014,15.989,359.896
1.2691,128.181881,37.97205,7023.495122400001,-1.108,16.119,359.887
1.2859,128.181881,37.972095,7024.1516616,-1.21,16.25,359.876
1.3026,128.181881,37.972139,7024.818868800001,-1.321,16.38,359.865
1.3193,128.181881,37.972183,7025.4973536,-1.443,16.511,359.852
1.3359,128.181881,37.972228,7026.186811200001,-1.576,16.641,359.838
1.3527,128.181881,37.972272,7026.8872416,-1.721,16.772,359.823
1.3694,128.181881,37.972316,7027.5989496,-1.88,16.903,359.806
1.386,128.18188,37.97236,7028.3219352,-2.053,17.034,359.788
1.4028,128.18188,37.972405,7029.0561984,-2.243,17.165,359.769
1.4195,128.18188,37.972449,7029.8014344,-2.452,17.297,359.748
1.4362,128.18188,37.972493,7030.5582527999995,-2.68,17.429,359.726
1.4528,128.18188,37.972537,7031.3266536,-2.93,17.561,359.703
1.4696,128.18188,37.972581,7032.106332,-3.204,17.694,359.678
1.4863,128.18188,37.972625,7032.897897600001,-3.503,17.827,359.652
1.5029,128.18188,37.972669,7033.701350400001,-3.831,17.96,359.623
1.5197,128.18188,37.972713,7034.5163856,-4.19,18.094,359.593
1.5364,128.18188,37.972757,7035.343308,-4.582,18.228,359.56
1.5531,128.18188,37.972801,7036.1827272,-5.01,18.362,359.525
1.5697,128.181879,37.972845,7037.034033600001,-5.479,18.497,359.487
1.5865,128.181879,37.972889,7037.897836800001,-5.991,18.632,359.446
1.6032,128.181879,37.972933,7038.7744416000005,-6.55,18.768,359.402
1.6198,128.181879,37.972977,7039.663543199999,-7.162,18.905,359.354
1.6366,128.181879,37.97302,7040.565751200001,-7.831,19.041,359.302
1.6533,128.181879,37.973064,7041.481065600001,-8.561,19.179,359.246
1.67,128.181878,37.973108,7042.409486400001,-9.358,19.316,359.185
1.6867,128.181878,37.973151,7043.350708800001,-10.221,19.454,359.119
1.7034,128.181878,37.973195,7044.305037600001,-11.148,19.592,359.049
1.7201,128.181877,37.973239,7045.2724728,-12.137,19.731,358.974
1.7368,128.181877,37.973282,7046.252100000001,-13.189,19.87,358.895
1.7535,128.181877,37.973326,7047.244833600001,-14.3,20.009,358.81
1.7702,128.181876,37.973369,7048.2497592,-15.471,20.148,358.72
1.7869,128.181876,37.973413,7049.2674864,-16.7,20.287,358.624
1.8036,128.181875,37.973456,7050.2974056,-17.985,20.425,358.522
1.8203,128.181874,37.973499,7051.3395168,-19.326,20.562,358.414
1.837,128.181874,37.973543,7052.3935152,-20.721,20.699,358.299
1.8537,128.181873,37.973586,7053.4594008,-22.171,20.834,358.178
1.8704,128.181872,37.973629,7054.537173600001,-23.673,20.968,358.049
1.8871,128.181871,37.973672,7055.6265288,-25.228,21.099,357.913
1.9038,128.181871,37.973716,7056.7271616,-26.835,21.229,357.769
1.9205,128.18187,37.973759,7057.839072,-28.493,21.357,357.618
1.9372,128.181869,37.973802,7058.9616504000005,-30.202,21.482,357.459
1.9539,128.181867,37.973845,7060.0948968,-31.962,21.604,357.292
1.9706,128.181866,37.973888,7061.238811200001,-33.772,21.723,357.118
1.9873,128.181865,37.973931,7062.392784000001,-35.631,21.838,356.934
2.004,128.181864,37.973974,7063.556510400001,-37.54,21.95,356.742
2.0207,128.181862,37.974017,7064.7299904,-39.497,22.056,356.541
2.0374,128.18186,37.97406,7065.9126144,-41.503,22.158,356.332
2.0541,128.181859,37.974102,7067.1040776,-43.558,22.255,356.113
2.0707,128.181857,37.974145,7068.3040752,-45.661,22.346,355.885
2.0875,128.181855,37.974188,7069.5123023999995,-47.813,22.43,355.648
2.1042,128.181853,37.974231,7070.7284544,-50.012,22.508,355.401
2.1208,128.181851,37.974274,7071.9516168,-52.26,22.578,355.145
2.1376,128.181849,37.974316,7073.1820944,-54.556,22.641,354.88
2.1543,128.181846,37.974359,7074.4189728,-56.899,22.694,354.605
2.171,128.181844,37.974401,7075.6616424,-59.291,22.738,354.321
2.1877,128.181841,37.974444,7076.9101032,-61.731,22.772,354.028
2.2044,128.181838,37.974487,7078.1634408,-64.22,22.795,353.726
2.2211,128.181835,37.974529,7079.421655200001,-66.756,22.805,353.415
2.2378,128.181832,37.974572,7080.683832000001,-69.339,22.801,353.095
2.2544,128.181829,37.974614,7081.9496664,-71.969,22.782,352.766
2.2712,128.181826,37.974656,7083.2188536,-74.644,22.746,352.429
2.2879,128.181823,37.974699,7084.490174400001,-77.364,22.692,352.084
2.3045,128.181819,37.974741,7085.763933600001,-80.129,22.619,351.732
2.3213,128.181815,37.974784,7087.038912,-82.937,22.526,351.375
2.338,128.181811,37.974826,7088.3148048,-85.787,22.41,351.013
2.3546,128.181807,37.974868,7089.5913072,-88.679,22.272,350.648
2.3714,128.181803,37.974911,7090.8675048000005,-91.612,22.11,350.282
2.3881,128.181799,37.974953,7092.142788000001,-94.584,21.924,349.915
2.4048,128.181795,37.974995,7093.416852000001,-97.594,21.712,349.551
2.4215,128.18179,37.975038,7094.6890872,-100.642,21.475,349.19
2.4382,128.181785,37.97508,7095.958884000001,-103.725,21.212,348.835
2.4549,128.18178,37.975122,7097.2256328,-106.843,20.923,348.489
2.4716,128.181775,37.975164,7098.488724000001,-109.994,20.609,348.152
2.4882,128.18177,37.975207,7099.7478528,-113.178,20.27,347.828
2.505,128.181765,37.975249,7101.002104800001,-116.389,19.906,347.518
2.5217,128.18176,37.975291,7102.25148,-119.625,19.519,347.225
2.5383,128.181754,37.975333,7103.495064000001,-122.881,19.111,346.949
2.5551,128.181749,37.975376,7104.732856800001,-126.154,18.681,346.693
2.5718,128.181743,37.975418,7105.9642488,-129.441,18.233,346.459
2.5884,128.181737,37.97546,7107.1889352,-132.738,17.766,346.246
2.6052,128.181731,37.975502,7108.4060016,-136.045,17.285,346.058
2.6219,128.181725,37.975545,7109.6163624,-139.337,16.79,345.892
2.6386,128.181719,37.975587,7110.8187984,-142.561,16.287,345.748
2.6553,128.181713,37.975629,7112.0142240000005,-145.67,15.779,345.622
2.6719,128.181707,37.975671,7113.2020296,-148.641,15.268,345.513
2.6887,128.181701,37.975714,7114.382215200001,-151.48,14.756,345.42
2.7054,128.181694,37.975756,7115.5550856,-154.191,14.245,345.343
2.722,128.181688,37.975798,7116.7209456,-156.778,13.735,345.282
2.7388,128.181681,37.975841,7117.879490400001,-159.246,13.228,345.236
2.7555,128.181675,37.975883,7119.030720000001,-161.598,12.725,345.205
2.7721,128.181668,37.975925,7120.175244,-163.837,12.227,345.188
2.7889,128.181662,37.975968,7121.3127576,-165.969,11.734,345.185
2.8056,128.181655,37.97601,7122.4435656000005,-167.996,11.248,345.194
2.8222,128.181649,37.976053,7123.5679728000005,-169.921,10.77,345.217
2.839,128.181642,37.976095,7124.685674400001,-171.747,10.299,345.251
2.8557,128.181635,37.976138,7125.79728,-173.478,9.837,345.296
2.8724,128.181629,37.97618,7126.9027896,-175.117,9.383,345.353
2.8891,128.181622,37.976223,7128.0015936,-176.666,8.939,345.42
2.9057,128.181615,37.976265,7129.093082400001,-178.131,8.505,345.495
2.9225,128.181608,37.976308,7130.177560800001,-179.513,8.081,345.578
2.9392,128.181601,37.97635,7131.254724,179.183,7.667,345.669
2.9558,128.181594,37.976393,7132.3242672,177.958,7.264,345.766
2.9726,128.181588,37.976435,7133.3861904000005,176.808,6.87,345.87
2.9893,128.181581,37.976478,7134.439884000001,175.731,6.487,345.979
3.0059,128.181574,37.976521,7135.485348,174.726,6.115,346.095
3.0227,128.181567,37.976563,7136.522582400001,173.791,5.753,346.216
3.0394,128.18156,37.976606,7137.551282400001,172.923,5.402,346.342
3.056,128.181553,37.976649,7138.5711432,172.121,5.06,346.473
3.0728,128.181546,37.976692,7139.58186,171.383,4.729,346.609
3.0895,128.181539,37.976734,7140.583737600001,170.707,4.408,346.748
3.1062,128.181532,37.976777,7141.5761664,170.092,4.097,346.891
3.1229,128.181525,37.97682,7142.559451200001,169.537,3.796,347.037
3.1395,128.181518,37.976863,7143.532982400001,169.039,3.505,347.186
3.1563,128.181511,37.976906,7144.496760000001,168.598,3.223,347.337
3.173,128.181504,37.976949,7145.450784000001,168.212,2.95,347.491
3.1896,128.181497,37.976992,7146.3947496,167.88,2.685,347.646
3.2064,128.18149,37.977034,7147.328656800001,167.6,2.43,347.802
3.2231,128.181483,37.977077,7148.251896000001,167.367,2.183,347.959
3.2397,128.181476,37.97712,7149.1641624,167.178,1.943,348.117
3.2565,128.181468,37.977163,7150.065456,167.026,1.712,348.276
3.2732,128.181461,37.977206,7150.9551672,166.909,1.488,348.434
3.2899,128.181454,37.977249,7151.833600800001,166.823,1.271,348.592
3.3066,128.181447,37.977293,7152.700147200001,166.764,1.061,348.75
3.3233,128.18144,37.977336,7153.5548064,166.73,0.857,348.907
3.34,128.181433,37.977379,7154.3972736000005,166.716,0.659,349.062
3.3567,128.181426,37.977422,7155.227244,166.721,0.466,349.216
3.3734,128.181419,37.977465,7156.045022400001,166.742,0.279,349.368
3.3901,128.181412,37.977508,7156.8496944,166.777,0.095,349.517
3.4068,128.181405,37.977551,7157.641869600001,166.823,-0.083,349.663
3.4235,128.181398,37.977595,7158.4212431999995,166.88,-0.259,349.805
3.4402,128.181391,37.977638,7159.187510400001,166.945,-0.432,349.944
3.4569,128.181384,37.977681,7159.9406712,167.016,-0.602,350.078
3.4736,128.181377,37.977724,7160.6804208,167.093,-0.77,350.208
3.4903,128.181371,37.977768,7161.407064000001,167.173,-0.936,350.333
3.507,128.181364,37.977811,7162.120296,167.255,-1.1,350.453
3.5237,128.181357,37.977854,7162.819812,167.339,-1.263,350.566
3.5404,128.18135,37.977898,7163.5059168,167.424,-1.426,350.674
3.5571,128.181343,37.977941,7164.1786104,167.508,-1.587,350.776
3.5738,128.181336,37.977984,7164.8372832000005,167.592,-1.748,350.872
3.5905,128.181329,37.978028,7165.4825448,167.679,-1.908,350.964
3.6072,128.181323,37.978071,7166.1137856000005,167.768,-2.068,351.052
3.6239,128.181316,37.978114,7166.7313104,167.86,-2.227,351.137
3.6406,128.181309,37.978158,7167.3348144,167.955,-2.385,351.22
3.6573,128.181302,37.978201,7167.9246023999995,168.054,-2.542,351.301
3.674,128.181296,37.978245,7168.5000648000005,168.156,-2.699,351.379
3.6907,128.181289,37.978288,7169.061506400001,168.26,-2.856,351.456
3.7074,128.181282,37.978332,7169.6089272,168.366,-3.013,351.531
3.7241,128.181275,37.978375,7170.1423272,168.473,-3.169,351.605
3.7408,128.181269,37.978419,7170.6614016,168.582,-3.325,351.677
3.7575,128.181262,37.978462,7171.1661504,168.691,-3.48,351.747
3.7742,128.181255,37.978506,7171.6580976000005,168.856,-3.637,351.812
3.7909,128.181249,37.978549,7172.136633600001,169.076,-3.794,351.872
3.8076,128.181242,37.978593,7172.602368000001,169.348,-3.951,351.927
3.8243,128.181236,37.978637,7173.0559104,169.668,-4.108,351.979
3.841,128.181229,37.97868,7173.496956000001,170.027,-4.265,352.029
3.8577,128.181222,37.978724,7173.9242856,170.42,-4.421,352.077
3.8744,128.181216,37.978767,7174.338204000001,170.838,-4.576,352.124
3.8911,128.181209,37.978811,7174.738101600001,171.275,-4.731,352.169
3.9078,128.181203,37.978855,7175.124283200001,171.724,-4.884,352.213
3.9245,128.181196,37.978898,7175.4958344,172.18,-5.037,352.256
3.9412,128.18119,37.978942,7175.85306,172.638,-5.189,352.298
3.9579,128.181183,37.978986,7176.1953504,173.092,-5.34,352.338
3.9746,128.181177,37.97903,7176.523010400001,173.539,-5.491,352.376
3.9913,128.18117,37.979073,7176.8354304,173.975,-5.642,352.412
4.008,128.181164,37.979117,7177.132915200001,174.399,-5.793,352.447
4.0247,128.181157,37.979161,7177.4151600000005,174.807,-5.944,352.479
4.0414,128.181151,37.979204,7177.681860000001,175.198,-6.096,352.51
4.058,128.181144,37.979248,7177.933624800001,175.572,-6.248,352.538
4.0748,128.181138,37.979292,7178.16954,175.927,-6.4,352.565
4.0915,128.181131,37.979336,7178.390520000001,176.263,-6.554,352.59
4.1082,128.181125,37.979379,7178.5956504000005,176.58,-6.708,352.612
4.1249,128.181119,37.979423,7178.7855408000005,176.879,-6.864,352.633
4.1415,128.181112,37.979467,7178.960191200001,177.161,-7.02,352.653
4.1583,128.181106,37.979511,7179.1192968000005,177.427,-7.177,352.672
4.175,128.181099,37.979554,7179.2628576,177.677,-7.336,352.69
4.1917,128.181093,37.979598,7179.3908736,177.911,-7.495,352.707
4.2084,128.181086,37.979642,7179.5036496,178.13,-7.655,352.723
4.2251,128.18108,37.979686,7179.6011856000005,178.334,-7.817,352.738
4.2417,128.181074,37.979729,7179.6831768,178.525,-7.979,352.752
4.2585,128.181067,37.979773,7179.749928,178.702,-8.142,352.764
4.2752,128.181061,37.979817,7179.8011344,178.867,-8.306,352.775
4.2919,128.181054,37.979861,7179.8374056,179.02,-8.472,352.785
4.3086,128.181048,37.979904,7179.858132,179.163,-8.637,352.793
4.3252,128.181042,37.979948,7179.863618400001,179.296,-8.804,352.801
4.342,128.181035,37.979992,7179.8538648,179.42,-8.971,352.807
4.3587,128.181029,37.980036,7179.8288712,179.535,-9.139,352.813
4.3754,128.181022,37.980079,7179.788637600001,179.643,-9.308,352.818
4.3921,128.181016,37.980123,7179.7334688,179.744,-9.477,352.821
4.4088,128.181009,37.980167,7179.662755200001,179.839,-9.647,352.824
4.4254,128.181003,37.980211,7179.577106400001,179.927,-9.817,352.827
4.4422,128.180997,37.980254,7179.4762176,-179.989,-9.987,352.828
4.4589,128.18099,37.980298,7179.3600888,-179.91,-10.158,352.829
4.4756,128.180984,37.980342,7179.229024800001,-179.836,-10.33,352.83
4.4923,128.180977,37.980386,7179.0827208,-179.767,-10.501,352.83
4.5089,128.180971,37.980429,7178.9211768000005,-179.701,-10.673,352.829
4.5256,128.180965,37.980473,7178.744697600001,-179.638,-10.846,352.828
4.5424,128.180958,37.980517,7178.552978400001,-179.579,-11.018,352.826
4.5591,128.180952,37.980561,7178.346324000001,-179.522,-11.191,352.825
4.5758,128.180945,37.980604,7178.1244295999995,-179.468,-11.363,352.822
4.5925,128.180939,37.980648,7177.8872952,-179.417,-11.536,352.82
4.6091,128.180933,37.980692,7177.6352256,-179.367,-11.709,352.817
4.6259,128.180926,37.980736,7177.3682208,-179.32,-11.883,352.813
4.6426,128.18092,37.980779,7177.085976,-179.275,-12.056,352.81
4.6593,128.180913,37.980823,7176.788796000001,-179.232,-12.229,352.806
4.676,128.180907,37.980867,7176.476376,-179.19,-12.403,352.802
4.6927,128.1809,37.98091,7176.1490208,-179.149,-12.576,352.797
4.7093,128.180894,37.980954,7175.8064256,-179.111,-12.75,352.793
4.7261,128.180887,37.980998,7175.4488952,-179.073,-12.923,352.788
4.7428,128.180881,37.981041,7175.076124800001,-179.037,-13.097,352.783
4.7595,128.180875,37.981085,7174.688419200001,-179.002,-13.271,352.778
4.7762,128.180868,37.981129,7174.285778400001,-178.968,-13.444,352.772
4.7928,128.180862,37.981172,7173.867897600001,-178.935,-13.618,352.767
4.8096,128.180855,37.981216,7173.435081600001,-178.903,-13.792,352.761
4.8263,128.180849,37.981259,7172.9873304,-178.872,-13.966,352.755
4.843,128.180842,37.981303,7172.5243392,-178.842,-14.139,352.749
4.8597,128.180836,37.981347,7172.0464128,-178.813,-14.313,352.743
4.8764,128.180829,37.98139,7171.553246400001,-178.784,-14.487,352.737
4.893,128.180823,37.981434,7171.0451448,-178.757,-14.66,352.73
4.9098,128.180817,37.981477,7170.522108,-178.73,-14.834,352.724
4.9265,128.18081,37.981521,7169.984136,-178.703,-15.007,352.717
4.9432,128.180804,37.981564,7169.430924,-178.678,-15.181,352.71
4.9599,128.180797,37.981608,7168.862776800001,-178.653,-15.355,352.703
4.9765,128.180791,37.981651,7168.2796944,-178.629,-15.528,352.696
4.9932,128.180784,37.981695,7167.681372,-178.605,-15.702,352.689
5.01,128.180778,37.981738,7167.068114400001,-178.582,-15.875,352.682
5.0267,128.180771,37.981782,7166.4399216,-178.559,-16.048,352.675
5.0434,128.180765,37.981825,7165.7964888,-178.537,-16.222,352.668
5.0601,128.180758,37.981869,7165.1384256,-178.516,-16.395,352.66
5.0767,128.180752,37.981912,7164.4651224,-178.495,-16.568,352.653
5.0935,128.180745,37.981956,7163.776884000001,-178.474,-16.741,352.645
5.1102,128.180739,37.981999,7163.073405600001,-178.455,-16.915,352.638
5.1269,128.180732,37.982042,7162.3552968,-178.435,-17.088,352.63
5.1436,128.180726,37.982086,7161.621948,-178.416,-17.261,352.622
5.1602,128.180719,37.982129,7160.8739688000005,-178.397,-17.434,352.614
5.1769,128.180713,37.982172,7160.1107496,-178.379,-17.607,352.606
5.1937,128.180706,37.982216,7159.3325952000005,-178.361,-17.78,352.598
5.2104,128.1807,37.982259,7158.539505600001,-178.344,-17.953,352.591
5.2271,128.180693,37.982302,7157.731176,-178.327,-18.126,352.582
5.2438,128.180687,37.982346,7156.908216,-178.311,-18.298,352.574
5.2604,128.18068,37.982389,7156.0703207999995,-178.294,-18.471,352.566
5.2772,128.180674,37.982432,7155.2171856,-178.278,-18.644,352.558
5.2939,128.180667,37.982475,7154.3494200000005,-178.263,-18.817,352.55
5.3106,128.180661,37.982518,7153.466719200001,-178.248,-18.989,352.542
5.3273,128.180654,37.982562,7152.568778400001,-178.233,-19.162,352.533
5.3439,128.180648,37.982605,7151.6562072,-178.219,-19.334,352.525
5.3606,128.180641,37.982648,7150.728396,-178.205,-19.507,352.516
5.3774,128.180635,37.982691,7149.7859544,-178.191,-19.679,352.508
5.3941,128.180628,37.982734,7148.8285776,-178.177,-19.851,352.5
5.4108,128.180622,37.982777,7147.856265600001,-178.164,-20.024,352.491
5.4275,128.180615,37.98282,7146.869018400001,-178.151,-20.196,352.483
5.4441,128.180609,37.982863,7145.866836,-178.139,-20.368,352.474
5.4609,128.180602,37.982906,7144.849718400001,-178.126,-20.54,352.465
5.4776,128.180596,37.982949,7143.817970400001,-178.114,-20.712,352.457
5.4943,128.180589,37.982992,7142.7709824,-178.103,-20.884,352.448
5.511,128.180583,37.983035,7141.709364,-178.091,-21.056,352.44
5.5277,128.180576,37.983078,7140.6328104,-178.08,-21.228,352.431
5.5443,128.18057,37.983121,7139.5416264000005,-178.069,-21.4,352.422
5.5611,128.180563,37.983163,7138.4352024,-178.058,-21.571,352.413
5.5778,128.180556,37.983206,7137.3141479999995,-178.048,-21.743,352.405
5.5945,128.18055,37.983249,7136.1784632,-178.038,-21.914,352.396
5.6112,128.180543,37.983292,7135.027538400001,-178.028,-22.086,352.387
5.6278,128.180537,37.983335,7133.862288000001,-178.018,-22.257,352.378
5.6445,128.18053,37.983377,7132.681797600001,-178.008,-22.429,352.369
5.6613,128.180524,37.98342,7131.4866768,-177.999,-22.6,352.361
5.678,128.180517,37.983463,7130.2766208,-177.99,-22.771,352.352
5.6947,128.180511,37.983505,7129.0519343999995,-177.981,-22.943,352.343
5.7114,128.180504,37.983548,7127.8123128,-177.973,-23.114,352.334
5.728,128.180498,37.98359,7126.558060800001,-177.964,-23.285,352.325
5.7448,128.180491,37.983633,7125.2891784,-177.956,-23.456,352.316
5.7615,128.180484,37.983676,7124.005360800001,-177.948,-23.627,352.307
5.7782,128.180478,37.983718,7122.706608,-177.94,-23.798,352.298
5.7949,128.180471,37.98376,7121.3935296,-177.932,-23.968,352.289
5.8115,128.180465,37.983803,7120.065211200001,-177.925,-24.139,352.28
5.8282,128.180458,37.983845,7118.7225672,-177.918,-24.31,352.271
5.845,128.180452,37.983888,7117.364988000001,-177.911,-24.48,352.263
5.8617,128.180445,37.98393,7115.992778400001,-177.904,-24.651,352.254
5.8784,128.180439,37.983972,7114.605938400001,-177.897,-24.821,352.245
5.8951,128.180432,37.984015,7113.204468,-177.89,-24.992,352.236
5.9117,128.180425,37.984057,7111.7880624,-177.884,-25.162,352.227
5.9285,128.180419,37.984099,7110.3570264,-177.878,-25.332,352.218
5.9452,128.180412,37.984141,7108.911664800001,-177.871,-25.502,352.209
5.9619,128.180406,37.984183,7107.451368,-177.866,-25.672,352.2
5.9786,128.180399,37.984226,7105.9764408,-177.86,-25.842,352.191
5.9952,128.180393,37.984268,7104.486883200001,-177.854,-26.012,352.181
6.0119,128.180386,37.98431,7102.9826952,-177.849,-26.182,352.172
6.0287,128.18038,37.984352,7101.4638768,-177.843,-26.352,352.163
6.0454,128.180373,37.984394,7099.930428000001,-177.838,-26.522,352.154
6.0621,128.180366,37.984436,7098.3823488,-177.833,-26.691,352.145
6.0788,128.18036,37.984477,7096.819944,-177.828,-26.861,352.136
6.0954,128.180353,37.984519,7095.242604,-177.823,-27.03,352.127
6.1121,128.180347,37.984561,7093.650938400001,-177.818,-27.2,352.118
6.1289,128.18034,37.984603,7092.044642400001,-177.814,-27.369,352.109
6.1456,128.180334,37.984645,7090.423716,-177.809,-27.538,352.1
6.1623,128.180327,37.984686,7088.788464,-177.805,-27.708,352.091
6.179,128.18032,37.984728,7087.1385816,-177.801,-27.877,352.082
6.1956,128.180314,37.98477,7085.4740688,-177.797,-28.046,352.073
6.2124,128.180307,37.984811,7083.7952304,-177.793,-28.215,352.064
6.2291,128.180301,37.984853,7082.1017616,-177.789,-28.384,352.055
6.2458,128.180294,37.984895,7080.3939672,-177.785,-28.552,352.046
6.2625,128.180288,37.984936,7078.6715424,-177.781,-28.721,352.037
6.2791,128.180281,37.984978,7076.9344872,-177.777,-28.89,352.028
6.2958,128.180274,37.985019,7075.183411200001,-177.774,-29.059,352.018
6.3126,128.180268,37.98506,7073.4177048,-177.771,-29.227,352.009
6.3293,128.180261,37.985102,7071.637368000001,-177.767,-29.396,352.0
6.346,128.180255,37.985143,7069.842705600001,-177.764,-29.564,351.991
6.3627,128.180248,37.985184,7068.0337176,-177.761,-29.732,351.982
6.3793,128.180242,37.985225,7066.210404,-177.758,-29.9,351.973
6.3961,128.180235,37.985267,7064.3727648,-177.755,-30.069,351.964
6.4128,128.180228,37.985308,7062.5204952,-177.752,-30.237,351.955
6.4295,128.180222,37.985349,7060.6539,-177.749,-30.405,351.946
6.4462,128.180215,37.98539,7058.773284000001,-177.746,-30.573,351.937
6.4628,128.180209,37.985431,7056.8780376,-177.743,-30.74,351.928
6.4795,128.180202,37.985472,7054.968465600001,-177.741,-30.908,351.919
6.4963,128.180196,37.985513,7053.044568,-177.738,-31.076,351.91
6.513,128.180189,37.985554,7051.1066496,-177.736,-31.243,351.9
6.5297,128.180183,37.985595,7049.1541008,-177.733,-31.411,351.891
6.5464,128.180176,37.985635,7047.1875312,-177.731,-31.578,351.882
6.5631,128.180169,37.985676,7045.2063312,-177.728,-31.746,351.873
6.5798,128.180163,37.985717,7043.2114152,-177.726,-31.913,351.864
6.5965,128.180156,37.985757,7041.201868800001,-177.724,-32.08,351.855
6.6132,128.18015,37.985798,7039.178301600001,-177.721,-32.247,351.846
6.6299,128.180143,37.985839,7037.1404088,-177.719,-32.415,351.837
6.6466,128.180137,37.985879,7035.0881904,-177.717,-32.582,351.828
6.6633,128.18013,37.98592,7033.0219512,-177.715,-32.748,351.819
6.68,128.180124,37.98596,7030.941691200001,-177.713,-32.915,351.809
6.6967,128.180117,37.986,7028.847105600001,-177.711,-33.082,351.8
6.7134,128.18011,37.986041,7026.7381944,-177.709,-33.249,351.791
6.7301,128.180104,37.986081,7024.6155672,-177.707,-33.415,351.782
6.7468,128.180097,37.986121,7022.4783096,-177.705,-33.582,351.773
6.7635,128.180091,37.986161,7020.327336,-177.704,-33.748,351.764
6.7802,128.180084,37.986202,7018.1620368,-177.702,-33.915,351.755
6.7969,128.180078,37.986242,7015.9830216,-177.7,-34.081,351.746
6.8136,128.180071,37.986282,7013.7896808000005,-177.698,-34.247,351.736
6.8303,128.180065,37.986322,7011.582319200001,-177.696,-34.413,351.727
6.847,128.180058,37.986362,7009.360936800001,-177.695,-34.579,351.718
6.8637,128.180052,37.986401,7007.1255336,-177.693,-34.745,351.709
6.8804,128.180045,37.986441,7004.876109600001,-177.691,-34.911,351.7
6.8971,128.180039,37.986481,7002.612664800001,-177.69,-35.077,351.691
6.9138,128.180032,37.986521,7000.3351992,-177.688,-35.243,351.681
6.9305,128.180026,37.986561,6998.0440176,-177.686,-35.408,351.672
6.9472,128.180019,37.9866,6995.7385104,-177.685,-35.574,351.663
6.9639,128.180013,37.98664,6993.4192872,-177.683,-35.739,351.654
6.9806,128.180006,37.986679,6991.0860432,-177.681,-35.905,351.645
6.9973,128.18,37.986719,6988.739083200001,-177.68,-36.07,351.636
7.014,128.179993,37.986758,6986.3781024,-177.678,-36.235,351.626
7.0307,128.179987,37.986798,6984.0034056,-177.676,-36.401,351.617
7.0474,128.17998,37.986837,6981.614688000001,-177.675,-36.566,351.608
7.0641,128.179974,37.986876,6979.2122544,-177.673,-36.731,351.599
7.0808,128.179967,37.986915,6976.795800000001,-177.671,-36.896,351.589
7.0975,128.179961,37.986954,6974.3656296,-177.67,-37.061,351.58
7.1142,128.179954,37.986994,6971.9217432,-177.668,-37.225,351.571
7.1309,128.179948,37.987033,6969.463836,-177.666,-37.39,351.561
7.1476,128.179941,37.987072,6966.992517600001,-177.665,-37.555,351.552
7.1643,128.179935,37.98711,6964.507178400001,-177.663,-37.719,351.543
7.181,128.179928,37.987149,6962.0081232,-177.661,-37.884,351.534
7.1977,128.179922,37.987188,6959.495352000001,-177.66,-38.048,351.524
7.2144,128.179915,37.987227,6956.968864800001,-177.658,-38.212,351.515
7.2311,128.179909,37.987266,6954.4289664,-177.656,-38.377,351.505
7.2478,128.179902,37.987304,6951.875047200001,-177.654,-38.541,351.496
7.2645,128.179896,37.987343,6949.3077168,-177.653,-38.705,351.487
7.2812,128.179889,37.987381,6946.726670400001,-177.651,-38.869,351.477
7.2979,128.179883,37.98742,6944.131908,-177.649,-39.033,351.468
7.3146,128.179877,37.987458,6941.5234296,-177.647,-39.197,351.458
7.3313,128.17987,37.987497,6938.90154,-177.645,-39.361,351.449
7.348,128.179864,37.987535,6936.2662392,-177.643,-39.524,351.44
7.3647,128.179857,37.987573,6933.6172224,-177.641,-39.688,351.43
7.3814,128.179851,37.987611,6930.9544896,-177.639,-39.851,351.421
7.3981,128.179844,37.987649,6928.2786504000005,-177.637,-40.015,351.411
7.4148,128.179838,37.987687,6925.5890952,-177.635,-40.178,351.401
7.4315,128.179832,37.987725,6922.885824000001,-177.633,-40.342,351.392
7.4482,128.179825,37.987763,6920.1694464,-177.631,-40.505,351.382
7.4649,128.179819,37.987801,6917.4393528,-177.629,-40.668,351.373
7.4816,128.179812,37.987839,6914.695848,-177.627,-40.831,351.363
7.4983,128.179806,37.987877,6911.939236800001,-177.624,-40.994,351.353
7.515,128.1798,37.987915,6909.168909600001,-177.622,-41.157,351.344
7.5317,128.179793,37.987952,6906.3851712,-177.62,-41.319,351.334
7.5484,128.179787,37.98799,6903.5883264,-177.617,-41.482,351.324
7.5651,128.17978,37.988027,6900.778070400001,-177.615,-41.644,351.315
7.5818,128.179774,37.988065,6897.9544032,-177.612,-41.806,351.305
7.5985,128.179768,37.988102,6895.1173248000005,-177.61,-41.969,351.295
7.6152,128.179761,37.988139,6892.26714,-177.607,-42.131,351.285
7.6319,128.179755,37.988177,6889.403544,-177.605,-42.293,351.275
7.6486,128.179749,37.988214,6886.526841600001,-177.602,-42.455,351.266
7.6653,128.179742,37.988251,6883.636728,-177.599,-42.616,351.256
7.682,128.179736,37.988288,6880.733508,-177.596,-42.778,351.246
7.6987,128.17973,37.988325,6877.8171816,-177.593,-42.94,351.236
7.7154,128.179723,37.988362,6874.8877488,-177.591,-43.101,351.226
7.7321,128.179717,37.988399,6871.944904800001,-177.588,-43.262,351.216
7.7488,128.179711,37.988435,6868.988954400001,-177.585,-43.424,351.206
7.7655,128.179704,37.988472,6866.0202024,-177.581,-43.585,351.196
7.7822,128.179698,37.988509,6863.0380392,-177.578,-43.746,351.186
7.7989,128.179692,37.988545,6860.042769600001,-177.575,-43.907,351.176
7.8156,128.179685,37.988582,6857.0346984,-177.572,-44.068,351.166
7.8323,128.179679,37.988618,6854.0135208,-177.568,-44.228,351.155
7.849,128.179673,37.988655,6850.979236800001,-177.565,-44.389,351.145
7.8657,128.179666,37.988691,6847.931846400001,-177.561,-44.55,351.135
7.8824,128.17966,37.988727,6844.8716544,-177.558,-44.71,351.125
7.8991,128.179654,37.988763,6841.798660800001,-177.554,-44.871,351.114
7.9158,128.179648,37.988799,6838.712560800001,-177.551,-45.031,351.104
7.9325,128.179641,37.988835,6835.6133544,-177.547,-45.191,351.094
7.9492,128.179635,37.988871,6832.5013464,-177.543,-45.351,351.083
7.9659,128.179629,37.988907,6829.3768416,-177.539,-45.512,351.073
7.9826,128.179623,37.988943,6826.2389256,-177.535,-45.672,351.062
7.9993,128.179616,37.988979,6823.0885128,-177.531,-45.832,351.052
8.016,128.17961,37.989014,6819.9252983999995,-177.527,-45.991,351.041
8.0327,128.179604,37.98905,6816.7492824,-177.523,-46.151,351.03
8.0494,128.179598,37.989086,6813.560464800001,-177.518,-46.311,351.02
8.0661,128.179592,37.989121,6810.358845600001,-177.514,-46.47,351.009
8.0828,128.179585,37.989156,6807.144424800001,-177.51,-46.63,350.998
8.0994,128.179579,37.989192,6803.9175072,-177.505,-46.789,350.987
8.1161,128.179573,37.989227,6800.677788000001,-177.5,-46.949,350.977
8.1329,128.179567,37.989262,6797.425572,-177.496,-47.108,350.966
8.1496,128.179561,37.989297,6794.1605544,-177.491,-47.267,350.955
8.1663,128.179554,37.989332,6790.8827352,-177.486,-47.426,350.944
8.183,128.179548,37.989367,6787.592724000001,-177.481,-47.585,350.933
8.1997,128.179542,37.989402,6784.2899112000005,-177.476,-47.744,350.921
8.2164,128.179536,37.989437,6780.974601600001,-177.471,-47.903,350.91
8.2331,128.17953,37.989472,6777.6467952,-177.465,-48.062,350.899
8.2498,128.179524,37.989506,6774.306187200001,-177.46,-48.22,350.888
8.2665,128.179518,37.989541,6770.9533872,-177.455,-48.379,350.877
8.2831,128.179512,37.989575,6767.5880904000005,-177.449,-48.538,350.865
8.2998,128.179505,37.98961,6764.210296800001,-177.443,-48.696,350.854
8.3166,128.179499,37.989644,6760.820311200001,-177.438,-48.854,350.842
8.3333,128.179493,37.989678,6757.417524,-177.432,-49.013,350.831
8.35,128.179487,37.989712,6754.002544800001,-177.426,-49.171,350.819
8.3667,128.179481,37.989746,6750.575373600001,-177.42,-49.329,350.807
8.3834,128.179475,37.989781,6747.135705600001,-177.414,-49.487,350.796
8.4001,128.179469,37.989814,6743.6838456000005,-177.408,-49.645,350.784
8.4168,128.179463,37.989848,6740.219488799999,-177.401,-49.803,350.772
8.4335,128.179457,37.989882,6736.74294,-177.395,-49.961,350.76
8.4502,128.179451,37.989916,6733.254199200001,-177.388,-50.119,350.748
8.4668,128.179445,37.989949,6729.7532664,-177.382,-50.276,350.736
8.4835,128.179439,37.989983,6726.2401416,-177.375,-50.434,350.724
8.5003,128.179433,37.990016,6722.714824800001,-177.368,-50.591,350.712
8.517,128.179427,37.99005,6719.177316,-177.361,-50.749,350.699
8.5337,128.179421,37.990083,6715.627920000001,-177.354,-50.906,350.687
8.5504,128.179415,37.990116,6712.066332,-177.346,-51.063,350.675
8.5671,128.179409,37.99015,6708.492552000001,-177.339,-51.221,350.662
8.5838,128.179403,37.990183,6704.90658,-177.332,-51.378,350.65
8.6005,128.179397,37.990216,6701.3087208,-177.324,-51.535,350.637
8.6172,128.179391,37.990249,6697.698974400001,-177.316,-51.692,350.624
8.6339,128.179385,37.990281,6694.077036000001,-177.309,-51.849,350.612
8.6505,128.179379,37.990314,6690.443515200001,-177.301,-52.006,350.599
8.6672,128.179373,37.990347,6686.7978023999995,-177.293,-52.162,350.586
8.684,128.179367,37.990379,6683.1402024,-177.284,-52.319,350.573
8.7007,128.179361,37.990412,6679.470715200001,-177.276,-52.476,350.56
8.7174,128.179355,37.990444,6675.7893408,-177.268,-52.632,350.546
8.7341,128.179349,37.990477,6672.0960792000005,-177.259,-52.789,350.533
8.7508,128.179344,37.990509,6668.3909304,-177.25,-52.945,350.52
8.7675,128.179338,37.990541,6664.6741992,-177.242,-53.101,350.506
8.7842,128.179332,37.990573,6660.9455808,-177.233,-53.258,350.493
8.8009,128.179326,37.990605,6657.20538,-177.224,-53.414,350.479
8.8176,128.17932,37.990637,6653.453292,-177.214,-53.57,350.465
8.8342,128.179314,37.990669,6649.6896216000005,-177.205,-53.726,350.452
8.8509,128.179308,37.990701,6645.9143688,-177.196,-53.882,350.438
8.8676,128.179303,37.990732,6642.127228800001,-177.186,-54.038,350.424
8.8844,128.179297,37.990764,6638.328811200001,-177.176,-54.194,350.41
8.9011,128.179291,37.990795,6634.518506400001,-177.166,-54.349,350.395
8.9178,128.179285,37.990827,6630.696619200001,-177.156,-54.505,350.381
8.9345,128.179279,37.990858,6626.863454400001,-177.146,-54.661,350.367
8.9512,128.179274,37.990889,6623.0187072,-177.136,-54.816,350.352
8.9679,128.179268,37.99092,6619.162377600001,-177.125,-54.972,350.337
8.9846,128.179262,37.990951,6615.294465600001,-177.115,-55.127,350.323
9.0013,128.179256,37.990982,6611.415276,-177.104,-55.282,350.308
9.0179,128.179251,37.991013,6607.5248088,-177.093,-55.437,350.293
9.0346,128.179245,37.991044,6603.6227592000005,-177.082,-55.593,350.278
9.0513,128.179239,37.991075,6599.709432000001,-177.071,-55.748,350.263
9.0681,128.179234,37.991105,6595.7845224,-177.059,-55.903,350.247
9.0848,128.179228,37.991136,6591.84864,-177.048,-56.058,350.232
9.1015,128.179222,37.991166,6587.9014799999995,-177.036,-56.213,350.216
9.1182,128.179216,37.991197,6583.9427376,-177.024,-56.367,350.201
9.1349,128.179211,37.991227,6579.9730224,-177.012,-56.522,350.185
9.1516,128.179205,37.991257,6575.9920296,-177.0,-56.677,350.169
9.1683,128.1792,37.991287,6571.9997592,-176.988,-56.832,350.153
9.185,128.179194,37.991317,6567.996516,-176.975,-56.988,350.137
9.2016,128.179188,37.991347,6563.981995200001,-176.962,-57.144,350.12
9.2183,128.179183,37.991377,6559.956501600001,-176.949,-57.301,350.103
9.235,128.179177,37.991406,6555.9197304,-176.936,-57.458,350.086
9.2518,128.179171,37.991436,6551.8719864,-176.922,-57.616,350.069
9.2685,128.179166,37.991466,6547.8132696,-176.908,-57.774,350.052
9.2852,128.17916,37.991495,6543.74358,-176.894,-57.933,350.034
9.3019,128.179155,37.991524,6539.6626128,-176.88,-58.093,350.017
9.3186,128.179149,37.991554,6535.5709776,-176.865,-58.252,349.999
9.3353,128.179144,37.991583,6531.468369600001,-176.85,-58.413,349.98
9.352,128.179138,37.991612,6527.354788799999,-176.835,-58.573,349.962
9.3687,128.179133,37.991641,6523.2302352,-176.819,-58.734,349.943
9.3854,128.179127,37.99167,6519.0947088,-176.803,-58.896,349.924
9.402,128.179122,37.991698,6514.948514400001,-176.787,-59.057,349.905
9.4187,128.179116,37.991727,6510.791347200001,-176.771,-59.219,349.886
9.4355,128.179111,37.991756,6506.6232072,-176.754,-59.381,349.867
9.4522,128.179105,37.991784,6502.4443992,-176.737,-59.543,349.847
9.4689,128.1791,37.991813,6498.2549232,-176.72,-59.706,349.827
9.4856,128.179094,37.991841,6494.054474400001,-176.702,-59.868,349.807
9.5023,128.179089,37.991869,6489.8436624,-176.684,-60.031,349.786
9.519,128.179083,37.991897,6485.6218776000005,-176.666,-60.194,349.765
9.5357,128.179078,37.991925,6481.389424800001,-176.647,-60.357,349.744
9.5524,128.179073,37.991953,6477.146304,-176.628,-60.521,349.723
9.5691,128.179067,37.991981,6472.892515200001,-176.609,-60.684,349.702
9.5857,128.179062,37.992009,6468.628058400001,-176.589,-60.847,349.68
9.6024,128.179057,37.992036,6464.352933600001,-176.569,-61.011,349.658
9.6192,128.179051,37.992064,6460.067445600001,-176.549,-61.174,349.636
9.6359,128.179046,37.992091,6455.7712896,-176.529,-61.338,349.614
9.6526,128.179041,37.992118,6451.464465600001,-176.508,-61.502,349.591
9.6693,128.179035,37.992146,6447.147278400001,-176.487,-61.666,349.568
9.686,128.17903,37.992173,6442.819728,-176.465,-61.83,349.545
9.7027,128.179025,37.9922,6438.4815096,-176.443,-61.994,349.521
9.7194,128.179019,37.992227,6434.132928000001,-176.421,-62.158,349.497
9.7361,128.179014,37.992254,6429.773983200001,-176.398,-62.322,349.473
9.7528,128.179009,37.99228,6425.4046751999995,-176.375,-62.486,349.449
9.7694,128.179004,37.992307,6421.025004,-176.352,-62.651,349.424
9.7861,128.178998,37.992333,6416.634969600001,-176.328,-62.815,349.399
9.8029,128.178993,37.99236,6412.234572,-176.304,-62.979,349.373
9.8196,128.178988,37.992386,6407.823811200001,-176.279,-63.144,349.348
9.8363,128.178983,37.992412,6403.4026872,-176.254,-63.308,349.322
9.853,128.178978,37.992438,6398.971504800001,-176.229,-63.473,349.295
9.8697,128.178973,37.992464,6394.5299592,-176.203,-63.637,349.269
9.8864,128.178967,37.99249,6390.0783552,-176.177,-63.802,349.242
9.9031,128.178962,37.992516,6385.616692800001,-176.15,-63.967,349.214
9.9198,128.178957,37.992542,6381.1446672,-176.123,-64.132,349.187
9.9365,128.178952,37.992567,6376.662583200001,-176.095,-64.297,349.158
9.9531,128.178947,37.992593,6372.1704408000005,-176.068,-64.461,349.13
9.9698,128.178942,37.992618,6367.66824,-176.039,-64.626,349.101
9.9865,128.178937,37.992643,6363.1559808,-176.01,-64.791,349.072
10.0033,128.178932,37.992669,6358.6336632,-175.981,-64.956,349.042
10.02,128.178927,37.992694,6354.101592000001,-175.951,-65.122,349.012
10.0367,128.178922,37.992719,6349.5591576,-175.921,-65.287,348.981
10.0534,128.178917,37.992743,6345.007274400001,-175.89,-65.452,348.95
10.0701,128.178912,37.992768,6340.445028,-175.859,-65.617,348.919
10.0868,128.178907,37.992793,6335.873028000001,-175.827,-65.783,348.887
10.1035,128.178902,37.992817,6331.2912744000005,-175.795,-65.948,348.855
10.1202,128.178897,37.992842,6326.6997672,-175.762,-66.114,348.822
10.1368,128.178892,37.992866,6322.098201600001,-175.729,-66.279,348.789
10.1535,128.178887,37.99289,6317.4871872,-175.695,-66.445,348.755
10.1702,128.178882,37.992914,6312.866114400001,-175.661,-66.61,348.721
10.187,128.178877,37.992938,6308.235592800001,-175.626,-66.776,348.686
10.2037,128.178872,37.992962,6303.5953176,-175.59,-66.942,348.651
10.2204,128.178867,37.992986,6298.9452888,-175.554,-67.108,348.615
10.2371,128.178862,37.993009,6294.2855064000005,-175.517,-67.273,348.578
10.2538,128.178858,37.993033,6289.6162752,-175.48,-67.439,348.541
10.2705,128.178853,37.993056,6284.9375952,-175.442,-67.605,348.504
10.2872,128.178848,37.99308,6280.2491616,-175.404,-67.771,348.466
10.3039,128.178843,37.993103,6275.551279200001,-175.364,-67.937,348.427
10.3205,128.178838,37.993126,6270.843948,-175.324,-68.103,348.388
10.3372,128.178833,37.993149,6266.127168,-175.284,-68.27,348.348
10.3539,128.178829,37.993172,6261.4009392,-175.242,-68.436,348.307
10.3707,128.178824,37.993194,6256.6655664,-175.2,-68.602,348.266
10.3874,128.178819,37.993217,6251.92044,-175.158,-68.768,348.224
10.4041,128.178814,37.99324,6247.166169600001,-175.114,-68.935,348.181
10.4208,128.17881,37.993262,6242.402450400001,-175.07,-69.101,348.138
10.4375,128.178805,37.993284,6237.629587200001,-175.025,-69.268,348.094
10.4542,128.1788,37.993306,6232.84758,-174.979,-69.434,348.049
10.4709,128.178796,37.993328,6228.056124000001,-174.933,-69.601,348.003
10.4876,128.178791,37.99335,6223.255524000001,-174.885,-69.768,347.957
10.5042,128.178786,37.993372,6218.44578,-174.837,-69.934,347.909
10.5209,128.178782,37.993394,6213.627196800001,-174.788,-70.101,347.861
10.5376,128.178777,37.993415,6208.799164800001,-174.738,-70.268,347.813
10.5544,128.178773,37.993437,6203.9622936,-174.687,-70.435,347.763
10.5711,128.178768,37.993458,6199.116278400001,-174.635,-70.602,347.712
10.5878,128.178763,37.993479,6194.2611192,-174.582,-70.769,347.66
10.6045,128.178759,37.9935,6189.3974256,-174.529,-70.936,347.608
10.6212,128.178754,37.993521,6184.524588000001,-174.474,-71.103,347.554
10.6379,128.17875,37.993542,6179.642606400001,-174.418,-71.27,347.5
10.6546,128.178745,37.993563,6174.7520904,-174.361,-71.437,347.444
10.6713,128.178741,37.993584,6169.8527352,-174.303,-71.604,347.388
10.6879,128.178736,37.993604,6164.944236,-174.244,-71.771,347.33
10.7046,128.178732,37.993625,6160.0272024,-174.184,-71.939,347.271
10.7213,128.178727,37.993645,6155.1016344,-174.122,-72.106,347.211
10.7381,128.178723,37.993665,6150.1672272000005,-174.059,-72.274,347.15
10.7548,128.178719,37.993685,6145.2239808,-173.996,-72.441,347.088
10.7715,128.178714,37.993705,6140.2722,-173.93,-72.608,347.024
10.7882,128.17871,37.993725,6135.3118848,-173.864,-72.776,346.959
10.8049,128.178706,37.993744,6130.3430352,-173.796,-72.944,346.893
10.8216,128.178701,37.993764,6125.365651200001,-173.727,-73.111,346.826
10.8383,128.178697,37.993783,6120.379732800001,-173.656,-73.279,346.757
10.855,128.178693,37.993802,6115.3852799999995,-173.584,-73.447,346.686
10.8717,128.178688,37.993822,6110.382292800001,-173.51,-73.614,346.614
10.8883,128.178684,37.993841,6105.371076,-173.435,-73.782,346.541
10.905,128.17868,37.99386,6100.3516296,-173.358,-73.95,346.466
10.9218,128.178675,37.993878,6095.3239536,-173.279,-74.118,346.389
10.9385,128.178671,37.993897,6090.2877432,-173.199,-74.286,346.31
10.9552,128.178667,37.993916,6085.2433032,-173.117,-74.454,346.23
10.9719,128.178663,37.993934,6080.190633600001,-173.033,-74.622,346.148
10.9886,128.178659,37.993952,6075.1297343999995,-172.947,-74.79,346.064
11.0053,128.178654,37.99397,6070.0609104000005,-172.859,-74.958,345.979
11.022,128.17865,37.993988,6064.9838568000005,-172.769,-75.126,345.891
11.0387,128.178646,37.994006,6059.8988784,-172.677,-75.294,345.801
11.0554,128.178642,37.994024,6054.805670400001,-172.583,-75.462,345.709
11.072,128.178638,37.994042,6049.704537600001,-172.486,-75.631,345.614
11.0887,128.178634,37.994059,6044.59548,-172.388,-75.799,345.518
11.1054,128.17863,37.994077,6039.478497600001,-172.286,-75.967,345.419
11.1222,128.178626,37.994094,6034.3535904,-172.183,-76.136,345.317
11.1389,128.178622,37.994111,6029.221063200001,-172.076,-76.304,345.213
11.1556,128.178618,37.994128,6024.080306400001,-171.967,-76.472,345.106
11.1723,128.178614,37.994145,6018.9322344,-171.856,-76.641,344.997
11.189,128.17861,37.994162,6013.776237600001,-171.741,-76.809,344.884
11.2057,128.178606,37.994178,6008.6126208,-171.623,-76.977,344.769
11.2224,128.178602,37.994195,6003.441079200001,-171.502,-77.146,344.651
11.2391,128.178598,37.994211,5998.262222400001,-171.378,-77.314,344.529
11.2557,128.178594,37.994227,5993.0757456,-171.251,-77.483,344.404
11.2724,128.17859,37.994243,5987.8816488,-171.12,-77.651,344.275
11.2891,128.178586,37.994259,5982.679932,-170.985,-77.82,344.143
11.3059,128.178582,37.994275,5977.4709,-170.846,-77.988,344.007
11.3226,128.178578,37.994291,5972.2545528,-170.704,-78.157,343.867
11.3393,128.178574,37.994306,5967.0308904,-170.557,-78.325,343.722
11.356,128.178571,37.994322,5961.799608,-170.406,-78.494,343.574
11.3727,128.178567,37.994337,5956.5613152000005,-170.25,-78.662,343.421
11.3894,128.178563,37.994352,5951.3154024,-170.09,-78.831,343.263
11.4061,128.178559,37.994367,5946.062479200001,-169.924,-78.999,343.1
11.4228,128.178555,37.994382,5940.8025456000005,-169.754,-79.167,342.932
11.4394,128.178552,37.994397,5935.535296800001,-169.578,-79.336,342.759
11.4561,128.178548,37.994411,5930.2610376,-169.396,-79.504,342.58
11.4728,128.178544,37.994426,5924.9794632,-169.208,-79.672,342.394
11.4896,128.178541,37.99444,5919.6911832000005,-169.014,-79.841,342.203
11.5063,128.178537,37.994454,5914.395892800001,-168.814,-80.009,342.005
11.523,128.178533,37.994469,5909.093592,-168.606,-80.177,341.8
11.5397,128.17853,37.994482,5903.7845856,-168.391,-80.345,341.588
11.5564,128.178526,37.994496,5898.468568800001,-168.168,-80.513,341.368
11.5731,128.178522,37.99451,5893.145846400001,-167.938,-80.681,341.141
11.5898,128.178519,37.994523,5887.8161136,-167.698,-80.849,340.904
11.6065,128.178515,37.994537,5882.47998,-167.45,-81.017,340.659
11.6231,128.178512,37.99455,5877.1371408,-167.192,-81.185,340.404
11.6398,128.178508,37.994563,5871.7872912,-166.924,-81.353,340.139
11.6565,128.178505,37.994576,5866.4313456,-166.646,-81.52,339.863
11.6733,128.178501,37.994589,5861.0686944,-166.356,-81.687,339.576
11.69,128.178498,37.994602,5855.699337600001,-166.054,-81.855,339.277
11.7067,128.178494,37.994614,5850.3238848,-165.739,-82.022,338.965
11.7234,128.178491,37.994627,5844.9417264,-165.411,-82.189,338.64
11.7401,128.178487,37.994639,5839.5534720000005,-165.068,-82.355,338.3
11.7568,128.178484,37.994651,5834.158512,-164.71,-82.522,337.945
11.7735,128.178481,37.994663,5828.757760800001,-164.336,-82.688,337.574
11.7902,128.178477,37.994675,5823.3503040000005,-163.944,-82.854,337.185
11.8068,128.178474,37.994687,5817.937056000001,-163.533,-83.02,336.777
11.8235,128.178471,37.994698,5812.5174072,-163.102,-83.185,336.35
11.8402,128.178467,37.99471,5807.0919672,-162.649,-83.35,335.9
11.857,128.178464,37.994721,5801.6601264,-162.174,-83.515,335.428
11.8737,128.178461,37.994732,5796.2224944,-161.673,-83.679,334.93
11.8904,128.178458,37.994743,5790.7787664,-161.146,-83.843,334.406
11.9071,128.178454,37.994754,5785.3292472,-160.589,-84.007,333.853
11.9238,128.178451,37.994765,5779.873632000001,-160.001,-84.17,333.268
11.9405,128.178448,37.994775,5774.4125304,-159.38,-84.332,332.65
11.9572,128.178445,37.994786,5768.945332800001,-158.721,-84.494,331.994
11.9739,128.178442,37.994796,5763.4726488,-158.022,-84.655,331.299
11.9905,128.178438,37.994806,5757.9941736,-157.28,-84.815,330.56
12.0072,128.178435,37.994816,5752.510212,-156.49,-84.975,329.774
12.0239,128.178432,37.994826,5747.0204592,-155.649,-85.133,328.935
12.0407,128.178429,37.994835,5741.525524800001,-154.75,-85.29,328.04
12.0574,128.178426,37.994845,5736.0247992,-153.79,-85.447,327.083
12.0741,128.178423,37.994854,5730.5185872,-152.761,-85.602,326.057
12.0908,128.17842,37.994864,5725.0071935999995,-151.657,-85.755,324.957
12.1075,128.178417,37.994873,5719.4903136,-150.469,-85.907,323.773
12.1242,128.178414,37.994882,5713.968252000001,-149.191,-86.057,322.498
12.1409,128.178411,37.994891,5708.440704000001,-147.812,-86.205,321.122
12.1576,128.178408,37.994899,5702.908279200001,-146.32,-86.351,319.635
12.1743,128.178405,37.994908,5697.370368,-144.706,-86.494,318.023
12.1909,128.178402,37.994916,5691.82758,-142.954,-86.634,316.276
12.2076,128.178399,37.994924,5686.279915200001,-141.052,-86.771,314.377
12.2243,128.178396,37.994932,5680.727068800001,-138.983,-86.904,312.311
12.2411,128.178394,37.99494,5675.1690408,-136.73,-87.033,310.062
12.2578,128.178391,37.994948,5669.6064408,-134.277,-87.157,307.612
12.2745,128.178388,37.994956,5664.038964,-131.604,-87.275,304.943
12.2912,128.178385,37.994963,5658.466610400001,-128.695,-87.386,302.037
12.3079,128.178382,37.994971,5652.88938,-125.533,-87.491,298.879
12.3246,128.17838,37.994978,5647.3075776000005,-122.106,-87.587,295.457
12.3413,128.178377,37.994985,5641.7212032,-118.408,-87.674,291.762
12.358,128.178374,37.994992,5636.129952000001,-114.438,-87.751,287.796
12.3746,128.178371,37.994998,5630.534433600001,-110.209,-87.816,283.571
12.3913,128.178369,37.995005,5624.9343432,-105.744,-87.868,279.109
12.408,128.178366,37.995011,5619.3296808000005,-101.081,-87.907,274.45
12.4248,128.178363,37.995018,5613.721056,-96.271,-87.932,269.644
12.4415,128.178361,37.995024,5608.1075544000005,-91.378,-87.942,264.755
12.4582,128.178358,37.99503,5602.490090400001,-86.472,-87.937,259.852
12.4749,128.178356,37.995036,5596.868359200001,-81.624,-87.916,255.008
12.4916,128.178353,37.995041,5591.242360800001,-76.901,-87.881,250.289
12.5083,128.178351,37.995047,5585.6124,-72.361,-87.832,245.752
12.525,128.178348,37.995052,5579.978172,-68.046,-87.77,241.441
12.5417,128.178345,37.995057,5574.3399816,-63.987,-87.696,237.385
12.5583,128.178343,37.995062,5568.697828800001,-60.199,-87.611,233.6
12.575,128.178341,37.995067,5563.0517136,-56.687,-87.516,230.09
12.5917,128.178338,37.995072,5557.4019408,-53.446,-87.412,226.852
12.6085,128.178336,37.995077,5551.748205600001,-50.466,-87.3,223.875
12.6252,128.178333,37.995081,5546.0908128,-47.731,-87.182,221.143
12.6419,128.178331,37.995085,5540.4294576,-45.226,-87.057,218.64
12.6586,128.178328,37.995089,5534.7647496,-42.932,-86.927,216.348
12.6753,128.178326,37.995093,5529.096384,-40.831,-86.792,214.249
12.692,128.178324,37.995097,5523.424360800001,-38.908,-86.652,212.327
12.7087,128.178322,37.995101,5517.7489848,-37.145,-86.509,210.565
12.7254,128.178319,37.995104,5512.070256000001,-35.527,-86.363,208.949
12.742,128.178317,37.995108,5506.388174400001,-34.041,-86.213,207.463
12.7587,128.178315,37.995111,5500.7024352,-32.673,-86.061,206.096
12.7754,128.178312,37.995114,5495.013648,-31.414,-85.906,204.837
12.7922,128.17831,37.995117,5489.3218128,-30.253,-85.75,203.676
12.8089,128.178308,37.995119,5483.626624800001,-29.18,-85.591,202.603
12.8256,128.178306,37.995122,5477.9283888,-28.187,-85.431,201.609
12.8423,128.178304,37.995124,5472.2271048,-27.265,-85.269,200.687
12.859,128.178302,37.995127,5466.523077600001,-26.409,-85.106,199.831
12.8757,128.1783,37.995129,5460.815697600001,-25.612,-84.941,199.032
12.8924,128.178297,37.995131,5455.1058792,-24.867,-84.775,198.287
12.9091,128.178295,37.995133,5449.3930128,-24.171,-84.609,197.59
12.9257,128.178293,37.995134,5443.6774032,-23.518,-84.441,196.937
12.9424,128.178291,37.995136,5437.959050400001,-22.904,-84.273,196.322
12.9591,128.178289,37.995137,5432.2382592,-22.326,-84.104,195.744
12.9759,128.178287,37.995138,5426.514724800001,-21.781,-83.934,195.198
12.9926,128.178285,37.995139,5420.788752,-21.265,-83.764,194.681
13.0093,128.178283,37.99514,5415.060340800001,-20.775,-83.593,194.191
13.026,128.178282,37.99514,5409.3294912,-20.31,-83.422,193.726
13.0427,128.17828,37.995141,5403.5962032,-19.866,-83.25,193.282
13.0594,128.178278,37.995141,5397.8607816,-19.443,-83.078,192.859
13.0761,128.178276,37.995141,5392.1229216,-19.038,-82.905,192.454
13.0928,128.178274,37.995142,5386.383232800001,-18.65,-82.732,192.066
13.1095,128.178272,37.995141,5380.641105600001,-18.277,-82.559,191.693
13.1262,128.17827,37.995141,5374.8971496,-17.918,-82.386,191.334
13.1429,128.178269,37.995141,5369.15106,-17.572,-82.212,190.988
13.1596,128.178267,37.99514,5363.403141600001,-17.238,-82.038,190.653
13.1763,128.178265,37.995139,5357.6533944,-16.914,-81.864,190.33
13.193,128.178263,37.995138,5351.9015136,-16.601,-81.69,190.016
13.2097,128.178262,37.995137,5346.1484136,-16.296,-81.516,189.712
13.2264,128.17826,37.995136,5340.39318,-16.0,-81.342,189.416
13.2431,128.178258,37.995134,5334.6364224,-15.712,-81.167,189.128
13.2598,128.178257,37.995133,5328.8781408,-15.432,-80.992,188.847
13.2765,128.178255,37.995131,5323.11864,-15.158,-80.818,188.574
13.2932,128.178254,37.995129,5317.357310400001,-14.891,-80.643,188.306
13.3099,128.178252,37.995127,5311.594761599999,-14.629,-80.468,188.045
13.3266,128.17825,37.995125,5305.8309936,-14.374,-80.293,187.79
13.3433,128.178249,37.995122,5300.0657016000005,-14.124,-80.117,187.54
13.36,128.178247,37.99512,5294.2994952,-13.88,-79.942,187.295
13.3767,128.178246,37.995117,5288.532069600001,-13.64,-79.767,187.056
13.3934,128.178244,37.995114,5282.7634248,-13.406,-79.591,186.821
13.4101,128.178243,37.995111,5276.9938656,-13.176,-79.415,186.591
13.4268,128.178241,37.995108,5271.223392000001,-12.951,-79.24,186.366
13.4435,128.17824,37.995104,5265.452004,-12.731,-79.064,186.146
13.4602,128.178239,37.995101,5259.679701600001,-12.515,-78.888,185.93
13.4769,128.178237,37.995097,5253.9067896,-12.304,-78.711,185.719
13.4936,128.178236,37.995093,5248.1329632,-12.097,-78.535,185.512
13.5103,128.178235,37.995089,5242.358832,-11.895,-78.359,185.309
13.527,128.178233,37.995085,5236.5837864000005,-11.698,-78.182,185.112
13.5437,128.178232,37.995081,5230.808436,-11.506,-78.005,184.919
13.5604,128.178231,37.995076,5225.032476,-11.319,-77.828,184.731
13.5771,128.178229,37.995071,5219.2565159999995,-11.137,-77.651,184.549
13.5938,128.178228,37.995067,5213.479946400001,-10.961,-77.474,184.372
13.6105,128.178227,37.995061,5207.703072,-10.791,-77.296,184.201
13.6272,128.178226,37.995056,5201.926197600001,-10.627,-77.118,184.036
13.6439,128.178225,37.995051,5196.1490184,-10.47,-76.94,183.877
13.6606,128.178223,37.995045,5190.3718392,-10.319,-76.762,183.725
13.6773,128.178222,37.99504,5184.594660000001,-10.175,-76.583,183.579
13.694,128.178221,37.995034,5178.8174808,-10.036,-76.404,183.438
13.7107,128.17822,37.995028,5173.040301600001,-9.903,-76.225,183.303
13.7274,128.178219,37.995022,5167.263732,-9.774,-76.046,183.173
13.7441,128.178218,37.995015,5161.4871624,-9.649,-75.867,183.047
13.7608,128.178217,37.995009,5155.710897600001,-9.527,-75.687,182.925
13.7775,128.178216,37.995002,5149.934937600001,-9.408,-75.507,182.807
13.7942,128.178215,37.994995,5144.159587200001,-9.291,-75.327,182.691
13.8109,128.178214,37.994988,5138.3845416,-9.176,-75.147,182.579
13.8276,128.178213,37.994981,5132.610410400001,-9.062,-74.967,182.468
13.8443,128.178212,37.994973,5126.836584000001,-8.951,-74.787,182.361
13.861,128.178211,37.994966,5121.063672,-8.843,-74.606,182.256
13.8777,128.17821,37.994958,5115.2916744,-8.736,-74.426,182.153
13.8944,128.17821,37.99495,5109.5202864,-8.631,-74.245,182.053
13.9111,128.178209,37.994942,5103.7498128,-8.529,-74.065,181.955
13.9278,128.178208,37.994934,5097.9805584000005,-8.429,-73.884,181.86
13.9445,128.178207,37.994926,5092.2122184,-8.33,-73.703,181.767
13.9612,128.178206,37.994917,5086.444792800001,-8.234,-73.521,181.676
13.9779,128.178206,37.994908,5080.6788912,-8.14,-73.34,181.587
13.9946,128.178205,37.9949,5074.9142088,-8.047,-73.159,181.5
14.0113,128.178204,37.99489,5069.1507456,-7.956,-72.977,181.415
14.028,128.178204,37.994881,5063.3885016,-7.867,-72.796,181.332
14.0447,128.178203,37.994872,5057.6280864,-7.78,-72.614,181.251
14.0614,128.178202,37.994862,5051.8688904,-7.694,-72.432,181.172
14.0781,128.178202,37.994853,5046.1112184,-7.61,-72.25,181.094
14.0948,128.178201,37.994843,5040.3553752,-7.527,-72.068,181.018
14.1115,128.178201,37.994833,5034.6013608,-7.446,-71.886,180.944
14.1282,128.1782,37.994822,5028.8491752,-7.366,-71.703,180.872
14.1449,128.1782,37.994812,5023.0985136,-7.288,-71.521,180.801
14.1616,128.178199,37.994801,5017.3499856,-7.211,-71.338,180.731
14.1783,128.178199,37.994791,5011.603591200001,-7.135,-71.155,180.663
14.195,128.178198,37.99478,5005.8590256,-7.06,-70.973,180.597
14.2117,128.178198,37.994769,5000.1168984,-6.987,-70.79,180.531
14.2284,128.178197,37.994758,4994.3766000000005,-6.915,-70.607,180.468
14.2451,128.178197,37.994746,4988.63874,-6.844,-70.424,180.405
14.2618,128.178197,37.994735,4982.9033184,-6.775,-70.24,180.344
14.2785,128.178196,37.994723,4977.1703352,-6.706,-70.057,180.284
14.2952,128.178196,37.994711,4971.4394856,-6.639,-69.874,180.225
14.3119,128.178196,37.994699,4965.711684,-6.573,-69.69,180.167
14.3286,128.178195,37.994687,4959.986016,-6.507,-69.506,180.111
14.3453,128.178195,37.994674,4954.263396,-6.443,-69.323,180.056
14.362,128.178195,37.994662,4948.5435192,-6.38,-69.139,180.001
14.3787,128.178195,37.994649,4942.8263856,-6.318,-68.955,179.948
14.3954,128.178194,37.994636,4937.1119952,-6.256,-68.771,179.896
14.4121,128.178194,37.994623,4931.4006528,-6.196,-68.587,179.845
14.4288,128.178194,37.994609,4925.6923584,-6.136,-68.403,179.795
14.4455,128.178194,37.994596,4919.987416800001,-6.077,-68.219,179.746
14.4622,128.178194,37.994582,4914.2852184,-6.019,-68.035,179.698
14.4789,128.178194,37.994569,4908.5866776,-5.962,-67.85,179.651
14.4956,128.178194,37.994555,4902.891184800001,-5.906,-67.666,179.605
14.5123,128.178194,37.994541,4897.1990448,-5.85,-67.482,179.559
14.529,128.178194,37.994526,4891.510562400001,-5.796,-67.297,179.515
14.5457,128.178194,37.994512,4885.8254328,-5.742,-67.113,179.471
14.5624,128.178194,37.994497,4880.1439608,-5.688,-66.928,179.428
14.5791,128.178194,37.994482,4874.4661464,-5.636,-66.743,179.386
14.5958,128.178194,37.994467,4868.7922944,-5.584,-66.558,179.345
14.6125,128.178194,37.994452,4863.121795200001,-5.533,-66.373,179.304
14.6292,128.178194,37.994437,4857.4555632,-5.482,-66.189,179.264
14.6459,128.178194,37.994422,4851.7929888,-5.432,-66.003,179.225
14.6626,128.178195,37.994406,4846.1346816000005,-5.383,-65.818,179.187
14.6793,128.178195,37.99439,4840.480032,-5.334,-65.633,179.149
14.696,128.178195,37.994374,4834.8299544,-5.286,-65.448,179.112
14.7127,128.178195,37.994358,4829.1838392,-5.238,-65.262,179.076
14.7294,128.178195,37.994342,4823.5422960000005,-5.192,-65.077,179.04
14.7461,128.178196,37.994325,4817.90502,-5.145,-64.892,179.005
14.7628,128.178196,37.994309,4812.272011200001,-5.099,-64.706,178.971
14.7795,128.178196,37.994292,4806.6435744,-5.054,-64.52,178.937
14.7962,128.178197,37.994275,4801.0197096,-5.009,-64.334,178.904
14.8129,128.178197,37.994258,4795.4007216,-4.965,-64.149,178.871
14.8296,128.178197,37.99424,4789.786000800001,-4.921,-63.963,178.839
14.8463,128.178198,37.994223,4784.1764616,-4.878,-63.777,178.808
14.863,128.178198,37.994205,4778.5714944,-4.835,-63.591,178.777
14.8797,128.178199,37.994187,4772.9717088,-4.793,-63.404,178.747
14.8964,128.178199,37.994169,4767.3768,-4.751,-63.218,178.717
14.9131,128.1782,37.994151,4761.7870728,-4.71,-63.032,178.688
14.9298,128.1782,37.994133,4756.2025272,-4.669,-62.846,178.659
14.9465,128.178201,37.994114,4750.6228584,-4.629,-62.659,178.631
14.9632,128.178201,37.994096,4745.048676,-4.588,-62.473,178.603
14.9799,128.178202,37.994077,4739.47998,-4.549,-62.286,178.576
14.9966,128.178202,37.994058,4733.9164656,-4.509,-62.099,178.549
