Time,Longitude,Latitude,Altitude,Roll (deg),Pitch (deg),Yaw (deg)
0.0,128.181881,37.923646,7000.146528,0.0,-0.003,0.0
0.0167,128.181881,37.923691,7000.1605488000005,0.0,-0.012,0.0
0.0334,128.181881,37.923736,7000.174874400001,-0.087,-0.025,359.988
0.0501,128.181881,37.923781,7000.189504800001,-0.258,-0.041,359.965
0.0668,128.181881,37.923826,7000.20444,-0.516,-0.058,359.935
0.0834,128.181881,37.92387,7000.218156000001,-0.689,-0.076,359.925
0.1002,128.181881,37.923915,7000.2312624,-0.783,-0.095,359.936
0.1169,128.181881,37.92396,7000.2428448,-0.79,-0.114,359.96
0.1336,128.181881,37.924005,7000.2525984,-0.702,-0.133,359.993
0.1503,128.181881,37.92405,7000.2605232000005,-0.518,-0.152,0.029
0.1669,128.181881,37.924095,7000.266009600001,-0.237,-0.172,0.067
0.1837,128.181881,37.92414,7000.2687528,0.137,-0.192,0.104
0.2004,128.181881,37.924185,7000.2702768,0.429,-0.21,0.118
0.2171,128.181881,37.92423,7000.270581600001,0.64,-0.227,0.108
0.2338,128.181881,37.924275,7000.2696672,0.76,-0.244,0.083
0.2505,128.181881,37.924321,7000.268448,0.783,-0.262,0.05
0.2672,128.181881,37.924366,7000.2669240000005,0.703,-0.279,0.012
0.2839,128.181881,37.924411,7000.2657048,0.523,-0.297,359.974
0.3006,128.181881,37.924456,7000.2647904000005,0.243,-0.314,359.935
0.3172,128.181881,37.924501,7000.2647904000005,-0.131,-0.331,359.897
0.3339,128.181881,37.924546,7000.263876,-0.424,-0.346,359.884
0.3507,128.181881,37.924591,7000.262352000001,-0.636,-0.36,359.894
0.3674,128.181881,37.924636,7000.2599136,-0.756,-0.374,359.919
0.3841,128.181881,37.924681,7000.255951200001,-0.778,-0.389,359.953
0.4008,128.181881,37.924726,7000.249855200001,-0.699,-0.404,359.991
0.4175,128.181881,37.924771,7000.2419304000005,-0.517,-0.42,0.029
0.4342,128.181881,37.924816,7000.2315672,-0.236,-0.437,0.068
0.4509,128.181881,37.924861,7000.218156000001,0.14,-0.453,0.105
0.4676,128.181881,37.924907,7000.2035256,0.434,-0.468,0.119
0.4843,128.181881,37.924952,7000.1876760000005,0.647,-0.482,0.109
0.501,128.181881,37.924997,7000.1706072,0.769,-0.496,0.084
0.5176,128.181881,37.925042,7000.152928800001,0.791,-0.51,0.05
0.5344,128.181881,37.925087,7000.134945600001,0.712,-0.525,0.013
0.5511,128.181881,37.925132,7000.1172672,0.53,-0.541,359.974
0.5678,128.181881,37.925177,7000.0995888,0.249,-0.556,359.936
0.5845,128.181881,37.925223,7000.0831296,-0.128,-0.571,359.898
0.6012,128.181881,37.925268,7000.065451200001,-0.422,-0.584,359.885
0.6179,128.181881,37.925313,7000.0471632,-0.635,-0.595,359.895
0.6345,128.181881,37.925358,7000.027656000001,-0.756,-0.607,359.921
0.6513,128.181881,37.925403,7000.0069296,-0.777,-0.619,359.955
0.6679,128.181881,37.925449,6999.984069600001,-0.697,-0.633,359.992
0.6847,128.181881,37.925494,6999.959076,-0.514,-0.647,0.031
0.7014,128.181881,37.925539,6999.931644,-0.23,-0.662,0.069
0.7181,128.181881,37.925584,6999.901468800001,0.149,-0.677,0.106
0.7348,128.181881,37.92563,6999.869769600001,0.445,-0.691,0.12
0.7514,128.181881,37.925675,6999.836851200001,0.659,-0.703,0.109
0.7682,128.181881,37.92572,6999.8027136,0.782,-0.715,0.084
0.7848,128.181881,37.925765,6999.7679664,0.804,-0.728,0.05
0.8016,128.181881,37.925811,6999.7329144000005,0.725,-0.741,0.013
0.8183,128.181881,37.925856,6999.6981672,0.542,-0.756,359.975
0.835,128.181881,37.925901,6999.663420000001,0.26,-0.77,359.937
0.8517,128.181881,37.925946,6999.629587200001,-0.119,-0.784,359.9
0.8684,128.181881,37.925992,6999.59484,-0.415,-0.796,359.887
0.8851,128.181881,37.926037,6999.559178400001,-0.628,-0.806,359.897
0.9018,128.181881,37.926082,6999.522602399999,-0.749,-0.816,359.923
0.9185,128.181881,37.926128,6999.4845024,-0.77,-0.827,359.957
0.9352,128.181881,37.926173,6999.444573600001,-0.689,-0.84,359.994
0.9519,128.181881,37.926218,6999.402511200001,-0.504,-0.853,0.033
0.9686,128.181881,37.926264,6999.3577056,-0.218,-0.867,0.071
0.9853,128.181881,37.926309,6999.310156800001,0.163,-0.882,0.108
1.002,128.181881,37.926354,6999.2613888,0.462,-0.895,0.121
1.0187,128.181881,37.9264,6999.211096800001,0.677,-0.906,0.11
1.0353,128.181881,37.926445,6999.1598904,0.801,-0.917,0.085
1.0521,128.181881,37.926491,6999.107769600001,0.824,-0.93,0.051
1.0688,128.181881,37.926536,6999.055344,0.744,-0.943,0.014
1.0855,128.181881,37.926581,6999.0032232,0.56,-0.956,359.976
1.1022,128.181881,37.926627,6998.9514072,0.276,-0.97,359.938
1.1189,128.181881,37.926672,6998.900200800001,-0.104,-0.984,359.901
1.1356,128.181881,37.926718,6998.84808,-0.401,-0.995,359.889
1.1522,128.181881,37.926763,6998.7953496,-0.615,-1.005,359.899
1.169,128.181881,37.926809,6998.741400000001,-0.736,-1.014,359.925
1.1857,128.181881,37.926854,6998.6859264,-0.757,-1.024,359.959
1.2024,128.181881,37.926899,6998.628624000001,-0.674,-1.036,359.996
1.2191,128.181881,37.926945,6998.569188,-0.488,-1.049,0.035
1.2358,128.181881,37.92699,6998.5073136,-0.2,-1.063,0.072
1.2525,128.181881,37.927036,6998.4423912,0.184,-1.078,0.109
1.2691,128.181881,37.927081,6998.376554400001,0.484,-1.09,0.122
1.2859,128.181881,37.927127,6998.3091936,0.702,-1.101,0.111
1.3026,128.181881,37.927172,6998.2406136,0.826,-1.111,0.086
1.3193,128.181881,37.927218,6998.171424000001,0.849,-1.123,0.052
1.3359,128.181881,37.927263,6998.1019295999995,0.768,-1.136,0.015
1.3527,128.181881,37.927309,6998.0324352,0.584,-1.149,359.977
1.3694,128.181881,37.927354,6997.9632456,0.299,-1.163,359.939
1.386,128.181881,37.9274,6997.894970400001,-0.084,-1.177,359.903
1.4028,128.181881,37.927446,6997.825476,-0.382,-1.188,359.89
1.4195,128.181881,37.927491,6997.7556768,-0.597,-1.197,359.901
1.4362,128.181881,37.927537,6997.6843536,-0.718,-1.205,359.927
1.4528,128.181881,37.927582,6997.611811200001,-0.738,-1.215,359.961
1.4696,128.181881,37.927628,6997.53744,-0.654,-1.226,359.999
1.4863,128.181881,37.927673,6997.4609352,-0.466,-1.238,0.037
1.5029,128.181881,37.927719,6997.381687200001,-0.176,-1.252,0.074
1.5197,128.181881,37.927765,6997.299696,0.211,-1.267,0.11
1.5364,128.181881,37.92781,6997.2167904,0.513,-1.279,0.123
1.5531,128.181881,37.927856,6997.132360800001,0.732,-1.289,0.112
1.5697,128.181881,37.927901,6997.046712,0.857,-1.299,0.086
1.5865,128.181881,37.927947,6996.9604536,0.88,-1.311,0.053
1.6032,128.181881,37.927993,6996.8738904,0.799,-1.323,0.016
1.6198,128.181881,37.928038,6996.787327200001,0.614,-1.337,359.978
1.6366,128.181881,37.928084,6996.701068800001,0.327,-1.35,359.941
1.6533,128.181881,37.92813,6996.615724800001,-0.058,-1.364,359.905
1.67,128.181881,37.928175,6996.5294664,-0.357,-1.375,359.892
1.6867,128.181881,37.928221,6996.4422936,-0.573,-1.383,359.904
1.7034,128.181881,37.928267,6996.354206400001,-0.695,-1.391,359.93
1.7201,128.181881,37.928313,6996.2645952,-0.714,-1.399,359.964
1.7368,128.181881,37.928358,6996.173460000001,-0.629,-1.41,0.001
1.7535,128.181881,37.928404,6996.079886400001,-0.439,-1.422,0.039
1.7702,128.181882,37.92845,6995.983874400001,-0.147,-1.435,0.076
1.7869,128.181882,37.928495,6995.8848144,0.243,-1.45,0.112
1.8036,128.181882,37.928541,6995.78484,0.547,-1.462,0.124
1.8203,128.181882,37.928587,6995.683646400001,0.767,-1.472,0.113
1.837,128.181882,37.928633,6995.580928800001,0.893,-1.482,0.087
1.8537,128.181882,37.928679,6995.4779064,0.917,-1.493,0.054
1.8704,128.181882,37.928724,6995.374579200001,0.835,-1.505,0.017
1.8871,128.181882,37.92877,6995.2712520000005,0.649,-1.519,359.979
1.9038,128.181882,37.928816,6995.1682296,0.36,-1.533,359.942
1.9205,128.181882,37.928862,6995.0658168,-0.027,-1.547,359.906
1.9372,128.181882,37.928908,6994.9627944,-0.328,-1.557,359.895
1.9539,128.181882,37.928953,6994.8588576,-0.544,-1.565,359.906
1.9706,128.181882,37.928999,6994.7540064,-0.666,-1.572,359.932
1.9873,128.181882,37.929045,6994.6476312,-0.685,-1.579,359.966
2.004,128.181882,37.929091,6994.5394272,-0.599,-1.589,0.003
2.0207,128.181882,37.929137,6994.4293944,-0.407,-1.601,0.041
2.0374,128.181882,37.929183,6994.3166184,-0.112,-1.614,0.078
2.0541,128.181882,37.929228,6994.2010992000005,0.28,-1.628,0.113
2.0707,128.181882,37.929274,6994.0843608000005,0.587,-1.639,0.125
2.0875,128.181882,37.92932,6993.9664032,0.809,-1.649,0.114
2.1042,128.181882,37.929366,6993.8472264,0.935,-1.659,0.088
2.1208,128.181882,37.929412,6993.7277448,0.959,-1.67,0.054
2.1376,128.181882,37.929458,6993.6076536,0.877,-1.682,0.018
2.1543,128.181882,37.929504,6993.4875624,0.689,-1.695,359.98
2.171,128.181882,37.92955,6993.3680808,0.398,-1.709,359.944
2.1877,128.181882,37.929596,6993.2492088,0.009,-1.723,359.908
2.2044,128.181882,37.929642,6993.1294224,-0.293,-1.733,359.897
2.2211,128.181882,37.929688,6993.0090264,-0.51,-1.741,359.908
2.2378,128.181882,37.929734,6992.887716,-0.632,-1.747,359.935
2.2544,128.181882,37.92978,6992.7648816,-0.651,-1.754,359.969
2.2712,128.181882,37.929826,6992.640218400001,-0.563,-1.763,0.006
2.2879,128.181882,37.929872,6992.5134216,-0.369,-1.774,0.043
2.3045,128.181882,37.929918,6992.3841864000005,-0.072,-1.786,0.08
2.3213,128.181882,37.929964,6992.2525128,0.323,-1.799,0.115
2.338,128.181882,37.93001,6992.11962,0.632,-1.81,0.127
2.3546,128.181882,37.930056,6991.9852032,0.856,-1.819,0.115
2.3714,128.181882,37.930102,6991.8495672,0.983,-1.829,0.089
2.3881,128.181882,37.930148,6991.7136264,1.007,-1.839,0.055
2.4048,128.181882,37.930194,6991.5773808,0.924,-1.851,0.019
2.4215,128.181882,37.93024,6991.4411352,0.735,-1.865,359.982
2.4382,128.181882,37.930286,6991.3051944,0.443,-1.879,359.945
2.4549,128.181882,37.930332,6991.170168000001,0.051,-1.893,359.91
2.4716,128.181882,37.930378,6991.036056000001,-0.436,-1.907,359.876
2.4882,128.181882,37.930424,6990.9013343999995,-0.831,-1.918,359.866
2.505,128.181882,37.93047,6990.766308,-1.136,-1.925,359.879
2.5217,128.181882,37.930516,6990.630672,-1.341,-1.933,359.907
2.5383,128.181882,37.930563,6990.4938168,-1.438,-1.941,359.942
2.5551,128.181882,37.930609,6990.355437600001,-1.425,-1.952,359.98
2.5718,128.181882,37.930655,6990.2152295999995,-1.301,-1.963,0.018
2.5884,128.181882,37.930701,6990.0731928000005,-1.07,-1.976,0.055
2.6052,128.181882,37.930747,6989.9284128,-0.736,-1.989,0.091
2.6219,128.181883,37.930793,6989.7808896,-0.303,-2.003,0.126
2.6386,128.181883,37.930839,6989.632452000001,0.038,-2.012,0.137
2.6553,128.181883,37.930886,6989.482490400001,0.294,-2.017,0.125
2.6719,128.181883,37.930932,6989.331614400001,0.451,-2.02,0.099
2.6887,128.181883,37.930978,6989.180128800001,0.502,-2.024,0.065
2.7054,128.181883,37.931024,6989.0280336000005,0.444,-2.03,0.028
2.722,128.181883,37.931071,6988.876243199999,0.278,-2.037,359.991
2.7388,128.181883,37.931117,6988.7250624,0.007,-2.045,359.955
2.7555,128.181883,37.931163,6988.5741864,-0.364,-2.055,359.921
2.7721,128.181883,37.931209,6988.4248344,-0.832,-2.064,359.887
2.7889,128.181883,37.931255,6988.274568000001,-1.209,-2.071,359.877
2.8056,128.181883,37.931302,6988.123996800001,-1.496,-2.079,359.89
2.8222,128.181883,37.931348,6987.9728159999995,-1.683,-2.087,359.918
2.839,128.181883,37.931394,6987.820416,-1.762,-2.097,359.953
2.8557,128.181883,37.931441,6987.666492,-1.73,-2.109,359.99
2.8724,128.181883,37.931487,6987.511044,-1.588,-2.121,0.028
2.8891,128.181883,37.931533,6987.3534624,-1.339,-2.134,0.065
2.9057,128.181883,37.93158,6987.1931376,-0.987,-2.148,0.1
2.9225,128.181883,37.931626,6987.030374400001,-0.537,-2.162,0.134
2.9392,128.181883,37.931672,6986.866696800001,-0.178,-2.17,0.145
2.9558,128.181883,37.931719,6986.7014952,0.091,-2.174,0.132
2.9726,128.181883,37.931765,6986.5353792000005,0.261,-2.175,0.106
2.9893,128.181883,37.931811,6986.3686536000005,0.323,-2.176,0.072
3.0059,128.181883,37.931858,6986.2016232000005,0.276,-2.179,0.035
3.0227,128.181883,37.931904,6986.034592800001,0.119,-2.184,359.998
3.0394,128.181883,37.93195,6985.868172,-0.143,-2.191,359.963
3.056,128.181883,37.931997,6985.702360800001,-0.509,-2.198,359.928
3.0728,128.181883,37.932043,6985.537768800001,-0.972,-2.205,359.895
3.0895,128.181883,37.93209,6985.3722624,-1.343,-2.212,359.885
3.1062,128.181883,37.932136,6985.2067560000005,-1.623,-2.219,359.898
3.1229,128.181883,37.932182,6985.0403352,-1.803,-2.228,359.926
3.1395,128.181883,37.932229,6984.8730000000005,-1.874,-2.239,359.961
3.1563,128.181883,37.932275,6984.7044456,-1.835,-2.251,359.998
3.173,128.181883,37.932322,6984.5340624,-1.685,-2.264,0.035
3.1896,128.181883,37.932368,6984.3612408,-1.427,-2.278,0.072
3.2064,128.181883,37.932415,6984.186590400001,-1.067,-2.292,0.107
3.2231,128.181883,37.932461,6984.008892000001,-0.608,-2.307,0.14
3.2397,128.181883,37.932508,6983.8302792,-0.241,-2.315,0.15
3.2565,128.181883,37.932554,6983.650447200001,0.034,-2.318,0.137
3.2732,128.181883,37.932601,6983.4697008,0.209,-2.319,0.11
3.2899,128.181883,37.932647,6983.2883448,0.275,-2.32,0.076
3.3066,128.181883,37.932694,6983.1072936,0.231,-2.306,0.04
3.3233,128.181883,37.93274,6982.9268520000005,0.075,-2.264,0.003
3.34,128.181883,37.932787,6982.7482392,-0.186,-2.178,359.968
3.3567,128.181884,37.932834,6982.571760000001,-0.551,-2.036,359.933
3.3734,128.181884,37.93288,6982.398328800001,-1.015,-1.827,359.898
3.3901,128.181884,37.932927,6982.2264216,-1.385,-1.563,359.885
3.4068,128.181884,37.932973,6982.0563432,-1.664,-1.264,359.892
3.4235,128.181884,37.93302,6981.8883984,-1.842,-0.945,359.912
3.4402,128.181884,37.933066,6981.7222824,-1.91,-0.624,359.938
3.4569,128.181884,37.933113,6981.5576904,-1.867,-0.32,359.966
3.4736,128.181884,37.93316,6981.3943176,-1.715,-0.049,359.994
3.4903,128.181884,37.933206,6981.235212,-1.642,0.2,0.0
3.507,128.181884,37.933253,6981.079764,-1.646,0.442,359.983
3.5237,128.181884,37.933299,6980.928888,-1.738,0.689,359.952
3.5404,128.181884,37.933346,6980.7838032,-1.925,0.954,359.913
3.5571,128.181884,37.933393,6980.6448144000005,-2.209,1.25,359.87
3.5738,128.181884,37.933439,6980.510397600001,-2.407,1.56,359.847
3.5905,128.181884,37.933486,6980.3808576,-2.521,1.868,359.844
3.6072,128.181884,37.933533,6980.2564992,-2.543,2.157,359.856
3.6239,128.181884,37.933579,6980.136408,-2.466,2.409,359.875
3.6406,128.181884,37.933626,6980.020279200001,-2.289,2.608,359.9
3.6573,128.181884,37.933673,6979.907808,-2.013,2.738,359.928
3.674,128.181884,37.933719,6979.79808,-1.64,2.783,359.958
3.6907,128.181883,37.933766,6979.6904856,-1.174,2.74,359.99
3.7074,128.181883,37.933813,6979.5853296,-0.619,2.625,0.023
3.7241,128.181883,37.93386,6979.4832216,-0.161,2.454,0.035
3.7408,128.181883,37.933906,6979.383856800001,0.203,2.246,0.026
3.7575,128.181883,37.933953,6979.28754,0.466,2.017,0.003
3.7742,128.181883,37.934,6979.194576,0.623,1.785,359.972
3.7909,128.181883,37.934047,6979.104660000001,0.672,1.567,359.938
3.8076,128.181883,37.934093,6979.018706400001,0.613,1.379,359.904
3.8243,128.181883,37.93414,6978.9336672,0.633,1.211,359.891
3.841,128.181883,37.934187,6978.850456800001,0.73,1.058,359.899
3.8577,128.181883,37.934234,6978.768465600001,0.913,0.915,359.921
3.8744,128.181883,37.93428,6978.6864744,1.189,0.782,359.95
3.8911,128.181883,37.934327,6978.604788000001,1.56,0.657,359.982
3.9078,128.181883,37.934374,6978.5221872,2.027,0.54,0.013
3.9245,128.181883,37.934421,6978.438672,2.588,0.428,0.044
3.9412,128.181883,37.934468,6978.353632800001,3.239,0.323,0.074
3.9579,128.181883,37.934515,6978.2673744,3.979,0.239,0.103
3.9746,128.181883,37.934561,6978.1792872000005,4.802,0.191,0.132
3.9913,128.181883,37.934608,6978.091504800001,5.518,0.195,0.144
4.008,128.181883,37.934655,6978.004027200001,6.131,0.261,0.139
4.0247,128.181883,37.934702,6977.917464,6.631,0.399,0.128
4.0414,128.181883,37.934749,6977.8333391999995,7.012,0.617,0.119
4.058,128.181883,37.934796,6977.7522624,7.272,0.918,0.12
4.0748,128.181883,37.934843,6977.6745384000005,7.412,1.29,0.13
4.0915,128.181883,37.93489,6977.601081600001,7.437,1.719,0.15
4.1082,128.181883,37.934936,6977.5312824,7.537,2.187,0.199
4.1249,128.181883,37.934983,6977.465750400001,7.712,2.678,0.275
4.1415,128.181883,37.93503,6977.4041808,7.97,3.175,0.368
4.1583,128.181883,37.935077,6977.346878400001,8.32,3.659,0.468
4.175,128.181883,37.935124,6977.293538400001,8.762,4.113,0.569
4.1917,128.181884,37.935171,6977.244465600001,9.296,4.524,0.666
4.2084,128.181884,37.935218,6977.199964800001,9.918,4.893,0.76
4.2251,128.181884,37.935265,6977.160950400001,10.624,5.226,0.851
4.2417,128.181884,37.935312,6977.1271176,11.411,5.527,0.94
4.2585,128.181884,37.935359,6977.099076,12.274,5.801,1.028
4.2752,128.181884,37.935406,6977.0768256,13.209,6.052,1.115
4.2919,128.181884,37.935453,6977.0606712,14.214,6.282,1.203
4.3086,128.181884,37.9355,6977.0509176000005,15.286,6.493,1.291
4.3252,128.181885,37.935547,6977.047564800001,16.422,6.689,1.38
4.342,128.181885,37.935594,6977.0509176000005,17.621,6.87,1.471
4.3587,128.181885,37.935641,6977.0603664,18.879,7.038,1.564
4.3754,128.181886,37.935688,6977.0768256,20.196,7.194,1.659
4.3921,128.181886,37.935735,6977.0996856,21.57,7.339,1.756
4.4088,128.181886,37.935782,6977.129556000001,23.0,7.475,1.857
4.4254,128.181887,37.935829,6977.1658272,24.483,7.601,1.96
4.4422,128.181887,37.935876,6977.208804,26.019,7.719,2.066
4.4589,128.181888,37.935923,6977.2581816,27.608,7.829,2.175
4.4756,128.181888,37.935971,6977.31396,29.247,7.93,2.288
4.4923,128.181889,37.936018,6977.3761392,30.936,8.025,2.404
4.5089,128.181889,37.936065,6977.444719200001,32.675,8.113,2.524
4.5256,128.18189,37.936112,6977.5193952,34.463,8.195,2.649
4.5424,128.181891,37.936159,6977.6001672,36.299,8.27,2.778
4.5591,128.181892,37.936206,6977.6864256,38.183,8.341,2.912
4.5758,128.181893,37.936253,6977.7784752,40.114,8.405,3.051
4.5925,128.181894,37.9363,6977.876011200001,42.093,8.464,3.195
4.6091,128.181895,37.936347,6977.978728800001,44.119,8.518,3.345
4.6259,128.181896,37.936394,6978.0863232,46.192,8.567,3.501
4.6426,128.181897,37.936441,6978.1987944,48.312,8.61,3.663
4.6593,128.181898,37.936488,6978.3155328,50.479,8.647,3.831
4.676,128.181899,37.936535,6978.436538400001,52.693,8.679,4.006
4.6927,128.181901,37.936582,6978.561811200001,54.953,8.705,4.187
4.7093,128.181902,37.936629,6978.6904368000005,57.261,8.724,4.376
4.7261,128.181904,37.936676,6978.822415200001,59.616,8.737,4.571
4.7428,128.181905,37.936723,6978.9577464,62.018,8.743,4.774
4.7595,128.181907,37.936771,6979.0958208,64.467,8.741,4.984
4.7762,128.181909,37.936818,6979.236028800001,66.965,8.73,5.202
4.7928,128.181911,37.936865,6979.3786752,69.511,8.711,5.427
4.8096,128.181913,37.936912,6979.5228456,72.105,8.682,5.659
4.8263,128.181915,37.936959,6979.6688448,74.748,8.643,5.898
4.843,128.181917,37.937006,6979.8157584,77.439,8.592,6.145
4.8597,128.181919,37.937053,6979.9635864,80.178,8.527,6.398
4.8764,128.181921,37.9371,6980.112024000001,82.965,8.447,6.659
4.893,128.181924,37.937147,6980.2607664,85.798,8.35,6.925
4.9098,128.181926,37.937194,6980.4088992,88.574,8.243,7.183
4.9265,128.181929,37.937241,6980.556727200001,91.294,8.123,7.419
4.9432,128.181931,37.937289,6980.7036408,93.972,7.993,7.618
4.9599,128.181934,37.937336,6980.8493352000005,96.621,7.853,7.769
4.9765,128.181937,37.937383,6980.9938104,99.252,7.708,7.857
4.9932,128.18194,37.93743,6981.1367616,101.875,7.562,7.87
5.01,128.181942,37.937477,6981.2784936,104.499,7.423,7.798
5.0267,128.181945,37.937524,6981.418396800001,107.136,7.291,7.661
5.0434,128.181948,37.937571,6981.5570808,109.797,7.161,7.477
5.0601,128.181952,37.937619,6981.6942408,112.494,7.031,7.267
5.0767,128.181955,37.937666,6981.8301816,115.236,6.895,7.048
5.0935,128.181958,37.937713,6981.9649032,118.033,6.747,6.835
5.1102,128.181961,37.93776,6982.0987104000005,120.888,6.584,6.63
5.1269,128.181964,37.937807,6982.231908,123.806,6.409,6.433
5.1436,128.181967,37.937855,6982.3641912,126.785,6.223,6.242
5.1602,128.18197,37.937902,6982.496474400001,129.825,6.027,6.057
5.1769,128.181973,37.937949,6982.628148,132.926,5.826,5.874
5.1937,128.181976,37.937996,6982.7598216,136.085,5.62,5.694
5.2104,128.18198,37.938044,6982.8914952000005,139.299,5.414,5.516
5.2271,128.181983,37.938091,6983.0231688,142.563,5.211,5.339
5.2438,128.181986,37.938138,6983.154842400001,145.871,5.011,5.165
5.2604,128.181989,37.938185,6983.286211200001,149.216,4.816,4.996
5.2772,128.181992,37.938233,6983.41758,152.59,4.62,4.836
5.2939,128.181995,37.93828,6983.548644,155.982,4.42,4.69
5.3106,128.181998,37.938327,6983.6784888,159.381,4.213,4.559
5.3273,128.182001,37.938375,6983.8074192,162.773,3.998,4.444
5.3439,128.182005,37.938422,6983.9345207999995,166.145,3.776,4.348
5.3606,128.182008,37.93847,6984.0597935999995,169.483,3.547,4.269
5.3774,128.182011,37.938517,6984.1826280000005,172.776,3.315,4.209
5.3941,128.182014,37.938564,6984.302719200001,176.015,3.08,4.169
5.4108,128.182017,37.938612,6984.4194576,179.188,2.844,4.147
5.4275,128.18202,37.938659,6984.5331479999995,-177.725,2.608,4.132
5.4441,128.182023,37.938707,6984.6431808,-174.745,2.373,4.117
5.4609,128.182026,37.938754,6984.7498608000005,-171.873,2.143,4.095
5.4776,128.18203,37.938801,6984.8525784,-169.111,1.911,4.062
5.4943,128.182033,37.938849,6984.9519432,-166.449,1.68,4.017
5.511,128.182036,37.938896,6985.0473456,-163.876,1.453,3.96
5.5277,128.182039,37.938944,6985.139700000001,-161.38,1.233,3.892
5.5443,128.182042,37.938991,6985.228092,-158.949,1.023,3.814
5.5611,128.182045,37.939039,6985.313436,-156.57,0.825,3.73
5.5778,128.182049,37.939086,6985.3951224,-154.234,0.641,3.639
5.5945,128.182052,37.939134,6985.473456000001,-151.931,0.471,3.544
5.6112,128.182055,37.939181,6985.548436800001,-149.651,0.315,3.446
5.6278,128.182058,37.939229,6985.6200648,-147.386,0.175,3.347
5.6445,128.182061,37.939276,6985.68834,-145.132,0.05,3.248
5.6613,128.182065,37.939324,6985.7532624000005,-142.881,-0.06,3.149
5.678,128.182068,37.939372,6985.814832,-140.63,-0.157,3.052
5.6947,128.182071,37.939419,6985.872744,-138.377,-0.241,2.957
5.7114,128.182074,37.939467,6985.9273032,-136.12,-0.313,2.866
5.728,128.182077,37.939514,6985.9791192,-133.839,-0.372,2.779
5.7448,128.182081,37.939562,6986.027582400001,-131.534,-0.417,2.697
5.7615,128.182084,37.93961,6986.0726928,-129.207,-0.453,2.619
5.7782,128.182087,37.939657,6986.1144504,-126.865,-0.481,2.544
5.7949,128.18209,37.939705,6986.1522456,-124.517,-0.505,2.472
5.8115,128.182093,37.939753,6986.186383200001,-122.171,-0.525,2.402
5.8282,128.182097,37.9398,6986.2165584,-119.837,-0.542,2.333
5.845,128.1821,37.939848,6986.2427712,-117.522,-0.558,2.264
5.8617,128.182103,37.939896,6986.2650216,-115.236,-0.571,2.197
5.8784,128.182106,37.939944,6986.2833096,-112.984,-0.583,2.129
5.8951,128.182109,37.939992,6986.2973304,-110.773,-0.594,2.062
5.9117,128.182112,37.940039,6986.3076936,-108.607,-0.603,1.995
5.9285,128.182115,37.940087,6986.3137896,-106.49,-0.61,1.928
5.9452,128.182118,37.940135,6986.316228000001,-104.423,-0.615,1.861
5.9619,128.182121,37.940183,6986.3150088,-102.407,-0.618,1.794
5.9786,128.182124,37.940231,6986.3101320000005,-100.442,-0.619,1.728
5.9952,128.182127,37.940279,6986.301597600001,-98.526,-0.617,1.663
6.0119,128.18213,37.940326,6986.2897104,-96.656,-0.613,1.599
6.0287,128.182133,37.940374,6986.274470400001,-94.829,-0.607,1.537
6.0454,128.182135,37.940422,6986.2561824,-93.042,-0.598,1.477
6.0621,128.182138,37.94047,6986.234541600001,-91.291,-0.587,1.421
6.0788,128.182141,37.940518,6986.2101576,-89.582,-0.576,1.367
6.0954,128.182143,37.940566,6986.1830304,-87.922,-0.566,1.316
6.1121,128.182146,37.940614,6986.153160000001,-86.323,-0.558,1.266
6.1289,128.182149,37.940662,6986.1208512,-84.782,-0.549,1.219
6.1456,128.182151,37.94071,6986.0857992,-83.298,-0.541,1.174
6.1623,128.182154,37.940758,6986.0483088,-81.867,-0.531,1.131
6.179,128.182156,37.940806,6986.00838,-80.482,-0.519,1.09
6.1956,128.182159,37.940854,6985.9660128000005,-79.137,-0.505,1.05
6.2124,128.182161,37.940902,6985.9233408,-77.942,-0.501,0.992
6.2291,128.182163,37.94095,6985.8785352,-76.891,-0.503,0.908
6.2458,128.182165,37.940998,6985.832205600001,-75.987,-0.507,0.806
6.2625,128.182168,37.941046,6985.784352000001,-75.23,-0.513,0.698
6.2791,128.18217,37.941094,6985.734974400001,-74.619,-0.519,0.593
6.2958,128.182172,37.941142,6985.6846824,-74.15,-0.525,0.496
6.3126,128.182174,37.94119,6985.6331712,-73.818,-0.533,0.408
6.3293,128.182176,37.941238,6985.5807456,-73.618,-0.544,0.343
6.346,128.182177,37.941286,6985.527710400001,-73.544,-0.561,0.301
6.3627,128.182179,37.941334,6985.4737608000005,-73.59,-0.583,0.279
6.3793,128.182181,37.941382,6985.418896800001,-73.751,-0.607,0.27
6.3961,128.182182,37.941431,6985.3634232,-74.023,-0.633,0.269
6.4128,128.182184,37.941479,6985.3070352,-74.4,-0.659,0.269
6.4295,128.182185,37.941527,6985.250037600001,-74.879,-0.684,0.267
6.4462,128.182187,37.941575,6985.1918208,-75.455,-0.707,0.259
6.4628,128.182188,37.941623,6985.1326896,-76.126,-0.726,0.24
6.4795,128.182189,37.941671,6985.0723392,-76.886,-0.743,0.209
6.4963,128.18219,37.941719,6985.0107696000005,-77.712,-0.756,0.166
6.513,128.182191,37.941767,6984.9473712,-78.557,-0.763,0.115
6.5297,128.182192,37.941815,6984.882144,-79.384,-0.763,0.057
6.5464,128.182193,37.941864,6984.815088000001,-80.167,-0.759,0.008
6.5631,128.182194,37.941912,6984.7462032,-80.893,-0.754,359.972
6.5798,128.182195,37.94196,6984.6751848,-81.558,-0.749,359.948
6.5965,128.182196,37.942008,6984.6023376,-82.168,-0.746,359.929
6.6132,128.182196,37.942056,6984.527356800001,-82.732,-0.745,359.912
6.6299,128.182197,37.942104,6984.4499376,-83.264,-0.746,359.894
6.6466,128.182198,37.942152,6984.3706896,-83.893,-0.75,359.89
6.6633,128.182198,37.942201,6984.2890032,-84.619,-0.756,359.906
6.68,128.182199,37.942249,6984.205183200001,-85.439,-0.763,359.937
6.6967,128.182199,37.942297,6984.1192296,-86.35,-0.77,359.976
6.7134,128.1822,37.942345,6984.0308376,-87.348,-0.777,0.019
6.7301,128.1822,37.942393,6983.940312,-88.43,-0.782,0.063
6.7468,128.182201,37.942442,6983.8470431999995,-89.594,-0.787,0.104
6.7635,128.182201,37.94249,6983.7516408,-90.835,-0.791,0.143
6.7802,128.182201,37.942538,6983.6538,-92.153,-0.795,0.178
6.7969,128.182201,37.942586,6983.552911200001,-93.539,-0.798,0.209
6.8136,128.182201,37.942634,6983.449279200001,-94.979,-0.799,0.236
6.8303,128.182202,37.942682,6983.342904,-96.459,-0.798,0.259
6.847,128.182202,37.942731,6983.2337856,-97.967,-0.796,0.279
6.8637,128.182202,37.942779,6983.1213144,-99.491,-0.791,0.295
6.8804,128.182202,37.942827,6983.0064048,-101.021,-0.785,0.308
6.8971,128.182202,37.942875,6982.888142400001,-102.549,-0.779,0.318
6.9138,128.182201,37.942923,6982.7671368,-104.068,-0.771,0.325
6.9305,128.182201,37.942972,6982.643083200001,-105.571,-0.764,0.328
6.9472,128.182201,37.94302,6982.5162864,-107.053,-0.756,0.329
6.9639,128.182201,37.943068,6982.386441600001,-108.512,-0.747,0.327
6.9806,128.182201,37.943116,6982.2538536,-109.944,-0.739,0.322
6.9973,128.182201,37.943164,6982.1182176,-111.345,-0.73,0.314
7.014,128.182201,37.943213,6981.9798384000005,-112.706,-0.721,0.304
7.0307,128.1822,37.943261,6981.838716,-114.024,-0.712,0.292
7.0474,128.1822,37.943309,6981.6948504,-115.298,-0.703,0.278
7.0641,128.1822,37.943357,6981.5482416,-116.526,-0.696,0.263
7.0808,128.1822,37.943406,6981.3985848,-117.602,-0.69,0.229
7.0975,128.182199,37.943454,6981.2464896,-118.533,-0.694,0.165
7.1142,128.182199,37.943502,6981.0916512,-119.319,-0.719,0.059
7.1309,128.182199,37.94355,6980.934374400001,-119.963,-0.773,359.9
7.1476,128.182199,37.943599,6980.7743544,-120.468,-0.866,359.679
7.1643,128.182198,37.943647,6980.611286400001,-120.838,-1.002,359.389
7.181,128.182198,37.943695,6980.4448656,-121.079,-1.186,359.024
7.1977,128.182198,37.943744,6980.275396800001,-121.195,-1.412,358.596
7.2144,128.182198,37.943792,6980.102270400001,-121.192,-1.67,358.118
7.2311,128.182197,37.94384,6979.9251816000005,-121.078,-1.952,357.606
7.2478,128.182197,37.943889,6979.743216,-120.869,-2.248,357.078
7.2645,128.182196,37.943937,6979.557288000001,-120.55,-2.549,356.553
7.2812,128.182196,37.943985,6979.3661784000005,-120.194,-2.849,356.052
7.2979,128.182195,37.944034,6979.169887200001,-119.952,-3.142,355.595
7.3146,128.182194,37.944082,6978.9678048000005,-119.825,-3.418,355.199
7.3313,128.182194,37.94413,6978.7596264,-119.82,-3.66,354.877
7.348,128.182193,37.944179,6978.545047200001,-119.94,-3.856,354.642
7.3647,128.182192,37.944227,6978.3240672,-120.185,-3.994,354.509
7.3814,128.182191,37.944276,6978.0966864,-120.554,-4.067,354.488
7.3981,128.18219,37.944324,6977.8626,-121.041,-4.081,354.566
7.4148,128.182189,37.944372,6977.6221128,-121.641,-4.044,354.725
7.4315,128.182188,37.944421,6977.374920000001,-122.348,-3.966,354.95
7.4482,128.182186,37.944469,6977.1213264,-123.158,-3.856,355.221
7.4649,128.182185,37.944518,6976.860722400001,-124.068,-3.724,355.52
7.4816,128.182184,37.944566,6976.5937176,-125.073,-3.58,355.831
7.4983,128.182182,37.944615,6976.3197024,-126.172,-3.436,356.135
7.515,128.182181,37.944663,6976.038981600001,-127.362,-3.301,356.416
7.5317,128.182179,37.944711,6975.751250400001,-128.64,-3.189,356.659
7.5484,128.182177,37.94476,6975.456204,-130.005,-3.109,356.851
7.5651,128.182175,37.944808,6975.154147200001,-131.453,-3.058,357.001
7.5818,128.182174,37.944857,6974.8453848,-132.984,-3.028,357.118
7.5985,128.182172,37.944905,6974.5299168,-134.595,-3.012,357.214
7.6152,128.18217,37.944953,6974.2077432,-136.281,-3.004,357.294
7.6319,128.182168,37.945002,6973.8791688,-138.039,-3.003,357.362
7.6486,128.182166,37.94505,6973.5438888,-139.865,-3.006,357.423
7.6653,128.182164,37.945099,6973.202208,-141.756,-3.013,357.476
7.682,128.182162,37.945147,6972.8544312,-143.709,-3.023,357.525
7.6987,128.182159,37.945196,6972.4999488,-145.721,-3.036,357.569
7.7154,128.182157,37.945244,6972.139370400001,-147.79,-3.052,357.609
7.7321,128.182155,37.945292,6971.7723912,-149.914,-3.069,357.646
7.7488,128.182153,37.945341,6971.399011200001,-152.09,-3.09,357.681
7.7655,128.182151,37.945389,6971.0195352,-154.317,-3.112,357.713
7.7822,128.182148,37.945438,6970.6336584,-156.591,-3.136,357.743
7.7989,128.182146,37.945486,6970.2419904,-158.91,-3.162,357.771
7.8156,128.182144,37.945535,6969.8436168,-161.273,-3.19,357.798
7.8323,128.182141,37.945583,6969.4394520000005,-163.677,-3.22,357.824
7.849,128.182139,37.945631,6969.0291912,-166.119,-3.251,357.849
7.8657,128.182137,37.94568,6968.6125296,-168.597,-3.283,357.874
7.8824,128.182134,37.945728,6968.1900768000005,-171.11,-3.317,357.898
7.8991,128.182132,37.945777,6967.761528000001,-173.654,-3.351,357.921
7.9158,128.18213,37.945825,6967.3268832,-176.227,-3.386,357.945
7.9325,128.182127,37.945874,6966.886142400001,-178.828,-3.421,357.968
7.9492,128.182125,37.945922,6966.439305600001,178.546,-3.456,357.992
7.9659,128.182122,37.94597,6965.986677600001,175.898,-3.492,358.016
7.9826,128.18212,37.946019,6965.5279536,173.23,-3.527,358.041
7.9993,128.182118,37.946067,6965.0634384,170.544,-3.562,358.066
8.016,128.182115,37.946116,6964.5928272,167.842,-3.596,358.091
8.0327,128.182113,37.946164,6964.1164248000005,165.126,-3.63,358.116
8.0494,128.18211,37.946213,6963.634231200001,162.399,-3.662,358.142
8.0661,128.182108,37.946261,6963.145636800001,159.661,-3.709,358.173
8.0828,128.182106,37.946309,6962.6506416,156.915,-3.782,358.216
8.0994,128.182103,37.946358,6962.148940800001,154.161,-3.895,358.278
8.1161,128.182101,37.946406,6961.6405343999995,151.401,-4.043,358.362
8.1329,128.182099,37.946455,6961.1251176000005,148.639,-4.22,358.466
8.1496,128.182097,37.946503,6960.6029952,145.877,-4.42,358.592
8.1663,128.182094,37.946552,6960.0732528,143.118,-4.637,358.74
8.183,128.182092,37.9466,6959.5358904,140.366,-4.868,358.91
8.1997,128.18209,37.946648,6958.990908,137.625,-5.11,359.103
8.2164,128.182088,37.946697,6958.438000800001,134.895,-5.36,359.321
8.2331,128.182086,37.946745,6957.876864000001,132.18,-5.615,359.564
8.2498,128.182084,37.946794,6957.307497600001,129.479,-5.873,359.834
8.2665,128.182082,37.946842,6956.729901600001,126.791,-6.129,0.128
8.2831,128.182081,37.94689,6956.1437712,124.117,-6.379,0.444
8.2998,128.182079,37.946939,6955.5497159999995,121.454,-6.621,0.781
8.3166,128.182077,37.946987,6954.9471264,118.803,-6.851,1.136
8.3333,128.182076,37.947035,6954.336612,116.162,-7.067,1.508
8.35,128.182074,37.947084,6953.7184776,113.541,-7.267,1.895
8.3667,128.182073,37.947132,6953.093332800001,110.984,-7.454,2.293
8.3834,128.182072,37.94718,6952.461787200001,108.533,-7.627,2.695
8.4001,128.182071,37.947229,6951.823536,106.219,-7.784,3.093
8.4168,128.18207,37.947277,6951.1794936,104.065,-7.923,3.481
8.4335,128.182069,37.947326,6950.5293552,102.082,-8.044,3.856
8.4502,128.182069,37.947374,6949.8740352,100.274,-8.147,4.218
8.4668,128.182068,37.947422,6949.213228800001,98.635,-8.232,4.565
8.4835,128.182068,37.947471,6948.5478504,97.153,-8.299,4.899
8.5003,128.182067,37.947519,6947.8775952000005,95.81,-8.351,5.219
8.517,128.182067,37.947567,6947.2030728,94.586,-8.388,5.527
8.5337,128.182067,37.947616,6946.5242832,93.455,-8.411,5.822
8.5504,128.182067,37.947664,6945.8412264,92.387,-8.421,6.105
8.5671,128.182068,37.947712,6945.154512,91.342,-8.418,6.377
8.5838,128.182068,37.947761,6944.4638352,90.26,-8.4,6.638
8.6005,128.182068,37.947809,6943.770110400001,89.115,-8.369,6.89
8.6172,128.182069,37.947857,6943.073032800001,87.909,-8.329,7.115
8.6339,128.18207,37.947906,6942.3735168,86.644,-8.283,7.296
8.6505,128.182071,37.947954,6941.6712576,85.32,-8.234,7.417
8.6672,128.182072,37.948002,6940.9671696000005,83.941,-8.188,7.463
8.684,128.182073,37.94805,6940.260948,82.511,-8.148,7.419
8.7007,128.182075,37.948099,6939.5550312000005,81.217,-8.137,7.309
8.7174,128.182076,37.948147,6938.847590400001,80.051,-8.153,7.152
8.7341,128.182078,37.948195,6938.1389304,79.018,-8.187,6.966
8.7508,128.18208,37.948244,6937.428746400001,78.12,-8.23,6.771
8.7675,128.182081,37.948292,6936.717038400001,77.354,-8.275,6.584
8.7842,128.182083,37.94834,6936.004416,76.715,-8.316,6.423
8.8009,128.182086,37.948389,6935.2899648,76.195,-8.349,6.303
8.8176,128.182088,37.948437,6934.5745992,75.789,-8.37,6.237
8.8342,128.18209,37.948485,6933.857709600001,75.49,-8.376,6.237
8.8509,128.182092,37.948533,6933.139905600001,75.272,-8.363,6.315
8.8676,128.182095,37.948582,6932.420577600001,75.12,-8.329,6.475
8.8844,128.182097,37.94863,6931.6997255999995,75.024,-8.277,6.703
8.9011,128.1821,37.948678,6930.9779592,74.976,-8.209,6.985
8.9178,128.182102,37.948727,6930.255278400001,74.97,-8.129,7.309
8.9345,128.182105,37.948775,6929.531378400001,75.0,-8.04,7.658
8.9512,128.182108,37.948823,6928.8068688,75.06,-7.948,8.019
8.9679,128.182111,37.948871,6928.0817496,75.149,-7.857,8.371
8.9846,128.182114,37.94892,6927.355716,75.261,-7.77,8.705
9.0013,128.182118,37.948968,6926.6293776,75.393,-7.689,9.019
9.0179,128.182121,37.949016,6925.9024296,75.54,-7.613,9.314
9.0346,128.182124,37.949065,6925.1751768,75.699,-7.543,9.592
9.0513,128.182128,37.949113,6924.447924000001,75.867,-7.477,9.854
9.0681,128.182132,37.949161,6923.7200616,76.123,-7.421,10.105
9.0848,128.182136,37.949209,6922.9921992,76.46,-7.374,10.344
9.1015,128.18214,37.949258,6922.2631176,76.868,-7.334,10.573
9.1182,128.182144,37.949306,6921.5337312,77.335,-7.298,10.793
9.1349,128.182148,37.949354,6920.8034304,77.851,-7.265,11.003
9.1516,128.182153,37.949402,6920.072520000001,78.402,-7.235,11.205
9.1683,128.182157,37.949451,6919.341,78.979,-7.207,11.4
9.185,128.182162,37.949499,6918.608870400001,79.572,-7.182,11.588
9.2016,128.182167,37.949547,6917.876131200001,80.172,-7.159,11.77
9.2183,128.182172,37.949595,6917.1424776,80.775,-7.139,11.947
9.235,128.182177,37.949644,6916.4082144,81.374,-7.122,12.119
9.2518,128.182182,37.949692,6915.673036800001,81.966,-7.108,12.287
9.2685,128.182187,37.94974,6914.9369448,82.548,-7.098,12.452
9.2852,128.182193,37.949788,6914.199633600001,83.12,-7.09,12.614
9.3019,128.182199,37.949836,6913.4611032,83.682,-7.085,12.773
9.3186,128.182205,37.949884,6912.7216584,84.233,-7.084,12.929
9.3353,128.182211,37.949933,6911.978860800001,84.683,-7.069,13.067
9.352,128.182217,37.949981,6911.2351488,85.037,-7.042,13.17
9.3687,128.182223,37.950029,6910.489608,85.293,-7.011,13.223
9.3854,128.18223,37.950077,6909.742848,85.447,-6.981,13.217
9.402,128.182236,37.950125,6908.994259200001,85.496,-6.954,13.165
9.4187,128.182243,37.950173,6908.244756000001,85.441,-6.931,13.083
9.4355,128.18225,37.950221,6907.493728800001,85.281,-6.91,12.992
9.4522,128.182258,37.950269,6906.741482400001,85.02,-6.89,12.903
9.4689,128.182265,37.950317,6905.9880168,84.66,-6.87,12.826
9.4856,128.182272,37.950365,6905.2339416,84.203,-6.85,12.764
9.5023,128.18228,37.950412,6904.478342400001,83.653,-6.829,12.722
9.519,128.182288,37.95046,6903.722438400001,83.012,-6.805,12.706
9.5357,128.182296,37.950508,6902.965620000001,82.282,-6.778,12.72
9.5524,128.182304,37.950556,6902.208192000001,81.467,-6.747,12.766
9.5691,128.182312,37.950604,6901.450764,80.567,-6.71,12.848
9.5857,128.182321,37.950651,6900.6930312,79.588,-6.666,12.966
9.6024,128.182329,37.950699,6899.9356032,78.53,-6.613,13.121
9.6192,128.182338,37.950747,6899.17848,77.398,-6.55,13.313
9.6359,128.182347,37.950794,6898.4222712,76.195,-6.478,13.535
9.6526,128.182356,37.950842,6897.666672,74.948,-6.397,13.778
9.6693,128.182365,37.95089,6896.912292000001,73.729,-6.314,14.034
9.686,128.182375,37.950937,6896.159436,72.592,-6.232,14.297
9.7027,128.182384,37.950985,6895.4077992,71.573,-6.154,14.559
9.7194,128.182394,37.951032,6894.6573816,70.687,-6.078,14.817
9.7361,128.182404,37.95108,6893.908792800001,69.938,-6.002,15.068
9.7528,128.182414,37.951128,6893.1614232,69.317,-5.925,15.309
9.7694,128.182424,37.951175,6892.415577600001,68.806,-5.846,15.541
9.7861,128.182434,37.951222,6891.6712560000005,68.391,-5.765,15.763
9.8029,128.182444,37.95127,6890.9284584,68.055,-5.681,15.975
9.8196,128.182455,37.951317,6890.1871848,67.785,-5.599,16.179
9.8363,128.182465,37.951365,6889.4477400000005,67.572,-5.518,16.376
9.853,128.182476,37.951412,6888.7098192,67.409,-5.439,16.565
9.8697,128.182487,37.95146,6887.9737272,67.294,-5.361,16.749
9.8864,128.182498,37.951507,6887.2397688,67.222,-5.286,16.926
9.9031,128.182509,37.951554,6886.5082488,67.179,-5.218,17.1
9.9198,128.18252,37.951602,6885.7788624,67.165,-5.158,17.271
9.9365,128.182531,37.951649,6885.051914400001,67.179,-5.103,17.44
9.9531,128.182543,37.951696,6884.326795200001,67.224,-5.052,17.605
9.9698,128.182555,37.951744,6883.6038096,67.299,-5.004,17.767
9.9865,128.182566,37.951791,6882.8832624,67.403,-4.959,17.925
10.0033,128.182578,37.951838,6882.1648488,67.532,-4.914,18.08
10.02,128.18259,37.951885,6881.4485688,67.685,-4.872,18.231
10.0367,128.182602,37.951932,6880.734727200001,67.859,-4.83,18.38
10.0534,128.182615,37.95198,6880.023324000001,68.049,-4.79,18.527
10.0701,128.182627,37.952027,6879.314054400001,68.254,-4.752,18.671
10.0868,128.18264,37.952074,6878.607223200001,68.47,-4.714,18.814
10.1035,128.182653,37.952121,6877.9025255999995,68.695,-4.678,18.955
10.1202,128.182665,37.952168,6877.2002664,68.927,-4.643,19.095
10.1368,128.182678,37.952215,6876.500140800001,69.163,-4.609,19.234
10.1535,128.182692,37.952262,6875.8024536,69.402,-4.576,19.373
10.1702,128.182705,37.952309,6875.106900000001,69.642,-4.544,19.511
10.187,128.182718,37.952356,6874.41348,69.882,-4.513,19.648
10.2037,128.182732,37.952403,6873.7224984,70.12,-4.483,19.786
10.2204,128.182746,37.95245,6873.033345600001,70.356,-4.454,19.923
10.2371,128.18276,37.952497,6872.3463264,70.588,-4.426,20.061
10.2538,128.182774,37.952543,6871.6617456,70.816,-4.398,20.198
10.2705,128.182788,37.95259,6870.9789936,71.039,-4.372,20.336
10.2872,128.182802,37.952637,6870.298070400001,71.256,-4.346,20.474
10.3039,128.182816,37.952684,6869.6192808000005,71.469,-4.321,20.612
10.3205,128.182831,37.95273,6868.942624800001,71.675,-4.297,20.751
10.3372,128.182846,37.952777,6868.267492800001,71.876,-4.274,20.89
10.3539,128.182861,37.952824,6867.5944944,72.071,-4.251,21.03
10.3707,128.182876,37.95287,6866.923324800001,72.26,-4.229,21.17
10.3874,128.182891,37.952917,6866.253679200001,72.444,-4.208,21.311
10.4041,128.182906,37.952963,6865.5858624,72.622,-4.187,21.452
10.4208,128.182922,37.95301,6864.9198744000005,72.794,-4.167,21.593
10.4375,128.182937,37.953056,6864.255715200001,72.962,-4.148,21.735
10.4542,128.182953,37.953102,6863.59308,73.124,-4.13,21.877
10.4709,128.182969,37.953149,6862.9319688000005,73.282,-4.112,22.02
10.4876,128.182985,37.953195,6862.272381600001,73.435,-4.095,22.163
10.5042,128.183001,37.953241,6861.6146232,73.584,-4.078,22.306
10.5209,128.183018,37.953288,6860.958084000001,73.728,-4.062,22.45
10.5376,128.183034,37.953334,6860.303373600001,73.869,-4.046,22.594
10.5544,128.183051,37.95338,6859.649882400001,74.007,-4.031,22.738
10.5711,128.183068,37.953426,6858.9979152000005,74.14,-4.017,22.882
10.5878,128.183085,37.953472,6858.347472,74.271,-4.003,23.027
10.6045,128.183102,37.953518,6857.698248,74.398,-3.989,23.172
10.6212,128.183119,37.953564,6857.050243199999,74.523,-3.976,23.317
10.6379,128.183136,37.95361,6856.4037624,74.644,-3.964,23.463
10.6546,128.183154,37.953656,6855.758500800001,74.763,-3.952,23.609
10.6713,128.183172,37.953702,6855.1147632,74.88,-3.94,23.754
10.6879,128.183189,37.953748,6854.47194,74.994,-3.929,23.9
10.7046,128.183207,37.953794,6853.830640800001,75.107,-3.919,24.047
10.7213,128.183226,37.95384,6853.190256000001,75.217,-3.908,24.193
10.7381,128.183244,37.953885,6852.5513952,75.325,-3.899,24.339
10.7548,128.183262,37.953931,6851.9134488,75.431,-3.889,24.486
10.7715,128.183281,37.953977,6851.2767216,75.535,-3.88,24.633
10.7882,128.183299,37.954022,6850.6409088,75.638,-3.872,24.779
10.8049,128.183318,37.954068,6850.006315200001,75.739,-3.863,24.926
10.8216,128.183337,37.954113,6849.3729408,75.839,-3.855,25.073
10.8383,128.183356,37.954159,6848.7404808,75.937,-3.848,25.22
10.855,128.183376,37.954204,6848.1089352,76.033,-3.841,25.368
10.8717,128.183395,37.95425,6847.4786088,76.129,-3.834,25.515
10.8883,128.183415,37.954295,6846.849196800001,76.223,-3.827,25.662
10.905,128.183434,37.95434,6846.2206992,76.315,-3.821,25.81
10.9218,128.183454,37.954386,6845.593116,76.407,-3.815,25.957
10.9385,128.183474,37.954431,6844.9664472,76.497,-3.81,26.105
10.9552,128.183494,37.954476,6844.3406928,76.587,-3.805,26.252
10.9719,128.183515,37.954521,6843.7158528,76.675,-3.8,26.4
10.9886,128.183535,37.954566,6843.0919272,76.762,-3.795,26.548
11.0053,128.183556,37.954611,6842.468916,76.848,-3.791,26.696
11.022,128.183576,37.954656,6841.8465144,76.934,-3.787,26.844
11.0387,128.183597,37.954701,6841.2250272,77.018,-3.783,26.992
11.0554,128.183618,37.954746,6840.604454400001,77.101,-3.78,27.139
11.072,128.183639,37.954791,6839.984491200001,77.184,-3.777,27.288
11.0887,128.18366,37.954835,6839.365137600001,77.266,-3.774,27.436
11.1054,128.183682,37.95488,6838.7466984,77.347,-3.771,27.584
11.1222,128.183703,37.954925,6838.1288688,77.427,-3.769,27.732
11.1389,128.183725,37.954969,6837.5119536,77.506,-3.766,27.88
11.1556,128.183747,37.955014,6836.8953432,77.585,-3.765,28.028
11.1723,128.183769,37.955059,6836.279647200001,77.663,-3.763,28.177
11.189,128.183791,37.955103,6835.664560800001,77.74,-3.761,28.325
11.2057,128.183813,37.955148,6835.050084,77.817,-3.76,28.473
11.2224,128.183836,37.955192,6834.4362168,77.893,-3.759,28.622
11.2391,128.183858,37.955236,6833.8226544,77.979,-3.76,28.77
11.2557,128.183881,37.955281,6833.209701600001,78.075,-3.763,28.919
11.2724,128.183904,37.955325,6832.5973584,78.179,-3.766,29.067
11.2891,128.183927,37.955369,6831.985320000001,78.292,-3.77,29.215
11.3059,128.18395,37.955413,6831.3735864,78.41,-3.774,29.363
11.3226,128.183973,37.955457,6830.7621576,78.533,-3.779,29.512
11.3393,128.183996,37.955501,6830.151338400001,78.66,-3.783,29.66
11.356,128.18402,37.955545,6829.540824000001,78.789,-3.788,29.808
11.3727,128.184044,37.955589,6828.9306144,78.919,-3.792,29.956
11.3894,128.184068,37.955633,6828.320404800001,79.048,-3.797,30.104
11.4061,128.184091,37.955677,6827.7108048,79.177,-3.801,30.253
11.4228,128.184116,37.955721,6827.1015096,79.304,-3.806,30.402
11.4394,128.18414,37.955765,6826.4922144,79.429,-3.811,30.55
11.4561,128.184164,37.955808,6825.883224000001,79.551,-3.817,30.699
11.4728,128.184189,37.955852,6825.274538400001,79.671,-3.822,30.849
11.4896,128.184213,37.955896,6824.6658528,79.787,-3.828,30.998
11.5063,128.184238,37.955939,6824.057167200001,79.901,-3.834,31.148
11.523,128.184263,37.955983,6823.4487864,80.011,-3.84,31.298
11.5397,128.184288,37.956026,6822.840710400001,80.119,-3.847,31.448
11.5564,128.184314,37.956069,6822.2323295999995,80.223,-3.853,31.599
11.5731,128.184339,37.956113,6821.6239488,80.325,-3.86,31.749
11.5898,128.184364,37.956156,6821.015872800001,80.423,-3.868,31.9
11.6065,128.18439,37.956199,6820.407492,80.519,-3.875,32.051
11.6231,128.184416,37.956242,6819.799416,80.613,-3.883,32.202
11.6398,128.184442,37.956286,6819.1910352,80.704,-3.891,32.354
11.6565,128.184468,37.956329,6818.5826544,80.794,-3.898,32.505
11.6733,128.184494,37.956372,6817.973968800001,80.882,-3.906,32.656
11.69,128.184521,37.956415,6817.365283200001,80.969,-3.913,32.808
11.7067,128.184547,37.956458,6816.756292800001,81.056,-3.919,32.959
11.7234,128.184574,37.9565,6816.1473024,81.143,-3.925,33.11
11.7401,128.184601,37.956543,6815.5380072,81.229,-3.93,33.262
11.7568,128.184628,37.956586,6814.9284072,81.314,-3.935,33.413
11.7735,128.184655,37.956629,6814.3185023999995,81.399,-3.939,33.564
11.7902,128.184682,37.956671,6813.708597600001,81.484,-3.943,33.715
11.8068,128.184709,37.956714,6813.0980832000005,81.569,-3.946,33.866
11.8235,128.184737,37.956756,6812.4875688,81.654,-3.948,34.017
11.8402,128.184764,37.956799,6811.8767496,81.738,-3.95,34.167
11.857,128.184792,37.956841,6811.2653208,81.823,-3.951,34.318
11.8737,128.18482,37.956883,6810.653892,81.907,-3.952,34.469
11.8904,128.184848,37.956926,6810.0418536,81.991,-3.952,34.619
11.9071,128.184876,37.956968,6809.4295104,82.075,-3.952,34.77
11.9238,128.184905,37.95701,6808.8165576,82.159,-3.951,34.92
11.9405,128.184933,37.957052,6808.2036048,82.242,-3.95,35.071
11.9572,128.184962,37.957094,6807.590042400001,82.324,-3.949,35.221
11.9739,128.18499,37.957136,6806.9758704000005,82.405,-3.947,35.372
11.9905,128.185019,37.957178,6806.3616984,82.484,-3.946,35.522
12.0072,128.185048,37.95722,6805.7469168,82.561,-3.946,35.673
12.0239,128.185077,37.957262,6805.1315256,82.636,-3.945,35.824
12.0407,128.185107,37.957303,6804.5158296,82.709,-3.945,35.975
12.0574,128.185136,37.957345,6803.899524,82.781,-3.945,36.125
12.0741,128.185166,37.957386,6803.2829136,82.85,-3.946,36.276
12.0908,128.185195,37.957428,6802.6656936,82.918,-3.947,36.427
12.1075,128.185225,37.957469,6802.047864,82.983,-3.948,36.579
12.1242,128.185255,37.957511,6801.4297295999995,83.047,-3.949,36.73
12.1409,128.185285,37.957552,6800.8109856,83.108,-3.951,36.881
12.1576,128.185316,37.957593,6800.191632,83.167,-3.953,37.033
12.1743,128.185346,37.957635,6799.5716688,83.223,-3.955,37.184
12.1909,128.185376,37.957676,6798.951400800001,83.277,-3.957,37.336
12.2076,128.185407,37.957717,6798.3302184,83.329,-3.96,37.487
12.2243,128.185438,37.957758,6797.7087312,83.377,-3.962,37.639
12.2411,128.185469,37.957799,6797.0863296,83.423,-3.965,37.791
12.2578,128.1855,37.95784,6796.4636232,83.467,-3.968,37.942
12.2745,128.185531,37.95788,6795.8403072,83.507,-3.972,38.094
12.2912,128.185562,37.957921,6795.2160768,83.544,-3.975,38.246
12.3079,128.185594,37.957962,6794.591541600001,83.579,-3.979,38.398
12.3246,128.185626,37.958002,6793.966092000001,83.61,-3.982,38.55
12.3413,128.185657,37.958043,6793.340337600001,83.639,-3.986,38.702
12.358,128.185689,37.958083,6792.7136688,83.664,-3.99,38.854
12.3746,128.185721,37.958124,6792.0863904,83.687,-3.994,39.006
12.3913,128.185753,37.958164,6791.4585024,83.707,-3.998,39.159
12.408,128.185786,37.958204,6790.8300048,83.724,-4.002,39.311
12.4248,128.185818,37.958245,6790.200897600001,83.739,-4.007,39.463
12.4415,128.185851,37.958285,6789.570876,83.751,-4.011,39.615
12.4582,128.185883,37.958325,6788.9405496,83.76,-4.016,39.767
12.4749,128.185916,37.958365,6788.3093088000005,83.768,-4.02,39.92
12.4916,128.185949,37.958405,6787.6774584,83.773,-4.025,40.072
12.5083,128.185982,37.958445,6787.0449984,83.776,-4.03,40.224
12.525,128.186015,37.958484,6786.411928800001,83.778,-4.035,40.376
12.5417,128.186049,37.958524,6785.7782496,83.778,-4.04,40.529
12.5583,128.186082,37.958564,6785.143656000001,83.776,-4.045,40.681
12.575,128.186116,37.958603,6784.5084528,83.773,-4.05,40.833
12.5917,128.186149,37.958643,6783.8726400000005,83.769,-4.055,40.985
12.6085,128.186183,37.958682,6783.236217600001,83.764,-4.06,41.137
12.6252,128.186217,37.958721,6782.5991856,83.758,-4.065,41.289
12.6419,128.186251,37.958761,6781.9612392,83.752,-4.07,41.441
12.6586,128.186286,37.9588,6781.322988000001,83.744,-4.076,41.593
12.6753,128.18632,37.958839,6780.6838224,83.737,-4.081,41.745
12.692,128.186354,37.958878,6780.044047200001,83.729,-4.086,41.897
12.7087,128.186389,37.958917,6779.4036624,83.721,-4.092,42.048
12.7254,128.186424,37.958956,6778.7623632,83.713,-4.097,42.2
12.742,128.186459,37.958995,6778.1207592,83.705,-4.103,42.352
12.7587,128.186494,37.959033,6777.4785456,83.697,-4.108,42.503
12.7754,128.186529,37.959072,6776.8354176,83.689,-4.113,42.655
12.7922,128.186564,37.95911,6776.19168,83.681,-4.119,42.807
12.8089,128.1866,37.959149,6775.547332800001,83.674,-4.124,42.958
12.8256,128.186635,37.959187,6774.902376,83.666,-4.13,43.11
12.8423,128.186671,37.959226,6774.2568096,83.659,-4.135,43.261
12.859,128.186707,37.959264,6773.610633600001,83.653,-4.141,43.412
12.8757,128.186743,37.959302,6772.963847999999,83.646,-4.146,43.564
12.8924,128.186779,37.95934,6772.316148,83.64,-4.152,43.715
12.9091,128.186815,37.959378,6771.6681432,83.634,-4.157,43.867
12.9257,128.186851,37.959416,6771.019224000001,83.628,-4.163,44.018
12.9424,128.186887,37.959454,6770.3696952,83.623,-4.168,44.169
12.9591,128.186924,37.959492,6769.7198616,83.618,-4.174,44.321
12.9759,128.186961,37.95953,6769.0691136000005,83.613,-4.179,44.472
12.9926,128.186998,37.959567,6768.417756000001,83.609,-4.185,44.623
13.0093,128.187034,37.959605,6767.765788799999,83.604,-4.19,44.775
13.026,128.187071,37.959643,6767.113212,83.6,-4.196,44.926
13.0427,128.187109,37.95968,6766.4600256,83.596,-4.201,45.077
13.0594,128.187146,37.959717,6765.8062296,83.592,-4.207,45.228
13.0761,128.187183,37.959755,6765.1518240000005,83.588,-4.212,45.38
13.0928,128.187221,37.959792,6764.4968088000005,83.585,-4.218,45.531
13.1095,128.187259,37.959829,6763.840879200001,83.581,-4.223,45.682
13.1262,128.187296,37.959866,6763.184644800001,83.577,-4.229,45.834
13.1429,128.187334,37.959903,6762.5278008000005,83.574,-4.234,45.985
13.1596,128.187372,37.95994,6761.870042400001,83.571,-4.24,46.136
13.1763,128.18741,37.959976,6761.211979200001,83.567,-4.245,46.288
13.193,128.187449,37.960013,6760.553306400001,83.564,-4.251,46.439
13.2097,128.187487,37.96005,6759.8937192,83.561,-4.256,46.59
13.2264,128.187526,37.960086,6759.233827200001,83.557,-4.262,46.742
13.2431,128.187564,37.960123,6758.5730207999995,83.554,-4.267,46.893
13.2598,128.187603,37.960159,6757.9119096,83.551,-4.273,47.045
13.2765,128.187642,37.960195,6757.249884000001,83.547,-4.278,47.196
13.2932,128.187681,37.960231,6756.5875536,83.544,-4.284,47.348
13.3099,128.18772,37.960268,6755.9243088,83.54,-4.289,47.499
13.3266,128.187759,37.960304,6755.2607592,83.537,-4.295,47.65
13.3433,128.187799,37.96034,6754.5962952,83.533,-4.3,47.802
13.36,128.187838,37.960375,6753.9315264,83.53,-4.306,47.953
13.3767,128.187878,37.960411,6753.2658432,83.526,-4.311,48.105
13.3934,128.187917,37.960447,6752.5998552,83.523,-4.317,48.256
13.4101,128.187957,37.960482,6751.9329528,83.519,-4.322,48.408
13.4268,128.187997,37.960518,6751.265745600001,83.515,-4.328,48.559
13.4435,128.188037,37.960553,6750.597624000001,83.512,-4.333,48.711
13.4602,128.188077,37.960589,6749.929197600001,83.508,-4.339,48.863
13.4769,128.188118,37.960624,6749.259856800001,83.504,-4.344,49.014
13.4936,128.188158,37.960659,6748.590211200001,83.5,-4.35,49.166
13.5103,128.188199,37.960694,6747.919651200001,83.496,-4.355,49.317
13.527,128.188239,37.960729,6747.2487864,83.493,-4.361,49.469
13.5437,128.18828,37.960764,6746.5770072,83.489,-4.366,49.62
13.5604,128.188321,37.960799,6745.904923200001,83.485,-4.372,49.772
13.5771,128.188362,37.960834,6745.2322296,83.481,-4.377,49.924
13.5938,128.188403,37.960868,6744.5589264,83.477,-4.383,50.075
13.6105,128.188444,37.960903,6743.8847088,83.473,-4.389,50.227
13.6272,128.188486,37.960937,6743.210186400001,83.469,-4.394,50.378
13.6439,128.188527,37.960972,6742.5350544,83.465,-4.4,50.53
13.6606,128.188569,37.961006,6741.8593128,83.461,-4.405,50.682
13.6773,128.18861,37.96104,6741.1829615999995,83.457,-4.411,50.833
13.694,128.188652,37.961074,6740.506000800001,83.453,-4.416,50.985
13.7107,128.188694,37.961108,6739.8284304,83.449,-4.422,51.137
13.7274,128.188736,37.961142,6739.1502504,83.445,-4.427,51.288
13.7441,128.188778,37.961176,6738.4714608,83.441,-4.433,51.44
13.7608,128.18882,37.96121,6737.7920616,83.437,-4.438,51.592
13.7775,128.188863,37.961244,6737.1123576,83.433,-4.443,51.743
13.7942,128.188905,37.961277,6736.4317392,83.429,-4.449,51.895
13.8109,128.188948,37.961311,6735.750816,83.425,-4.454,52.047
13.8276,128.18899,37.961344,6735.068978400001,83.42,-4.46,52.199
13.8443,128.189033,37.961377,6734.386836000001,83.416,-4.465,52.35
13.861,128.189076,37.961411,6733.704084000001,83.412,-4.471,52.502
13.8777,128.189119,37.961444,6733.0204176,83.408,-4.476,52.654
13.8944,128.189162,37.961477,6732.336446400001,83.405,-4.482,52.806
13.9111,128.189205,37.96151,6731.651865600001,83.401,-4.487,52.957
13.9278,128.189249,37.961543,6730.9666752,83.397,-4.493,53.109
13.9445,128.189292,37.961575,6730.2808752,83.393,-4.498,53.261
13.9612,128.189336,37.961608,6729.594770400001,83.389,-4.504,53.413
13.9779,128.189379,37.961641,6728.9077512,83.385,-4.509,53.564
13.9946,128.189423,37.961673,6728.2201224,83.381,-4.514,53.716
14.0113,128.189467,37.961705,6727.5321888,83.377,-4.52,53.868
14.028,128.189511,37.961738,6726.8436456,83.373,-4.525,54.02
14.0447,128.189555,37.96177,6726.154188,83.369,-4.531,54.172
14.0614,128.189599,37.961802,6725.4644256,83.366,-4.536,54.323
14.0781,128.189644,37.961834,6724.7740536,83.362,-4.542,54.475
14.0948,128.189688,37.961866,6724.083072,83.358,-4.547,54.627
14.1115,128.189733,37.961898,6723.3917856,83.354,-4.552,54.779
14.1282,128.189777,37.96193,6722.6995848,83.35,-4.558,54.931
14.1449,128.189822,37.961961,6722.007079200001,83.346,-4.563,55.083
14.1616,128.189867,37.961993,6721.3136592,83.342,-4.569,55.234
14.1783,128.189912,37.962024,6720.6199344,83.339,-4.574,55.386
14.195,128.189957,37.962056,6719.9256000000005,83.335,-4.579,55.538
14.2117,128.190002,37.962087,6719.230656000001,83.331,-4.585,55.69
14.2284,128.190047,37.962118,6718.5351024,83.327,-4.59,55.842
14.2451,128.190093,37.962149,6717.8389392,83.323,-4.596,55.994
14.2618,128.190138,37.96218,6717.1424712,83.32,-4.601,56.146
14.2785,128.190184,37.962211,6716.4453936,83.316,-4.606,56.298
14.2952,128.190229,37.962242,6715.747401600001,83.312,-4.612,56.45
14.3119,128.190275,37.962272,6715.0491048,83.308,-4.617,56.602
14.3286,128.190321,37.962303,6714.3501983999995,83.304,-4.622,56.753
14.3453,128.190367,37.962333,6713.650987200001,83.3,-4.628,56.905
14.362,128.190413,37.962364,6712.9508616,83.297,-4.633,57.057
14.3787,128.190459,37.962394,6712.2501264,83.293,-4.638,57.209
14.3954,128.190505,37.962424,6711.5490864,83.289,-4.644,57.361
14.4121,128.190552,37.962454,6710.847436800001,83.285,-4.649,57.513
14.4288,128.190598,37.962484,6710.1451776,83.282,-4.654,57.665
14.4455,128.190645,37.962514,6709.4423088,83.278,-4.66,57.817
14.4622,128.190691,37.962544,6708.7391352,83.274,-4.665,57.969
14.4789,128.190738,37.962574,6708.035047200001,83.27,-4.67,58.121
14.4956,128.190785,37.962603,6707.330654400001,83.267,-4.675,58.273
14.5123,128.190832,37.962633,6706.625652000001,83.263,-4.681,58.425
14.529,128.190879,37.962662,6705.92004,83.259,-4.686,58.577
14.5457,128.190926,37.962691,6705.2141232,83.255,-4.691,58.729
14.5624,128.190973,37.96272,6704.507292,83.252,-4.696,58.881
14.5791,128.191021,37.96275,6703.800156,83.248,-4.702,59.033
14.5958,128.191068,37.962779,6703.0924104000005,83.244,-4.707,59.185
14.6125,128.191116,37.962807,6702.3840552,83.24,-4.712,59.338
14.6292,128.191163,37.962836,6701.6750904,83.237,-4.717,59.49
14.6459,128.191211,37.962865,6700.9658208,83.233,-4.723,59.642
14.6626,128.191259,37.962893,6700.2556368000005,83.229,-4.728,59.794
14.6793,128.191307,37.962922,6699.545148,83.226,-4.733,59.946
14.696,128.191355,37.96295,6698.8343544,83.222,-4.738,60.098
14.7127,128.191403,37.962979,6698.1226464,83.218,-4.744,60.25
14.7294,128.191451,37.963007,6697.4106336,83.215,-4.749,60.402
14.7461,128.191499,37.963035,6696.697706400001,83.211,-4.754,60.554
14.7628,128.191548,37.963063,6695.984474400001,83.207,-4.759,60.707
14.7795,128.191596,37.963091,6695.2709376,83.204,-4.764,60.859
14.7962,128.191645,37.963118,6694.556486400001,83.2,-4.77,61.011
14.8129,128.191693,37.963146,6693.8417304,83.197,-4.775,61.163
14.8296,128.191742,37.963174,6693.1263648,83.193,-4.78,61.315
14.8463,128.191791,37.963201,6692.4103896,83.189,-4.785,61.467
14.863,128.19184,37.963228,6691.6938048,83.186,-4.79,61.619
14.8797,128.191889,37.963256,6690.976915200001,83.182,-4.795,61.772
14.8964,128.191938,37.963283,6690.259416,83.179,-4.8,61.924
14.9131,128.191987,37.96331,6689.5413072,83.175,-4.806,62.076
14.9298,128.192036,37.963337,6688.8225888,83.171,-4.811,62.228
14.9465,128.192086,37.963364,6688.1035656,83.168,-4.816,62.381
14.9632,128.192135,37.96339,6687.3839328,83.164,-4.821,62.533
14.9799,128.192185,37.963417,6686.663690400001,83.161,-4.826,62.685
14.9966,128.192235,37.963443,6685.942838400001,83.157,-4.831,62.837
15.0133,128.192284,37.96347,6685.2216816,83.154,-4.836,62.99
15.03,128.192334,37.963496,6684.499915200001,83.15,-4.841,63.142
15.0467,128.192384,37.963522,6683.7775392,83.147,-4.846,63.294
15.0634,128.192434,37.963548,6683.0545536,83.143,-4.852,63.446
15.0801,128.192484,37.963574,6682.331263200001,83.14,-4.857,63.599
15.0968,128.192534,37.9636,6681.6073632,83.136,-4.862,63.751
15.1135,128.192584,37.963626,6680.8828536,83.133,-4.867,63.903
15.1302,128.192635,37.963652,6680.1580392,83.129,-4.872,64.056
15.1469,128.192685,37.963677,6679.4323104000005,83.126,-4.877,64.208
15.1636,128.192736,37.963703,6678.7062768000005,83.122,-4.882,64.36
15.1803,128.192786,37.963728,6677.979938400001,83.119,-4.887,64.512
15.197,128.192837,37.963753,6677.2526856,83.115,-4.892,64.665
15.2137,128.192888,37.963778,6676.525128,83.112,-4.897,64.817
15.2304,128.192938,37.963803,6675.7969608,83.108,-4.902,64.97
15.2471,128.192989,37.963828,6675.0684888,83.105,-4.907,65.122
15.2638,128.19304,37.963853,6674.3394072,83.102,-4.912,65.274
15.2805,128.193091,37.963878,6673.609716,83.098,-4.917,65.427
15.2972,128.193143,37.963902,6672.879415200001,83.095,-4.922,65.579
15.3139,128.193194,37.963927,6672.1488096,83.091,-4.927,65.731
15.3306,128.193245,37.963951,6671.4175944,83.088,-4.932,65.884
15.3473,128.193297,37.963975,6670.685769600001,83.085,-4.937,66.036
15.364,128.193348,37.964,6669.9533352,83.081,-4.942,66.189
15.3807,128.1934,37.964024,6669.220596,83.078,-4.947,66.341
15.3974,128.193451,37.964048,6668.487247200001,83.074,-4.952,66.494
15.4141,128.193503,37.964071,6667.7535935999995,83.071,-4.957,66.646
15.4308,128.193555,37.964095,6667.0193304,83.068,-4.962,66.798
15.4475,128.193607,37.964119,6666.2844576,83.064,-4.967,66.951
15.4642,128.193659,37.964142,6665.548975199999,83.061,-4.972,67.103
15.4809,128.193711,37.964166,6664.813188000001,83.058,-4.977,67.256
15.4976,128.193763,37.964189,6664.0767912,83.054,-4.981,67.408
15.5143,128.193815,37.964212,6663.3400896,83.051,-4.986,67.561
15.531,128.193867,37.964235,6662.602473600001,83.048,-4.991,67.713
15.5477,128.193919,37.964258,6661.8645528,83.045,-4.996,67.866
15.5644,128.193972,37.964281,6661.126327200001,83.041,-5.001,68.018
15.5811,128.194024,37.964303,6660.387492000001,83.038,-5.006,68.171
15.5978,128.194077,37.964326,6659.648047200001,83.035,-5.011,68.324
15.6145,128.19413,37.964349,6658.907992800001,83.031,-5.016,68.476
15.6312,128.194182,37.964371,6658.167633600001,83.028,-5.021,68.629
15.6479,128.194235,37.964393,6657.4266648,83.025,-5.025,68.781
15.6646,128.194288,37.964415,6656.685086400001,83.022,-5.03,68.934
15.6813,128.194341,37.964437,6655.9432032,83.018,-5.035,69.086
15.698,128.194394,37.964459,6655.2007104,83.015,-5.04,69.239
15.7147,128.194447,37.964481,6654.4579128000005,83.012,-5.045,69.392
