Time,Longitude,Latitude,Altitude,Roll (deg),Pitch (deg),Yaw (deg)
0.0,128.181881,37.923646,7000.146528,0.0,-0.003,0.0
0.0167,128.181881,37.923691,7000.1605488000005,0.0,-0.012,0.0
0.0334,128.181881,37.923736,7000.172740800001,0.087,-0.026,0.011
0.0501,128.181881,37.923781,7000.183104000001,0.258,-0.043,0.034
0.0668,128.181881,37.923826,7000.190724000001,0.516,-0.062,0.064
0.0834,128.181881,37.923871,7000.1959056000005,0.864,-0.082,0.097
0.1002,128.181881,37.923916,7000.1980392,1.3,-0.102,0.132
0.1169,128.181881,37.923961,7000.196820000001,1.824,-0.122,0.167
0.1336,128.181881,37.924006,7000.1919431999995,2.433,-0.139,0.201
0.1503,128.181881,37.924051,7000.183104000001,3.123,-0.154,0.235
0.1669,128.181881,37.924096,7000.169692800001,3.891,-0.166,0.267
0.1837,128.181881,37.924141,7000.152928800001,4.734,-0.173,0.299
0.2004,128.181881,37.924186,7000.1325072,5.649,-0.175,0.331
0.2171,128.181881,37.924231,7000.108123200001,6.633,-0.172,0.362
0.2338,128.181881,37.924276,7000.0803864,7.682,-0.163,0.393
0.2505,128.181881,37.924321,7000.048992000001,8.794,-0.147,0.424
0.2672,128.181881,37.924366,7000.014244800001,9.966,-0.125,0.456
0.2839,128.181881,37.924411,6999.9761448,11.195,-0.095,0.489
0.3006,128.181881,37.924457,6999.9353016000005,12.48,-0.059,0.523
0.3172,128.181881,37.924502,6999.891105600001,13.817,-0.016,0.559
0.3339,128.181881,37.924547,6999.8444712,15.204,0.033,0.598
0.3507,128.181881,37.924592,6999.7947888,16.64,0.089,0.639
0.3674,128.181881,37.924637,6999.742972800001,18.122,0.152,0.682
0.3841,128.181881,37.924683,6999.688718400001,19.648,0.22,0.73
0.4008,128.181881,37.924728,6999.6320256,21.218,0.295,0.781
0.4175,128.181881,37.924773,6999.573504,22.828,0.375,0.837
0.4342,128.181881,37.924819,6999.5131536,24.478,0.459,0.897
0.4509,128.181881,37.924864,6999.4512792000005,26.167,0.548,0.962
0.4676,128.181881,37.924909,6999.387576,27.892,0.64,1.033
0.4843,128.181881,37.924954,6999.3229584,29.654,0.736,1.109
0.501,128.181881,37.925,6999.2568168,31.45,0.834,1.191
0.5176,128.181881,37.925045,6999.189760800001,33.28,0.933,1.279
0.5344,128.181881,37.925091,6999.1217904000005,35.143,1.034,1.373
0.5511,128.181881,37.925136,6999.0529056000005,37.039,1.135,1.473
0.5678,128.181881,37.925181,6998.983716,38.966,1.235,1.579
0.5845,128.181881,37.925227,6998.9139168,40.925,1.333,1.691
0.6012,128.181881,37.925272,6998.843508,42.913,1.425,1.806
0.6179,128.181881,37.925318,6998.7727944,44.932,1.51,1.922
0.6345,128.181881,37.925363,6998.7014712,46.981,1.586,2.037
0.6513,128.181882,37.925408,6998.6304528,49.053,1.652,2.15
0.6679,128.181882,37.925454,6998.5591296,51.144,1.706,2.259
0.6847,128.181882,37.925499,6998.488111200001,53.248,1.753,2.367
0.7014,128.181882,37.925545,6998.416788,55.363,1.791,2.472
0.7181,128.181883,37.92559,6998.345464800001,57.488,1.819,2.572
0.7348,128.181883,37.925636,6998.274141600001,59.621,1.836,2.664
0.7514,128.181883,37.925681,6998.2019040000005,61.599,1.845,2.73
0.7682,128.181884,37.925727,6998.1296664,63.426,1.842,2.759
0.7848,128.181884,37.925773,6998.057124000001,65.103,1.819,2.739
0.8016,128.181885,37.925818,6997.9842768,66.634,1.779,2.679
0.8183,128.181885,37.925864,6997.9114296,68.021,1.728,2.594
0.835,128.181886,37.925909,6997.8379728,69.272,1.672,2.495
0.8517,128.181887,37.925955,6997.764516,70.392,1.613,2.388
0.8684,128.181888,37.926,6997.6907544000005,71.387,1.554,2.28
0.8851,128.181888,37.926046,6997.616688000001,72.265,1.497,2.174
0.9018,128.181889,37.926091,6997.542012,73.03,1.444,2.071
0.9185,128.18189,37.926137,6997.4670312,73.687,1.393,1.973
0.9352,128.181891,37.926183,6997.3914408,74.239,1.345,1.881
0.9519,128.181892,37.926228,6997.314936000001,74.699,1.305,1.794
0.9686,128.181893,37.926274,6997.2381264000005,75.086,1.271,1.712
0.9853,128.181895,37.926319,6997.1604024,75.42,1.238,1.637
1.002,128.181896,37.926365,6997.0820688,75.718,1.204,1.568
1.0187,128.181897,37.926411,6997.002516,75.996,1.168,1.506
1.0353,128.181898,37.926456,6996.921744,76.268,1.129,1.45
1.0521,128.1819,37.926502,6996.8397528,76.542,1.087,1.4
1.0688,128.181901,37.926547,6996.7562376000005,76.828,1.043,1.355
1.0855,128.181902,37.926593,6996.6708935999995,77.129,0.998,1.314
1.1022,128.181904,37.926639,6996.5843304,77.447,0.953,1.278
1.1189,128.181905,37.926684,6996.4956336000005,77.782,0.908,1.245
1.1356,128.181907,37.92673,6996.4054128,78.134,0.864,1.215
1.1522,128.181908,37.926776,6996.313668000001,78.502,0.822,1.188
1.169,128.18191,37.926821,6996.2197896,78.887,0.78,1.164
1.1857,128.181911,37.926867,6996.124082400001,79.285,0.739,1.142
1.2024,128.181913,37.926913,6996.0268512,79.697,0.699,1.123
1.2191,128.181914,37.926959,6995.9274864,80.122,0.66,1.105
1.2358,128.181916,37.927004,6995.8262928,80.56,0.622,1.09
1.2525,128.181918,37.92705,6995.723270400001,81.011,0.585,1.077
1.2691,128.181919,37.927096,6995.618419200001,81.476,0.548,1.065
1.2859,128.181921,37.927141,6995.5114344,81.957,0.511,1.055
1.3026,128.181923,37.927187,6995.402316,82.386,0.479,1.045
1.3193,128.181924,37.927233,6995.291368800001,82.764,0.451,1.038
1.3359,128.181926,37.927279,6995.178288000001,83.094,0.427,1.031
1.3527,128.181928,37.927324,6995.063683200001,83.38,0.403,1.026
1.3694,128.18193,37.92737,6994.9472496,83.628,0.38,1.023
1.386,128.181931,37.927416,6994.8289872000005,83.842,0.356,1.022
1.4028,128.181933,37.927462,6994.708896,84.03,0.331,1.022
1.4195,128.181935,37.927508,6994.5866712,84.197,0.305,1.023
1.4362,128.181937,37.927553,6994.4626176,84.347,0.279,1.026
1.4528,128.181939,37.927599,6994.3364304,84.487,0.252,1.03
1.4696,128.181941,37.927645,6994.208414400001,84.62,0.226,1.035
1.4863,128.181943,37.927691,6994.0779600000005,84.751,0.199,1.04
1.5029,128.181945,37.927737,6993.946286400001,84.985,0.165,1.053
1.5197,128.181947,37.927782,6993.812479200001,85.309,0.122,1.069
1.5364,128.181949,37.927828,6993.676233600001,85.706,0.077,1.085
1.5531,128.18195,37.927874,6993.537549600001,86.086,0.037,1.099
1.5697,128.181952,37.92792,6993.3964272,86.444,0.004,1.111
1.5865,128.181955,37.927966,6993.253476,86.78,-0.021,1.123
1.6032,128.181957,37.928012,6993.1080864000005,87.095,-0.044,1.134
1.6198,128.181959,37.928058,6992.9605632,87.393,-0.063,1.144
1.6366,128.181961,37.928104,6992.810906400001,87.675,-0.082,1.155
1.6533,128.181963,37.928149,6992.659116,87.947,-0.099,1.166
1.67,128.181965,37.928195,6992.5051920000005,88.211,-0.116,1.178
1.6867,128.181967,37.928241,6992.3488296,88.471,-0.132,1.189
1.7034,128.181969,37.928287,6992.190638400001,88.732,-0.149,1.201
1.7201,128.181971,37.928333,6992.0300088,88.995,-0.165,1.214
1.7368,128.181974,37.928379,6991.8672456,89.264,-0.182,1.226
1.7535,128.181976,37.928425,6991.702044,89.541,-0.198,1.239
1.7702,128.181978,37.928471,6991.535013600001,89.829,-0.214,1.253
1.7869,128.18198,37.928517,6991.3655448,90.127,-0.231,1.266
1.8036,128.181982,37.928563,6991.193942400001,90.436,-0.248,1.28
1.8203,128.181985,37.928609,6991.019901600001,90.756,-0.264,1.294
1.837,128.181987,37.928655,6990.844032,91.086,-0.281,1.308
1.8537,128.181989,37.928701,6990.665724,91.426,-0.298,1.323
1.8704,128.181991,37.928747,6990.4849776,91.776,-0.315,1.337
1.8871,128.181994,37.928793,6990.302097600001,92.135,-0.332,1.352
1.9038,128.181996,37.928839,6990.117084,92.503,-0.349,1.367
1.9205,128.181998,37.928885,6989.9299368,92.879,-0.366,1.382
1.9372,128.182,37.928931,6989.740351200001,93.262,-0.383,1.398
1.9539,128.182003,37.928977,6989.548632,93.651,-0.4,1.413
1.9706,128.182005,37.929023,6989.354474400001,94.046,-0.417,1.429
1.9873,128.182007,37.929069,6989.158183200001,94.445,-0.434,1.445
2.004,128.18201,37.929115,6988.9594536,94.847,-0.451,1.461
2.0207,128.182012,37.929161,6988.7585904,95.251,-0.468,1.478
2.0374,128.182014,37.929207,6988.5555936,95.656,-0.485,1.495
2.0541,128.182017,37.929254,6988.3498536,96.06,-0.502,1.512
2.0707,128.182019,37.9293,6988.14198,96.462,-0.519,1.529
2.0875,128.182022,37.929346,6987.9319728,96.861,-0.536,1.547
2.1042,128.182024,37.929392,6987.7195272,97.255,-0.553,1.565
2.1208,128.182026,37.929438,6987.5046432,97.643,-0.57,1.584
2.1376,128.182029,37.929484,6987.287016,97.94,-0.581,1.603
2.1543,128.182031,37.92953,6987.066950400001,98.15,-0.588,1.624
2.171,128.182034,37.929576,6986.8444464,98.287,-0.593,1.646
2.1877,128.182036,37.929623,6986.619504,98.366,-0.6,1.668
2.2044,128.182039,37.929669,6986.3921232,98.404,-0.61,1.69
2.2211,128.182042,37.929715,6986.1626088,98.413,-0.623,1.712
2.2378,128.182044,37.929761,6985.930351200001,98.402,-0.64,1.734
2.2544,128.182047,37.929807,6985.695960000001,98.375,-0.658,1.756
2.2712,128.182049,37.929853,6985.4591304,98.335,-0.678,1.777
2.2879,128.182052,37.9299,6985.2198624,98.279,-0.697,1.799
2.3045,128.182055,37.929946,6984.9778512,98.207,-0.716,1.821
2.3213,128.182057,37.929992,6984.7334016,98.113,-0.734,1.843
2.338,128.18206,37.930038,6984.486513600001,97.995,-0.75,1.866
2.3546,128.182063,37.930084,6984.2368824000005,97.847,-0.766,1.888
2.3714,128.182066,37.930131,6983.9848128,97.665,-0.78,1.912
2.3881,128.182069,37.930177,6983.7303048,97.443,-0.793,1.935
2.4048,128.182071,37.930223,6983.4730536,97.181,-0.806,1.959
2.4215,128.182074,37.930269,6983.213364,96.873,-0.818,1.983
2.4382,128.182077,37.930316,6982.9509312,96.515,-0.829,2.007
2.4549,128.18208,37.930362,6982.686060000001,96.101,-0.84,2.032
2.4716,128.182083,37.930408,6982.4184456,95.624,-0.849,2.057
2.4882,128.182086,37.930454,6982.148392800001,95.086,-0.857,2.082
2.505,128.182089,37.9305,6981.876206400001,94.489,-0.865,2.107
2.5217,128.182093,37.930547,6981.6012768,93.834,-0.873,2.132
2.5383,128.182096,37.930593,6981.3239088,93.124,-0.881,2.157
2.5551,128.182099,37.930639,6981.0444072,92.362,-0.89,2.182
2.5718,128.182102,37.930685,6980.762772,91.55,-0.898,2.206
2.5884,128.182106,37.930732,6980.4786984,90.689,-0.907,2.23
2.6052,128.182109,37.930778,6980.193405600001,89.988,-0.928,2.254
2.6219,128.182112,37.930824,6979.905979200001,89.44,-0.963,2.276
2.6386,128.182116,37.93087,6979.616419200001,89.048,-1.004,2.298
2.6553,128.182119,37.930917,6979.3247255999995,88.813,-1.049,2.319
2.6719,128.182122,37.930963,6979.0312032,88.733,-1.094,2.34
2.6887,128.182126,37.931009,6978.734937600001,88.77,-1.137,2.36
2.7054,128.182129,37.931055,6978.436538400001,88.905,-1.175,2.379
2.722,128.182133,37.931102,6978.1360056,89.123,-1.209,2.398
2.7388,128.182136,37.931148,6977.8333391999995,89.411,-1.239,2.417
2.7555,128.18214,37.931194,6977.5282344,89.756,-1.267,2.435
2.7721,128.182143,37.931241,6977.220996000001,90.149,-1.292,2.452
2.7889,128.182147,37.931287,6976.911624,90.581,-1.316,2.47
2.8056,128.18215,37.931333,6976.600118400001,91.046,-1.338,2.488
2.8222,128.182154,37.93138,6976.286479200001,91.538,-1.359,2.505
2.839,128.182157,37.931426,6975.970096800001,91.943,-1.373,2.523
2.8557,128.182161,37.931472,6975.6518856,92.265,-1.379,2.542
2.8724,128.182164,37.931519,6975.331236,92.501,-1.382,2.561
2.8891,128.182168,37.931565,6975.0084528,92.652,-1.383,2.581
2.9057,128.182172,37.931612,6974.6835360000005,92.718,-1.383,2.602
2.9225,128.182175,37.931658,6974.3561808,92.701,-1.385,2.623
2.9392,128.182179,37.931704,6974.0269968,92.606,-1.387,2.645
2.9558,128.182183,37.931751,6973.695679200001,92.434,-1.39,2.668
2.9726,128.182186,37.931797,6973.3619232,92.19,-1.394,2.691
2.9893,128.18219,37.931844,6973.026033600001,91.876,-1.398,2.714
3.0059,128.182194,37.93189,6972.6877056,91.497,-1.402,2.738
3.0227,128.182198,37.931936,6972.3475488,91.057,-1.405,2.763
3.0394,128.182202,37.931983,6972.0052584000005,90.556,-1.408,2.787
3.056,128.182206,37.932029,6971.6608344,89.999,-1.411,2.811
3.0728,128.18221,37.932076,6971.3142768,89.386,-1.415,2.836
3.0895,128.182214,37.932122,6970.9658904,88.72,-1.419,2.86
3.1062,128.182218,37.932168,6970.615370400001,88.003,-1.423,2.884
3.1229,128.182222,37.932215,6970.2630216,87.238,-1.428,2.907
3.1395,128.182226,37.932261,6969.908844,86.428,-1.433,2.93
3.1563,128.18223,37.932308,6969.5528376,85.573,-1.438,2.953
3.173,128.182235,37.932354,6969.1950024,84.677,-1.444,2.975
3.1896,128.182239,37.9324,6968.8365576,83.948,-1.463,2.997
3.2064,128.182243,37.932447,6968.476284000001,83.379,-1.495,3.019
3.2231,128.182248,37.932493,6968.1141816,82.974,-1.535,3.041
3.2397,128.182252,37.93254,6967.7502504,82.732,-1.577,3.063
3.2565,128.182256,37.932586,6967.3844904,82.651,-1.621,3.084
3.2732,128.182261,37.932633,6967.016901600001,82.723,-1.663,3.104
3.2899,128.182265,37.932679,6966.647179200001,82.927,-1.703,3.123
3.3066,128.18227,37.932726,6966.2753232000005,83.244,-1.74,3.142
3.3233,128.182274,37.932772,6965.901638400001,83.657,-1.774,3.16
3.34,128.182278,37.932819,6965.525515200001,84.152,-1.805,3.177
3.3567,128.182283,37.932865,6965.1475632,84.714,-1.834,3.194
3.3734,128.182287,37.932912,6964.766868000001,85.196,-1.851,3.211
3.3901,128.182292,37.932958,6964.3840392,85.599,-1.859,3.226
3.4068,128.182296,37.933005,6963.9996864,85.92,-1.862,3.243
3.4235,128.182301,37.933051,6963.613200000001,86.157,-1.862,3.259
3.4402,128.182305,37.933098,6963.2248848,86.31,-1.862,3.276
3.4569,128.18231,37.933144,6962.835045600001,86.381,-1.861,3.294
3.4736,128.182314,37.933191,6962.443072800001,86.374,-1.862,3.313
3.4903,128.182319,37.933237,6962.0492712,86.291,-1.863,3.333
3.507,128.182324,37.933284,6961.6539456,86.136,-1.865,3.353
3.5237,128.182328,37.933331,6961.257096,85.911,-1.868,3.373
3.5404,128.182333,37.933377,6960.8581128000005,85.62,-1.871,3.395
3.5571,128.182338,37.933424,6960.4576056000005,85.265,-1.875,3.417
3.5738,128.182343,37.93347,6960.055574400001,84.849,-1.879,3.439
3.5905,128.182348,37.933517,6959.652019200001,84.375,-1.883,3.461
3.6072,128.182353,37.933563,6959.2466352,83.846,-1.888,3.483
3.6239,128.182357,37.93361,6958.8397272,83.263,-1.893,3.505
3.6406,128.182362,37.933657,6958.4312952,82.63,-1.899,3.527
3.6573,128.182368,37.933703,6958.0213392,81.948,-1.905,3.549
3.674,128.182373,37.93375,6957.609859200001,81.221,-1.911,3.57
3.6907,128.182378,37.933796,6957.197160000001,80.448,-1.918,3.591
3.7074,128.182383,37.933843,6956.7832416,79.634,-1.925,3.611
3.7241,128.182388,37.93389,6956.3677992,78.78,-1.933,3.63
3.7408,128.182393,37.933936,6955.951442400001,77.888,-1.941,3.649
3.7575,128.182399,37.933983,6955.5335616,76.959,-1.949,3.667
3.7742,128.182404,37.934029,6955.1156808000005,76.203,-1.971,3.687
3.7909,128.182409,37.934076,6954.696276,75.614,-2.005,3.708
3.8076,128.182415,37.934123,6954.275652000001,75.195,-2.047,3.731
3.8243,128.18242,37.934169,6953.853504000001,74.945,-2.091,3.753
3.841,128.182425,37.934216,6953.430136800001,74.861,-2.137,3.775
3.8577,128.182431,37.934263,6953.0049408,74.94,-2.182,3.796
3.8744,128.182436,37.934309,6952.577916,75.174,-2.226,3.816
3.8911,128.182442,37.934356,6952.1490624,75.552,-2.268,3.835
3.9078,128.182447,37.934403,6951.71838,76.052,-2.308,3.854
3.9245,128.182453,37.934449,6951.285564000001,76.657,-2.344,3.872
3.9412,128.182458,37.934496,6950.8506144,77.187,-2.368,3.887
3.9579,128.182464,37.934543,6950.4135312,77.641,-2.379,3.9
3.9746,128.182469,37.934589,6949.975228800001,78.015,-2.383,3.912
3.9913,128.182475,37.934636,6949.5354024,78.306,-2.384,3.925
4.008,128.18248,37.934683,6949.094052000001,78.512,-2.384,3.938
4.0247,128.182486,37.93473,6948.6514824000005,78.636,-2.384,3.952
4.0414,128.182492,37.934776,6948.2076936,78.68,-2.385,3.968
4.058,128.182497,37.934823,6947.7623808,78.648,-2.386,3.985
4.0748,128.182503,37.93487,6947.3161536,78.542,-2.387,4.003
4.0915,128.182509,37.934916,6946.8687072,78.366,-2.389,4.021
4.1082,128.182515,37.934963,6946.4200416,78.122,-2.391,4.041
4.1249,128.18252,37.93501,6945.9704616,77.814,-2.394,4.061
4.1415,128.182526,37.935057,6945.5196624,77.445,-2.397,4.082
4.1583,128.182532,37.935103,6945.067644,77.016,-2.401,4.102
4.175,128.182538,37.93515,6944.614711200001,76.531,-2.404,4.123
4.1917,128.182544,37.935197,6944.1605592000005,75.992,-2.408,4.144
4.2084,128.18255,37.935244,6943.705492800001,75.401,-2.413,4.165
4.2251,128.182556,37.935291,6943.249512,74.761,-2.418,4.186
4.2417,128.182562,37.935337,6942.7926168,74.074,-2.423,4.206
4.2585,128.182569,37.935384,6942.3348072,73.341,-2.429,4.226
4.2752,128.182575,37.935431,6941.876083200001,72.566,-2.435,4.246
4.2919,128.182581,37.935478,6941.4167496,71.75,-2.441,4.264
4.3086,128.182587,37.935524,6940.9568064000005,70.894,-2.449,4.282
4.3252,128.182594,37.935571,6940.4959488,70.001,-2.456,4.3
4.342,128.1826,37.935618,6940.0347864000005,69.072,-2.464,4.316
4.3587,128.182607,37.935665,6939.573014400001,68.109,-2.473,4.331
4.3754,128.182613,37.935712,6939.1109376,67.114,-2.482,4.346
4.3921,128.182619,37.935758,6938.6482512,66.088,-2.492,4.36
4.4088,128.182626,37.935805,6938.186174400001,65.242,-2.515,4.378
4.4254,128.182633,37.935852,6937.723183200001,64.571,-2.55,4.4
4.4422,128.182639,37.935899,6937.259582400001,64.076,-2.593,4.425
4.4589,128.182646,37.935946,6936.7950672,63.757,-2.639,4.45
4.4756,128.182652,37.935992,6936.329637600001,63.402,-2.673,4.47
4.4923,128.182659,37.936039,6935.8639032,63.012,-2.692,4.488
4.5089,128.182666,37.936086,6935.3981688,62.58,-2.702,4.505
4.5256,128.182673,37.936133,6934.9324344,62.101,-2.705,4.525
4.5424,128.182679,37.93618,6934.4667,61.572,-2.705,4.547
4.5591,128.182686,37.936227,6934.001270400001,60.992,-2.702,4.574
4.5758,128.182693,37.936273,6933.5361456,60.364,-2.698,4.605
4.5925,128.1827,37.93632,6933.0713256,59.688,-2.69,4.641
4.6091,128.182707,37.936367,6932.6068104000005,58.968,-2.68,4.682
4.6259,128.182714,37.936414,6932.1429048,58.204,-2.667,4.729
4.6426,128.182721,37.936461,6931.6796088,57.399,-2.65,4.781
4.6593,128.182728,37.936508,6931.2169224,56.556,-2.63,4.838
4.676,128.182735,37.936555,6930.7548456,55.675,-2.607,4.899
4.6927,128.182743,37.936601,6930.293988,54.758,-2.579,4.965
4.7093,128.18275,37.936648,6929.8340448,53.807,-2.548,5.036
4.7261,128.182757,37.936695,6929.3756256,52.824,-2.512,5.11
4.7428,128.182764,37.936742,6928.9181208,51.809,-2.472,5.189
4.7595,128.182772,37.936789,6928.4624448,50.765,-2.428,5.272
4.7762,128.182779,37.936836,6928.008597600001,49.692,-2.379,5.357
4.7928,128.182787,37.936883,6927.556579200001,48.591,-2.326,5.445
4.8096,128.182794,37.93693,6927.1063896,47.463,-2.271,5.533
4.8263,128.182802,37.936977,6926.6589432,46.308,-2.212,5.622
4.843,128.182809,37.937023,6926.2136304,45.129,-2.15,5.712
4.8597,128.182817,37.93707,6925.771060800001,43.925,-2.085,5.802
4.8764,128.182825,37.937117,6925.3315391999995,42.696,-2.017,5.891
4.893,128.182833,37.937164,6924.895065600001,41.444,-1.946,5.98
4.9098,128.182841,37.937211,6924.4619448,40.168,-1.872,6.068
4.9265,128.182848,37.937258,6924.0324816,38.87,-1.797,6.153
4.9432,128.182856,37.937305,6923.606676,37.548,-1.72,6.236
4.9599,128.182864,37.937352,6923.184832800001,36.205,-1.64,6.318
4.9765,128.182872,37.937399,6922.7675616,34.839,-1.558,6.398
4.9932,128.18288,37.937446,6922.3545576,33.45,-1.473,6.475
5.01,128.182889,37.937493,6921.9464304,32.039,-1.387,6.551
5.0267,128.182897,37.93754,6921.542265600001,30.619,-1.301,6.624
5.0434,128.182905,37.937587,6921.1429776,29.258,-1.215,6.699
5.0601,128.182913,37.937634,6920.747652000001,27.997,-1.132,6.78
5.0767,128.182921,37.93768,6920.3568984,26.882,-1.052,6.867
5.0935,128.18293,37.937727,6919.9701072,25.924,-0.973,6.959
5.1102,128.182938,37.937774,6919.5869736,25.122,-0.897,7.052
5.1269,128.182947,37.937821,6919.207497600001,24.459,-0.824,7.14
5.1436,128.182955,37.937868,6918.831069600001,23.908,-0.758,7.22
5.1602,128.182963,37.937915,6918.4576896,23.449,-0.698,7.291
5.1769,128.182972,37.937962,6918.0879672,23.04,-0.649,7.35
5.1937,128.18298,37.938009,6917.7228168,22.652,-0.61,7.397
5.2104,128.182989,37.938057,6917.361324,22.205,-0.584,7.427
5.2271,128.182997,37.938104,6917.004708,21.695,-0.573,7.443
5.2438,128.183006,37.938151,6916.6529688,21.122,-0.576,7.447
5.2604,128.183015,37.938198,6916.306411200001,20.482,-0.591,7.445
5.2772,128.183023,37.938245,6915.96534,19.776,-0.616,7.438
5.2939,128.183032,37.938292,6915.63006,19.006,-0.646,7.429
5.3106,128.183041,37.938339,6915.300876,18.173,-0.679,7.418
5.3273,128.183049,37.938386,6914.978092800001,17.279,-0.712,7.408
5.3439,128.183058,37.938433,6914.661100800001,16.325,-0.739,7.399
5.3606,128.183067,37.93848,6914.3499,15.315,-0.759,7.393
5.3774,128.183076,37.938527,6914.0451,14.248,-0.768,7.39
5.3941,128.183084,37.938574,6913.745786400001,13.128,-0.769,7.388
5.4108,128.183093,37.938621,6913.4528736,11.956,-0.762,7.389
5.4275,128.183102,37.938668,6913.165752000001,10.733,-0.747,7.391
5.4441,128.183111,37.938716,6912.8844216,9.461,-0.726,7.393
5.4609,128.18312,37.938763,6912.6082728,8.169,-0.701,7.397
5.4776,128.183129,37.93881,6912.3391344,6.83,-0.674,7.401
5.4943,128.183138,37.938857,6912.074872800001,5.454,-0.646,7.403
5.511,128.183147,37.938904,6911.8170119999995,4.035,-0.619,7.404
5.5277,128.183156,37.938951,6911.5649424,2.573,-0.595,7.402
5.5443,128.183164,37.938998,6911.3189688,1.069,-0.574,7.399
5.5611,128.183173,37.939045,6911.0787864,-0.474,-0.559,7.395
5.5778,128.183182,37.939093,6910.844395200001,-2.058,-0.549,7.389
5.5945,128.183191,37.93914,6910.6154904,-3.682,-0.545,7.382
5.6112,128.1832,37.939187,6910.3926816,-5.344,-0.545,7.374
5.6278,128.183209,37.939234,6910.175054400001,-7.044,-0.548,7.366
5.6445,128.183218,37.939281,6909.9632184,-8.781,-0.555,7.356
5.6613,128.183227,37.939328,6909.7568688,-10.554,-0.564,7.347
5.678,128.183236,37.939376,6909.5557008000005,-12.362,-0.574,7.336
5.6947,128.183245,37.939423,6909.3600192,-14.205,-0.582,7.324
5.7114,128.183253,37.93947,6909.1701288,-16.08,-0.574,7.305
5.728,128.183262,37.939517,6908.985724800001,-17.986,-0.535,7.274
5.7448,128.183271,37.939564,6908.8074168,-19.925,-0.452,7.226
5.7615,128.18328,37.939612,6908.6345952,-21.895,-0.329,7.16
5.7782,128.183288,37.939659,6908.467869600001,-23.897,-0.177,7.077
5.7949,128.183297,37.939706,6908.3069352,-25.93,-0.003,6.981
5.8115,128.183305,37.939753,6908.151792000001,-27.992,0.183,6.871
5.8282,128.183314,37.9398,6908.0030496,-30.081,0.378,6.749
5.845,128.183323,37.939848,6907.8600983999995,-32.197,0.577,6.616
5.8617,128.183331,37.939895,6907.7232432,-34.338,0.778,6.471
5.8784,128.183339,37.939942,6907.5927888,-36.504,0.978,6.314
5.8951,128.183348,37.939989,6907.4681256,-38.693,1.176,6.147
5.9117,128.183356,37.940037,6907.3498632,-40.907,1.37,5.968
5.9285,128.183364,37.940084,6907.237392000001,-43.145,1.559,5.778
5.9452,128.183372,37.940131,6907.1313216,-45.406,1.744,5.576
5.9619,128.18338,37.940178,6907.030737600001,-47.692,1.922,5.363
5.9786,128.183388,37.940226,6906.9359448000005,-50.002,2.094,5.138
5.9952,128.183396,37.940273,6906.8469432,-52.336,2.26,4.901
6.0119,128.183403,37.94032,6906.7631232,-54.695,2.417,4.651
6.0287,128.183411,37.940367,6906.68418,-57.078,2.566,4.389
6.0454,128.183418,37.940415,6906.6104184000005,-59.487,2.707,4.114
6.0621,128.183426,37.940462,6906.540924000001,-61.914,2.838,3.826
6.0788,128.183433,37.940509,6906.474782400001,-64.326,2.96,3.527
6.0954,128.18344,37.940556,6906.4119936,-66.688,3.073,3.22
6.1121,128.183447,37.940604,6906.3519479999995,-68.971,3.176,2.911
6.1289,128.183454,37.940651,6906.294036,-71.15,3.266,2.603
6.1456,128.18346,37.940698,6906.2382576,-73.208,3.344,2.296
6.1623,128.183467,37.940746,6906.1836984,-75.131,3.409,1.994
6.179,128.183473,37.940793,6906.1303584,-76.914,3.46,1.695
6.1956,128.18348,37.94084,6906.077628000001,-78.554,3.499,1.4
6.2124,128.183486,37.940888,6906.0255072,-80.052,3.525,1.11
6.2291,128.183492,37.940935,6905.973691200001,-81.414,3.54,0.824
6.2458,128.183498,37.940982,6905.9218752,-82.646,3.543,0.544
6.2625,128.183504,37.94103,6905.8694496,-83.757,3.536,0.269
6.2791,128.18351,37.941077,6905.817024000001,-84.754,3.52,0.0
6.2958,128.183515,37.941124,6905.7636840000005,-85.649,3.495,359.736
6.3126,128.183521,37.941172,6905.7094296,-86.45,3.462,359.479
6.3293,128.183527,37.941219,6905.654260800001,-87.167,3.423,359.228
6.346,128.183532,37.941266,6905.598177600001,-87.81,3.379,358.984
6.3627,128.183537,37.941314,6905.540875199999,-88.386,3.329,358.746
6.3793,128.183542,37.941361,6905.4820488000005,-88.905,3.275,358.515
6.3961,128.183547,37.941409,6905.4220032,-89.376,3.219,358.29
6.4128,128.183552,37.941456,6905.360433600001,-89.808,3.162,358.072
6.4295,128.183557,37.941504,6905.2970352,-90.21,3.106,357.859
6.4462,128.183562,37.941551,6905.2318080000005,-90.587,3.052,357.652
6.4628,128.183566,37.941598,6905.1650568000005,-90.941,3.0,357.451
6.4795,128.183571,37.941646,6905.0961720000005,-91.27,2.948,357.254
6.4963,128.183575,37.941693,6905.0257632,-91.574,2.896,357.062
6.513,128.183579,37.941741,6904.9532208,-91.854,2.843,356.875
6.5297,128.183583,37.941788,6904.8785448,-92.107,2.79,356.691
6.5464,128.183587,37.941836,6904.8020400000005,-92.333,2.737,356.511
6.5631,128.183591,37.941883,6904.723401600001,-92.53,2.684,356.335
6.5798,128.183594,37.941931,6904.6426296,-92.697,2.63,356.163
6.5965,128.183598,37.941978,6904.559724000001,-92.832,2.577,355.994
6.6132,128.183601,37.942026,6904.4746847999995,-92.935,2.524,355.828
6.6299,128.183604,37.942073,6904.3872071999995,-93.001,2.472,355.665
6.6466,128.183607,37.94212,6904.297596,-93.03,2.421,355.506
6.6633,128.18361,37.942168,6904.2058512,-93.02,2.37,355.349
6.68,128.183613,37.942215,6904.1116680000005,-92.972,2.321,355.195
6.6967,128.183616,37.942263,6904.015351200001,-92.883,2.272,355.044
6.7134,128.183618,37.94231,6903.916596,-92.754,2.225,354.896
6.7301,128.183621,37.942358,6903.815707199999,-92.584,2.178,354.75
6.7468,128.183623,37.942405,6903.7126848,-92.373,2.134,354.607
6.7635,128.183625,37.942453,6903.607224,-92.124,2.09,354.466
6.7802,128.183628,37.9425,6903.4999344,-91.838,2.048,354.328
6.7969,128.183629,37.942548,6903.3902064,-91.519,2.007,354.193
6.8136,128.183631,37.942595,6903.2786496,-91.167,1.967,354.06
6.8303,128.183633,37.942643,6903.1649592,-90.785,1.93,353.929
6.847,128.183635,37.94269,6903.0491352,-90.376,1.893,353.8
6.8637,128.183636,37.942737,6902.9317872,-89.943,1.858,353.674
6.8804,128.183637,37.942785,6902.8123056,-89.493,1.825,353.549
6.8971,128.183638,37.942832,6902.6913,-89.029,1.793,353.427
6.9138,128.183639,37.94288,6902.568465600001,-88.555,1.762,353.305
6.9305,128.18364,37.942927,6902.4441072,-88.075,1.734,353.186
6.9472,128.183641,37.942975,6902.318224800001,-87.592,1.707,353.068
6.9639,128.183642,37.943022,6902.1911232,-87.107,1.683,352.951
6.9806,128.183642,37.94307,6902.062497600001,-86.626,1.66,352.835
6.9973,128.183642,37.943117,6901.9326528,-86.151,1.638,352.72
7.014,128.183642,37.943164,6901.8018936,-85.686,1.618,352.605
7.0307,128.183642,37.943212,6901.669915200001,-85.233,1.6,352.491
7.0474,128.183642,37.943259,6901.537327200001,-84.793,1.583,352.377
7.0641,128.183642,37.943307,6901.403520000001,-84.37,1.568,352.263
7.0808,128.183642,37.943354,6901.2691032,-83.963,1.554,352.149
7.0975,128.183641,37.943401,6901.1340768,-83.575,1.542,352.035
7.1142,128.18364,37.943449,6900.9984408,-83.206,1.532,351.92
7.1309,128.183639,37.943496,6900.8621952,-82.857,1.523,351.804
7.1476,128.183638,37.943543,6900.7256448,-82.528,1.515,351.688
7.1643,128.183637,37.943591,6900.5884848,-82.22,1.509,351.572
7.181,128.183636,37.943638,6900.45102,-81.934,1.505,351.454
7.1977,128.183634,37.943685,6900.3135552,-81.67,1.501,351.336
7.2144,128.183633,37.943733,6900.1757856,-81.426,1.497,351.217
7.2311,128.183631,37.94378,6900.0380159999995,-81.201,1.494,351.096
7.2478,128.183629,37.943827,6899.9002464000005,-80.996,1.49,350.975
7.2645,128.183627,37.943874,6899.762172,-80.809,1.487,350.852
7.2812,128.183625,37.943922,6899.624097600001,-80.641,1.484,350.729
7.2979,128.183622,37.943969,6899.486328000001,-80.49,1.482,350.605
7.3146,128.18362,37.944016,6899.3482536,-80.356,1.481,350.48
7.3313,128.183617,37.944063,6899.210179200001,-80.236,1.481,350.354
7.348,128.183614,37.944111,6899.0721048000005,-80.132,1.481,350.227
7.3647,128.183611,37.944158,6898.9343352,-80.041,1.482,350.099
7.3814,128.183608,37.944205,6898.796565600001,-79.964,1.484,349.971
7.3981,128.183605,37.944252,6898.658796000001,-79.899,1.486,349.842
7.4148,128.183601,37.944299,6898.5213312000005,-79.846,1.488,349.712
7.4315,128.183598,37.944347,6898.3838663999995,-79.803,1.491,349.582
7.4482,128.183594,37.944394,6898.2464016,-79.772,1.494,349.45
7.4649,128.18359,37.944441,6898.1092416,-79.749,1.497,349.319
7.4816,128.183586,37.944488,6897.972386400001,-79.736,1.5,349.187
7.4983,128.183582,37.944535,6897.8352264000005,-79.731,1.504,349.054
7.515,128.183578,37.944582,6897.6983712,-79.734,1.507,348.921
7.5317,128.183573,37.944629,6897.5618208,-79.744,1.511,348.787
7.5484,128.183569,37.944676,6897.425270400001,-79.761,1.515,348.653
7.5651,128.183564,37.944723,6897.2887200000005,-79.785,1.518,348.519
7.5818,128.183559,37.94477,6897.152474400001,-79.815,1.522,348.384
7.5985,128.183554,37.944817,6897.016228800001,-79.851,1.525,348.249
7.6152,128.183549,37.944864,6896.8799832,-79.892,1.528,348.114
7.6319,128.183544,37.944911,6896.744042400001,-79.938,1.531,347.978
7.6486,128.183538,37.944958,6896.608101600001,-79.989,1.534,347.842
7.6653,128.183533,37.945005,6896.472160800001,-80.044,1.536,347.705
7.682,128.183527,37.945052,6896.336220000001,-80.103,1.539,347.569
7.6987,128.183521,37.945099,6896.200584000001,-80.167,1.541,347.432
7.7154,128.183515,37.945146,6896.064948,-80.234,1.542,347.295
7.7321,128.183509,37.945193,6895.929007199999,-80.304,1.544,347.158
7.7488,128.183503,37.94524,6895.7933712,-80.378,1.545,347.02
7.7655,128.183496,37.945287,6895.6574304,-80.455,1.545,346.882
7.7822,128.18349,37.945333,6895.5217944000005,-80.535,1.546,346.745
7.7989,128.183483,37.94538,6895.3858536,-80.618,1.546,346.607
7.8156,128.183476,37.945427,6895.2499128,-80.703,1.545,346.468
7.8323,128.183469,37.945474,6895.113972,-80.791,1.545,346.33
7.849,128.183462,37.94552,6894.9780312,-80.881,1.543,346.191
7.8657,128.183455,37.945567,6894.841785600001,-80.972,1.541,346.053
7.8824,128.183447,37.945614,6894.70554,-81.065,1.538,345.914
7.8991,128.18344,37.945661,6894.5692944,-81.16,1.535,345.774
7.9158,128.183432,37.945707,6894.4324392,-81.256,1.53,345.635
7.9325,128.183424,37.945754,6894.2958888,-81.353,1.525,345.495
7.9492,128.183416,37.945801,6894.158728800001,-81.451,1.519,345.355
7.9659,128.183408,37.945847,6894.021568800001,-81.551,1.512,345.215
7.9826,128.1834,37.945894,6893.884104000001,-81.652,1.504,345.074
7.9993,128.183391,37.94594,6893.7463344,-81.754,1.495,344.933
8.016,128.183383,37.945987,6893.608260000001,-81.857,1.485,344.792
8.0327,128.183374,37.946033,6893.469576,-81.961,1.475,344.651
8.0494,128.183365,37.94608,6893.330892000001,-82.066,1.463,344.509
8.0661,128.183356,37.946126,6893.1915984,-82.173,1.451,344.368
8.0828,128.183347,37.946173,6893.0523048000005,-82.28,1.438,344.226
8.0994,128.183338,37.946219,6892.912096800001,-82.388,1.424,344.085
8.1161,128.183329,37.946265,6892.771584000001,-82.497,1.41,343.943
8.1329,128.183319,37.946312,6892.6307664,-82.606,1.394,343.802
8.1496,128.183309,37.946358,6892.4893392,-82.717,1.378,343.66
8.1663,128.1833,37.946404,6892.3473023999995,-82.828,1.361,343.519
8.183,128.18329,37.94645,6892.204656000001,-82.939,1.343,343.377
8.1997,128.18328,37.946496,6892.0617048,-83.052,1.325,343.236
8.2164,128.18327,37.946543,6891.9178392,-83.165,1.306,343.095
8.2331,128.183259,37.946589,6891.773364000001,-83.278,1.286,342.954
8.2498,128.183249,37.946635,6891.628584000001,-83.392,1.265,342.813
8.2665,128.183238,37.946681,6891.4828896,-83.507,1.243,342.672
8.2831,128.183227,37.946727,6891.3362808,-83.622,1.221,342.532
8.2998,128.183217,37.946773,6891.189367200001,-83.738,1.198,342.391
8.3166,128.183206,37.946819,6891.0415391999995,-83.855,1.174,342.251
8.3333,128.183194,37.946865,6890.892796800001,-83.972,1.149,342.111
8.35,128.183183,37.946911,6890.7434448,-84.089,1.124,341.97
8.3667,128.183172,37.946957,6890.5931784,-84.207,1.098,341.829
8.3834,128.18316,37.947003,6890.441997600001,-84.326,1.071,341.688
8.4001,128.183149,37.947048,6890.2899024,-84.445,1.044,341.546
8.4168,128.183137,37.947094,6890.137197600001,-84.565,1.016,341.404
8.4335,128.183125,37.94714,6889.983273600001,-84.685,0.987,341.262
8.4502,128.183113,37.947186,6889.8284352,-84.807,0.958,341.119
8.4668,128.1831,37.947232,6889.672377600001,-84.929,0.929,340.976
8.4835,128.183088,37.947277,6889.515710400001,-85.053,0.899,340.832
8.5003,128.183076,37.947323,6889.357519200001,-85.177,0.869,340.689
8.517,128.183063,37.947369,6889.1987184,-85.303,0.839,340.545
8.5337,128.18305,37.947414,6889.0383936,-85.43,0.808,340.4
8.5504,128.183037,37.94746,6888.8771544,-85.557,0.777,340.256
8.5671,128.183024,37.947505,6888.714696000001,-85.686,0.746,340.111
8.5838,128.183011,37.947551,6888.550713600001,-85.816,0.714,339.967
8.6005,128.182998,37.947596,6888.3858168,-85.946,0.682,339.822
8.6172,128.182984,37.947642,6888.2197008,-86.078,0.65,339.677
8.6339,128.18297,37.947687,6888.052060800001,-86.21,0.618,339.532
8.6505,128.182957,37.947733,6887.883201600001,-86.344,0.585,339.386
8.6672,128.182943,37.947778,6887.7131232,-86.478,0.552,339.241
8.684,128.182929,37.947823,6887.5415207999995,-86.614,0.518,339.096
8.7007,128.182915,37.947868,6887.3683944,-86.75,0.484,338.95
8.7174,128.1829,37.947914,6887.193744,-86.887,0.45,338.805
8.7341,128.182886,37.947959,6887.0178744,-87.026,0.415,338.659
8.7508,128.182871,37.948004,6886.8404808000005,-87.165,0.38,338.513
8.7675,128.182857,37.948049,6886.6615632,-87.306,0.345,338.368
8.7842,128.182842,37.948094,6886.4808168,-87.447,0.309,338.222
8.8009,128.182827,37.94814,6886.2985464,-87.59,0.273,338.076
8.8176,128.182812,37.948185,6886.114752,-87.734,0.236,337.93
8.8342,128.182797,37.94823,6885.929433600001,-87.879,0.199,337.784
8.8509,128.182781,37.948275,6885.7422864,-88.025,0.162,337.638
8.8676,128.182766,37.94832,6885.553310400001,-88.173,0.124,337.493
8.8844,128.18275,37.948365,6885.362505600001,-88.321,0.086,337.347
8.9011,128.182734,37.948409,6885.169872,-88.471,0.047,337.201
8.9178,128.182718,37.948454,6884.9757144000005,-88.622,0.008,337.055
8.9345,128.182702,37.948499,6884.779423200001,-88.774,-0.03,336.908
8.9512,128.182686,37.948544,6884.5813032,-88.927,-0.07,336.762
8.9679,128.18267,37.948589,6884.3813544,-89.081,-0.111,336.616
8.9846,128.182653,37.948633,6884.179272,-89.237,-0.151,336.47
9.0013,128.182637,37.948678,6883.975360800001,-89.394,-0.193,336.324
9.0179,128.18262,37.948723,6883.769316,-89.552,-0.234,336.178
9.0346,128.182603,37.948767,6883.561137600001,-89.711,-0.276,336.031
9.0513,128.182586,37.948812,6883.3508256,-89.871,-0.319,335.885
9.0681,128.182569,37.948856,6883.13838,-90.033,-0.362,335.739
9.0848,128.182552,37.948901,6882.924105600001,-90.196,-0.405,335.592
9.1015,128.182534,37.948945,6882.707088000001,-90.36,-0.449,335.446
9.1182,128.182517,37.94899,6882.488241600001,-90.525,-0.494,335.3
9.1349,128.182499,37.949034,6882.266956800001,-90.692,-0.539,335.153
9.1516,128.182481,37.949078,6882.0432336,-90.859,-0.584,335.007
9.1683,128.182463,37.949123,6881.817072,-91.028,-0.63,334.86
9.185,128.182445,37.949167,6881.5887768,-91.197,-0.676,334.714
9.2016,128.182427,37.949211,6881.357738400001,-91.368,-0.723,334.567
9.2183,128.182408,37.949255,6881.1245664,-91.54,-0.77,334.421
9.235,128.18239,37.949299,6880.888651200001,-91.713,-0.818,334.275
9.2518,128.182371,37.949344,6880.650297600001,-91.887,-0.867,334.128
9.2685,128.182353,37.949388,6880.409200800001,-92.062,-0.915,333.981
9.2852,128.182334,37.949432,6880.1656656000005,-92.238,-0.965,333.835
9.3019,128.182315,37.949476,6879.9193872000005,-92.415,-1.015,333.688
9.3186,128.182296,37.949519,6879.670365600001,-92.592,-1.065,333.541
9.3353,128.182276,37.949563,6879.418600800001,-92.771,-1.116,333.394
9.352,128.182257,37.949607,6879.164092800001,-92.951,-1.168,333.247
9.3687,128.182237,37.949651,6878.906841600001,-93.131,-1.22,333.1
9.3854,128.182218,37.949695,6878.646542400001,-93.313,-1.272,332.953
9.402,128.182198,37.949738,6878.3835,-93.495,-1.325,332.806
9.4187,128.182178,37.949782,6878.1174096,-93.678,-1.379,332.659
9.4355,128.182158,37.949826,6877.848576,-93.861,-1.433,332.512
9.4522,128.182138,37.949869,6877.5763896,-94.046,-1.488,332.365
9.4689,128.182117,37.949913,6877.301155200001,-94.231,-1.543,332.218
9.4856,128.182097,37.949956,6877.0231776,-94.416,-1.599,332.071
9.5023,128.182076,37.95,6876.741847200001,-94.603,-1.655,331.925
9.519,128.182055,37.950043,6876.457164,-94.789,-1.712,331.778
9.5357,128.182035,37.950086,6876.1694328,-94.977,-1.77,331.631
9.5524,128.182014,37.95013,6875.8783488,-95.165,-1.828,331.484
9.5691,128.181992,37.950173,6875.583912,-95.354,-1.887,331.337
9.5857,128.181971,37.950216,6875.286427200001,-95.543,-1.946,331.191
9.6024,128.18195,37.950259,6874.9852848,-95.732,-2.006,331.044
9.6192,128.181928,37.950302,6874.6807896,-95.922,-2.066,330.898
9.6359,128.181907,37.950345,6874.372636800001,-96.113,-2.127,330.751
9.6526,128.181885,37.950388,6874.0611312,-96.304,-2.188,330.605
9.6693,128.181863,37.950431,6873.7462728,-96.495,-2.25,330.459
9.686,128.181841,37.950474,6873.427452000001,-96.687,-2.313,330.312
9.7027,128.181819,37.950517,6873.1052784,-96.879,-2.376,330.166
9.7194,128.181797,37.95056,6872.779142400001,-97.071,-2.44,330.02
9.7361,128.181774,37.950603,6872.4496536,-97.263,-2.504,329.874
9.7528,128.181752,37.950645,6872.1162024,-97.456,-2.569,329.728
9.7694,128.181729,37.950688,6871.7787888,-97.649,-2.634,329.582
9.7861,128.181706,37.950731,6871.4377176,-97.842,-2.7,329.436
9.8029,128.181683,37.950773,6871.092684000001,-98.036,-2.767,329.291
9.8196,128.18166,37.950816,6870.7436880000005,-98.229,-2.834,329.145
9.8363,128.181637,37.950858,6870.3907296,-98.423,-2.902,329.0
9.853,128.181614,37.9509,6870.0338088,-98.617,-2.97,328.854
9.8697,128.18159,37.950943,6869.6729256,-98.811,-3.039,328.709
9.8864,128.181567,37.950985,6869.3077752,-99.005,-3.108,328.564
9.9031,128.181543,37.951027,6868.9383576,-99.199,-3.178,328.419
9.9198,128.181519,37.951069,6868.5649776,-99.393,-3.249,328.274
9.9365,128.181495,37.951112,6868.1873304,-99.587,-3.32,328.129
9.9531,128.181471,37.951154,6867.805416,-99.781,-3.391,327.985
9.9698,128.181447,37.951196,6867.4189295999995,-99.975,-3.464,327.84
9.9865,128.181423,37.951238,6867.0284808,-100.169,-3.536,327.696
10.0033,128.181399,37.95128,6866.633460000001,-100.364,-3.61,327.551
10.02,128.181374,37.951321,6866.2338672000005,-100.558,-3.684,327.407
10.0367,128.181349,37.951363,6865.8300072,-100.751,-3.758,327.263
10.0534,128.181325,37.951405,6865.4215752,-100.945,-3.833,327.119
10.0701,128.1813,37.951447,6865.0085712,-101.139,-3.909,326.975
10.0868,128.181275,37.951488,6864.5909952,-101.333,-3.985,326.832
10.1035,128.181249,37.95153,6864.168542400001,-101.526,-4.062,326.688
10.1202,128.181224,37.951572,6863.7415176,-101.719,-4.139,326.545
10.1368,128.181199,37.951613,6863.3099208,-101.912,-4.217,326.402
10.1535,128.181173,37.951654,6862.873447200001,-102.105,-4.295,326.259
10.1702,128.181148,37.951696,6862.432096800001,-102.298,-4.374,326.116
10.187,128.181122,37.951737,6861.985869600001,-102.49,-4.453,325.973
10.2037,128.181096,37.951778,6861.534765600001,-102.683,-4.533,325.83
10.2204,128.18107,37.95182,6861.0787848,-102.875,-4.614,325.688
10.2371,128.181044,37.951861,6860.6176224,-103.067,-4.695,325.546
10.2538,128.181018,37.951902,6860.1515832000005,-103.258,-4.776,325.403
10.2705,128.180991,37.951943,6859.6806672,-103.45,-4.858,325.262
10.2872,128.180965,37.951984,6859.204264800001,-103.641,-4.941,325.12
10.3039,128.180938,37.952025,6858.7229856,-103.831,-5.024,324.978
10.3205,128.180911,37.952066,6858.236524800001,-104.022,-5.108,324.837
10.3372,128.180885,37.952106,6857.7445776,-104.212,-5.192,324.695
10.3539,128.180858,37.952147,6857.2474488,-104.402,-5.277,324.554
10.3707,128.180831,37.952188,6856.7451384000005,-104.592,-5.362,324.413
10.3874,128.180803,37.952228,6856.237341600001,-104.781,-5.448,324.272
10.4041,128.180776,37.952269,6855.7243632,-104.97,-5.534,324.132
10.4208,128.180749,37.95231,6855.2055936,-105.158,-5.621,323.991
10.4375,128.180721,37.95235,6854.681642400001,-105.346,-5.708,323.851
10.4542,128.180693,37.95239,6854.152204800001,-105.534,-5.796,323.711
10.4709,128.180666,37.952431,6853.616976,-105.722,-5.884,323.571
10.4876,128.180638,37.952471,6853.0762608000005,-105.909,-5.973,323.431
10.5042,128.18061,37.952511,6852.5297544000005,-106.095,-6.062,323.292
10.5209,128.180582,37.952551,6851.9777616,-106.281,-6.152,323.152
10.5376,128.180553,37.952591,6851.4202824,-106.564,-6.249,323.015
10.5544,128.180525,37.952631,6850.857012,-106.94,-6.354,322.88
10.5711,128.180497,37.952671,6850.2873408000005,-107.409,-6.465,322.747
10.5878,128.180468,37.952711,6849.711268800001,-107.972,-6.579,322.614
10.6045,128.180439,37.952751,6849.1284912,-108.628,-6.697,322.482
10.6212,128.18041,37.952791,6848.539008,-109.373,-6.817,322.35
10.6379,128.180381,37.95283,6847.942209600001,-110.207,-6.939,322.217
10.6546,128.180352,37.95287,6847.3377912000005,-111.125,-7.065,322.084
10.6713,128.180323,37.952909,6846.7257528,-112.126,-7.194,321.95
10.6879,128.180293,37.952949,6846.1057896,-113.207,-7.327,321.815
10.7046,128.180264,37.952988,6845.4775968,-114.366,-7.465,321.68
10.7213,128.180234,37.953027,6844.840869600001,-115.6,-7.607,321.544
10.7381,128.180204,37.953066,6844.195608,-116.908,-7.755,321.407
10.7548,128.180175,37.953105,6843.5399832,-118.117,-7.891,321.261
10.7715,128.180145,37.953144,6842.875824000001,-119.233,-8.016,321.105
10.7882,128.180114,37.953183,6842.2028256,-120.248,-8.136,320.943
10.8049,128.180084,37.953222,6841.520988000001,-121.159,-8.256,320.778
10.8216,128.180054,37.953261,6840.830616,-121.966,-8.376,320.613
10.8383,128.180023,37.9533,6840.1317096,-122.67,-8.498,320.452
10.855,128.179993,37.953338,6839.4242688,-123.276,-8.621,320.296
10.8717,128.179962,37.953377,6838.7085984,-123.786,-8.744,320.147
10.8883,128.179932,37.953416,6837.9843936,-124.205,-8.868,320.005
10.905,128.179901,37.953454,6837.252264000001,-124.537,-8.991,319.869
10.9218,128.17987,37.953492,6836.5122096000005,-124.785,-9.113,319.739
10.9385,128.179839,37.953531,6835.7642304,-124.954,-9.234,319.614
10.9552,128.179808,37.953569,6835.0083264,-125.046,-9.355,319.495
10.9719,128.179777,37.953608,6834.245107199999,-125.066,-9.473,319.38
10.9886,128.179746,37.953646,6833.474572800001,-125.015,-9.59,319.268
11.0053,128.179714,37.953684,6832.696723200001,-124.897,-9.706,319.16
11.022,128.179683,37.953722,6831.9118632,-124.714,-9.819,319.055
11.0387,128.179652,37.95376,6831.120297600001,-124.468,-9.93,318.952
11.0554,128.17962,37.953798,6830.3214168,-124.163,-10.04,318.851
11.072,128.179589,37.953836,6829.5152208,-123.798,-10.147,318.751
11.0887,128.179557,37.953874,6828.702319200001,-123.377,-10.252,318.652
11.1054,128.179526,37.953912,6827.8821024,-122.902,-10.355,318.553
11.1222,128.179494,37.95395,6827.0548751999995,-122.373,-10.456,318.454
11.1389,128.179462,37.953988,6826.2203328000005,-121.797,-10.555,318.355
11.1556,128.17943,37.954026,6825.3784752,-121.184,-10.652,318.256
11.1723,128.179398,37.954064,6824.528997600001,-120.541,-10.748,318.155
11.189,128.179366,37.954101,6823.6722048,-119.875,-10.843,318.054
11.2057,128.179334,37.954139,6822.8077920000005,-119.191,-10.936,317.951
11.2224,128.179302,37.954177,6821.936064,-118.495,-11.028,317.846
11.2391,128.179269,37.954214,6821.056716,-117.792,-11.119,317.739
11.2557,128.179237,37.954252,6820.1709672,-117.209,-11.225,317.632
11.2724,128.179204,37.954289,6819.2772936,-116.742,-11.346,317.526
11.2891,128.179172,37.954326,6818.376,-116.393,-11.476,317.421
11.3059,128.179139,37.954364,6817.4664768,-116.163,-11.612,317.314
11.3226,128.179106,37.954401,6816.549028800001,-116.053,-11.75,317.207
11.3393,128.179074,37.954438,6815.623351200001,-116.06,-11.888,317.098
11.356,128.179041,37.954475,6814.6891392,-116.182,-12.026,316.988
11.3727,128.179007,37.954512,6813.746392800001,-116.414,-12.163,316.876
11.3894,128.178974,37.954549,6812.7948072,-116.753,-12.301,316.763
11.4061,128.178941,37.954585,6811.8340776000005,-117.194,-12.438,316.649
11.4228,128.178907,37.954622,6810.864204,-117.734,-12.576,316.534
11.4394,128.178874,37.954659,6809.8848816,-118.368,-12.715,316.418
11.4561,128.17884,37.954695,6808.8955008,-119.094,-12.857,316.301
11.4728,128.178807,37.954732,6807.8963664,-119.907,-13.001,316.183
11.4896,128.178773,37.954768,6806.887478400001,-120.806,-13.148,316.063
11.5063,128.178739,37.954804,6805.868227200001,-121.786,-13.299,315.944
11.523,128.178705,37.95484,6804.8386128,-122.847,-13.453,315.823
11.5397,128.178671,37.954876,6803.7983304,-123.984,-13.613,315.703
11.5564,128.178636,37.954912,6802.74738,-125.196,-13.777,315.583
11.5731,128.178602,37.954948,6801.6857616,-126.481,-13.947,315.463
11.5898,128.178567,37.954984,6800.612256,-127.668,-14.098,315.343
11.6065,128.178533,37.955019,6799.5280824,-128.762,-14.227,315.229
11.6231,128.178498,37.955055,6798.433545600001,-129.758,-14.338,315.124
11.6398,128.178464,37.95509,6797.3286456000005,-130.651,-14.438,315.028
11.6565,128.178429,37.955126,6796.2136872,-131.442,-14.532,314.94
11.6733,128.178394,37.955161,6795.0889752,-132.131,-14.623,314.859
11.69,128.178359,37.955197,6793.9545096,-132.721,-14.712,314.785
11.7067,128.178324,37.955232,6792.810290400001,-133.216,-14.801,314.717
11.7234,128.178289,37.955267,6791.6572320000005,-133.619,-14.889,314.652
11.7401,128.178254,37.955302,6790.4950296,-133.935,-14.978,314.591
11.7568,128.178219,37.955337,6789.323988000001,-134.167,-15.067,314.532
11.7735,128.178184,37.955372,6788.144412,-134.318,-15.157,314.475
11.7902,128.178149,37.955407,6786.956606400001,-134.393,-15.247,314.419
11.8068,128.178113,37.955442,6785.7605712,-134.394,-15.336,314.365
11.8235,128.178078,37.955477,6784.556916,-134.324,-15.426,314.311
11.8402,128.178043,37.955512,6783.3456408,-134.185,-15.516,314.258
11.857,128.178007,37.955547,6782.1270504,-133.98,-15.606,314.205
11.8737,128.177972,37.955582,6780.9014496,-133.712,-15.695,314.151
11.8904,128.177936,37.955616,6779.667924,-133.382,-15.783,314.097
11.9071,128.177901,37.955651,6778.427388000001,-132.992,-15.872,314.042
11.9238,128.177865,37.955686,6777.1795368,-132.544,-15.959,313.985
11.9405,128.17783,37.95572,6775.924370400001,-132.04,-16.047,313.928
11.9572,128.177794,37.955755,6774.6618888,-131.482,-16.133,313.868
11.9739,128.177758,37.95579,6773.392092000001,-130.87,-16.219,313.807
11.9905,128.177722,37.955824,6772.11498,-130.206,-16.304,313.743
12.0072,128.177687,37.955859,6770.8305528,-129.491,-16.389,313.677
12.0239,128.177651,37.955893,6769.539115200001,-128.727,-16.473,313.607
12.0407,128.177615,37.955927,6768.2403624,-127.914,-16.556,313.535
12.0574,128.177579,37.955962,6766.9342944,-127.054,-16.638,313.459
12.0741,128.177543,37.955996,6765.620911200001,-126.147,-16.719,313.379
12.0908,128.177507,37.95603,6764.3008224000005,-125.194,-16.799,313.296
12.1075,128.17747,37.956065,6762.9740280000005,-124.37,-16.9,313.209
12.1242,128.177434,37.956099,6761.6396136,-123.669,-17.029,313.109
12.1409,128.177398,37.956133,6760.297274400001,-123.091,-17.178,312.996
12.1576,128.177362,37.956167,6758.947010400001,-122.641,-17.34,312.871
12.1743,128.177325,37.956201,6757.5888216,-122.318,-17.508,312.737
12.1909,128.177289,37.956235,6756.2217936,-122.122,-17.678,312.597
12.2076,128.177252,37.956269,6754.8462312,-122.049,-17.849,312.453
12.2243,128.177216,37.956302,6753.461524800001,-122.095,-18.018,312.308
12.2411,128.177179,37.956336,6752.067979200001,-122.255,-18.186,312.162
12.2578,128.177142,37.956369,6750.6649848,-122.526,-18.351,312.017
12.2745,128.177105,37.956403,6749.252541600001,-122.902,-18.514,311.874
12.2912,128.177068,37.956436,6747.830344800001,-123.379,-18.676,311.734
12.3079,128.177031,37.95647,6746.3977848,-123.953,-18.837,311.595
12.3246,128.176994,37.956503,6744.9551664,-124.62,-18.998,311.46
12.3413,128.176957,37.956536,6743.50188,-125.377,-19.16,311.326
12.358,128.17692,37.956569,6742.0376208,-126.219,-19.323,311.196
12.3746,128.176883,37.956602,6740.562084000001,-127.144,-19.488,311.067
12.3913,128.176845,37.956635,6739.074964800001,-128.15,-19.655,310.941
12.408,128.176808,37.956667,6737.576568,-129.232,-19.825,310.818
12.4248,128.17677,37.9567,6736.066284,-130.391,-19.999,310.697
12.4415,128.176733,37.956733,6734.543808,-131.622,-20.177,310.578
12.4582,128.176695,37.956765,6733.0097496,-132.924,-20.36,310.463
12.4749,128.176657,37.956797,6731.4625848,-134.121,-20.523,310.347
12.4916,128.176619,37.956829,6729.904142400001,-135.223,-20.656,310.241
12.5083,128.176582,37.956862,6728.3347272,-136.228,-20.756,310.158
12.525,128.176544,37.956894,6726.7540344,-137.13,-20.83,310.098
12.5417,128.176506,37.956926,6725.162368800001,-137.929,-20.887,310.056
12.5583,128.176468,37.956958,6723.5606448,-138.624,-20.935,310.026
12.575,128.17643,37.95699,6721.9485576,-139.218,-20.978,310.003
12.5917,128.176392,37.957021,6720.326412,-139.713,-21.019,309.987
12.6085,128.176354,37.957053,6718.6948176000005,-140.113,-21.061,309.973
12.6252,128.176316,37.957085,6717.0537744,-140.423,-21.104,309.96
12.6419,128.176278,37.957116,6715.403892,-140.645,-21.149,309.948
12.6586,128.176239,37.957148,6713.745475199999,-140.783,-21.196,309.936
12.6753,128.176201,37.95718,6712.0785240000005,-140.841,-21.245,309.923
12.692,128.176163,37.957211,6710.4036479999995,-140.822,-21.296,309.908
12.7087,128.176125,37.957243,6708.720847200001,-140.729,-21.35,309.892
12.7254,128.176086,37.957274,6707.030426400001,-140.563,-21.405,309.875
12.742,128.176048,37.957305,6705.3329952,-140.329,-21.461,309.855
12.7587,128.17601,37.957337,6703.6285536000005,-140.028,-21.52,309.834
12.7754,128.175971,37.957368,6701.916796800001,-139.662,-21.579,309.811
12.7922,128.175933,37.957399,6700.197724800001,-139.233,-21.64,309.785
12.8089,128.175894,37.957431,6698.471642400001,-138.743,-21.702,309.757
12.8256,128.175856,37.957462,6696.7382448,-138.195,-21.765,309.727
12.8423,128.175817,37.957493,6694.9978368,-137.588,-21.829,309.693
12.859,128.175779,37.957524,6693.2504184,-136.926,-21.894,309.657
12.8757,128.17574,37.957555,6691.4959896,-136.21,-21.96,309.617
12.8924,128.175702,37.957586,6689.734245600001,-135.44,-22.027,309.574
12.9091,128.175663,37.957618,6687.965796,-134.618,-22.094,309.527
12.9257,128.175624,37.957649,6686.1900312,-133.745,-22.162,309.476
12.9424,128.175586,37.957679,6684.407256,-132.823,-22.231,309.421
12.9591,128.175547,37.95771,6682.617775199999,-131.852,-22.299,309.362
12.9759,128.175508,37.957741,6680.820979200001,-130.832,-22.368,309.298
12.9926,128.175469,37.957772,6679.018087200001,-129.952,-22.461,309.232
13.0093,128.175431,37.957803,6677.207270400001,-129.199,-22.584,309.154
13.026,128.175392,37.957834,6675.388833600001,-128.572,-22.74,309.05
13.0427,128.175353,37.957864,6673.5621672,-128.074,-22.92,308.921
13.0594,128.175314,37.957895,6671.7269664,-127.706,-23.116,308.772
13.0761,128.175275,37.957925,6669.8829264000005,-127.468,-23.321,308.607
13.0928,128.175236,37.957956,6668.030352000001,-127.357,-23.529,308.433
13.1095,128.175196,37.957986,6666.1683288,-127.369,-23.738,308.254
13.1262,128.175157,37.958017,6664.296552000001,-127.5,-23.944,308.074
13.1429,128.175118,37.958047,6662.4153264,-127.746,-24.147,307.896
13.1596,128.175079,37.958077,6660.5240424,-128.103,-24.347,307.721
13.1763,128.175039,37.958107,6658.6227,-128.565,-24.544,307.552
13.193,128.175,37.958137,6656.7103848,-129.127,-24.737,307.387
13.2097,128.174961,37.958167,6654.7874016000005,-129.787,-24.928,307.228
13.2264,128.174921,37.958196,6652.853445600001,-130.539,-25.118,307.075
13.2431,128.174882,37.958226,6650.9076024,-131.38,-25.307,306.926
13.2598,128.174842,37.958256,6648.9501768,-132.307,-25.496,306.783
13.2765,128.174802,37.958285,6646.9805592,-133.315,-25.686,306.646
13.2932,128.174763,37.958314,6644.9990544,-134.404,-25.878,306.513
13.3099,128.174723,37.958343,6643.0050528,-135.569,-26.071,306.385
13.3266,128.174683,37.958373,6640.9985544,-136.809,-26.268,306.262
13.3433,128.174644,37.958402,6638.9795592,-138.122,-26.467,306.144
13.36,128.174604,37.95843,6636.9474576,-139.325,-26.645,306.025
13.3767,128.174564,37.958459,6634.903773600001,-140.427,-26.791,305.915
13.3934,128.174524,37.958488,6632.8482023999995,-141.429,-26.897,305.831
13.4101,128.174484,37.958517,6630.7816584,-142.331,-26.96,305.782
13.4268,128.174444,37.958545,6628.7038368,-143.131,-26.991,305.762
13.4435,128.174404,37.958574,6626.615652,-143.827,-27.003,305.763
13.4602,128.174364,37.958602,6624.5171040000005,-144.419,-27.004,305.776
13.4769,128.174324,37.958631,6622.408497600001,-144.91,-27.001,305.796
13.4936,128.174284,37.958659,6620.290442400001,-145.304,-26.997,305.819
13.5103,128.174244,37.958687,6618.1632432,-145.602,-26.996,305.842
13.527,128.174204,37.958716,6616.026900000001,-145.811,-26.998,305.864
13.5437,128.174164,37.958744,6613.8823272,-145.931,-27.003,305.884
13.5604,128.174124,37.958772,6611.729220000001,-145.968,-27.013,305.901
13.5771,128.174084,37.9588,6609.568492800001,-145.924,-27.027,305.915
13.5938,128.174044,37.958828,6607.4004504,-145.803,-27.044,305.927
13.6105,128.174004,37.958856,6605.225092800001,-145.607,-27.065,305.935
13.6272,128.173964,37.958884,6603.0427248000005,-145.339,-27.09,305.94
13.6439,128.173924,37.958912,6600.853956000001,-145.001,-27.118,305.943
13.6606,128.173884,37.95894,6598.658176800001,-144.596,-27.149,305.942
13.6773,128.173844,37.958968,6596.455387200001,-144.126,-27.183,305.938
13.694,128.173804,37.958996,6594.246196800001,-143.594,-27.22,305.931
13.7107,128.173763,37.959024,6592.0303008,-143.0,-27.259,305.92
13.7274,128.173723,37.959051,6589.807699200001,-142.347,-27.3,305.906
13.7441,128.173683,37.959079,6587.578392,-141.636,-27.344,305.889
13.7608,128.173643,37.959107,6585.342379200001,-140.869,-27.391,305.868
13.7775,128.173602,37.959135,6583.0999656,-140.047,-27.439,305.842
13.7942,128.173562,37.959162,6580.850846400001,-139.172,-27.489,305.813
13.8109,128.173522,37.95919,6578.5950216,-138.244,-27.541,305.78
13.8276,128.173481,37.959218,6576.332796000001,-137.266,-27.595,305.742
13.8443,128.173441,37.959245,6574.0641696,-136.238,-27.65,305.7
13.861,128.173401,37.959273,6571.788837600001,-135.16,-27.706,305.652
13.8777,128.17336,37.9593,6569.5071048,-134.23,-27.789,305.604
13.8944,128.17332,37.959328,6567.2183616,-133.433,-27.906,305.545
13.9111,128.173279,37.959355,6564.9223032,-132.769,-28.059,305.461
13.9278,128.173239,37.959383,6562.618015200001,-132.235,-28.249,305.337
13.9445,128.173198,37.95941,6560.305497600001,-131.832,-28.466,305.18
13.9612,128.173158,37.959437,6557.984750400001,-131.56,-28.699,304.998
13.9779,128.173117,37.959464,6555.6545544,-131.418,-28.941,304.798
13.9946,128.173077,37.959491,6553.3155192,-131.404,-29.187,304.588
14.0113,128.173036,37.959518,6550.9670352,-131.515,-29.431,304.376
14.028,128.172996,37.959545,6548.608492800001,-131.746,-29.671,304.166
14.0447,128.172955,37.959572,6546.2401968,-132.092,-29.906,303.962
14.0614,128.172914,37.959599,6543.861537600001,-132.549,-30.135,303.764
14.0781,128.172873,37.959625,6541.4719056,-133.112,-30.359,303.575
14.0948,128.172833,37.959652,6539.071605600001,-133.777,-30.578,303.393
14.1115,128.172792,37.959678,6536.6597232,-134.538,-30.794,303.22
14.1282,128.172751,37.959704,6534.2362584,-135.392,-31.007,303.056
14.1449,128.17271,37.959731,6531.800906400001,-136.336,-31.217,302.899
14.1616,128.172669,37.959757,6529.3533624,-137.364,-31.428,302.75
14.1783,128.172629,37.959783,6526.8936264,-138.475,-31.637,302.608
14.195,128.172588,37.959808,6524.4213936,-139.666,-31.848,302.473
14.2117,128.172547,37.959834,6521.936664000001,-140.934,-32.06,302.346
14.2284,128.172506,37.95986,6519.439437600001,-142.276,-32.273,302.225
14.2451,128.172465,37.959885,6516.9291048000005,-143.501,-32.465,302.104
14.2618,128.172424,37.959911,6514.40658,-144.618,-32.621,301.992
14.2785,128.172383,37.959936,6511.8727776000005,-145.631,-32.733,301.906
14.2952,128.172342,37.959962,6509.327392800001,-146.543,-32.794,301.86
14.3119,128.172301,37.959987,6506.7716448,-147.355,-32.806,301.854
14.3286,128.172261,37.960012,6504.204924000001,-148.063,-32.785,301.877
14.3453,128.17222,37.960037,6501.6284496,-148.666,-32.746,301.918
14.362,128.172179,37.960062,6499.0419168,-149.165,-32.7,301.967
14.3787,128.172138,37.960087,6496.4459352,-149.562,-32.654,302.019
14.3954,128.172097,37.960112,6493.8411144,-149.859,-32.61,302.07
14.4121,128.172056,37.960137,6491.228064000001,-150.062,-32.572,302.118
14.4288,128.172015,37.960162,6488.606479200001,-150.173,-32.539,302.162
14.4455,128.171974,37.960187,6485.9769696,-150.197,-32.513,302.201
14.4622,128.171933,37.960212,6483.3404496,-150.136,-32.493,302.237
14.4789,128.171893,37.960236,6480.696309600001,-149.994,-32.478,302.268
14.4956,128.171852,37.960261,6478.045768800001,-149.775,-32.469,302.295
14.5123,128.171811,37.960286,6475.3888272,-149.48,-32.466,302.317
14.529,128.17177,37.96031,6472.7254848,-149.113,-32.468,302.336
14.5457,128.171729,37.960335,6470.0554368,-148.675,-32.474,302.351
14.5624,128.171688,37.96036,6467.379597600001,-148.17,-32.485,302.361
14.5791,128.171647,37.960384,6464.695224000001,-147.746,-32.518,302.366
14.5958,128.171606,37.960409,6462.0041448,-147.41,-32.585,302.355
14.6125,128.171565,37.960433,6459.304836,-147.149,-32.694,302.317
14.6292,128.171524,37.960458,6456.597297600001,-146.948,-32.852,302.242
14.6459,128.171483,37.960482,6453.880615200001,-146.792,-33.065,302.122
14.6626,128.171442,37.960506,6451.1547888,-146.674,-33.321,301.964
14.6793,128.171401,37.960531,6448.4192088,-146.589,-33.609,301.779
14.696,128.17136,37.960555,6445.6732656,-146.532,-33.916,301.574
14.7127,128.171319,37.960579,6442.9166544,-146.501,-34.229,301.361
14.7294,128.171278,37.960603,6440.1499848,-146.493,-34.539,301.148
14.7461,128.171237,37.960627,6437.372647200001,-146.506,-34.841,300.941
14.7628,128.171196,37.960651,6434.5843368000005,-146.535,-35.134,300.743
14.7795,128.171155,37.960675,6431.7850536000005,-146.578,-35.416,300.553
14.7962,128.171114,37.960699,6428.974797600001,-146.633,-35.687,300.371
14.8129,128.171073,37.960722,6426.1538736,-146.692,-35.951,300.203
14.8296,128.171032,37.960746,6423.3213672,-146.755,-36.209,300.05
14.8463,128.170991,37.96077,6420.4775832000005,-146.823,-36.46,299.908
14.863,128.17095,37.960793,6417.6225216,-146.896,-36.704,299.774
14.8797,128.170909,37.960817,6414.755572800001,-146.977,-36.941,299.648
14.8964,128.170868,37.96084,6411.8773464000005,-147.063,-37.171,299.527
14.9131,128.170827,37.960863,6408.9872328,-147.155,-37.395,299.411
14.9298,128.170786,37.960887,6406.085232,-147.252,-37.613,299.299
14.9465,128.170745,37.96091,6403.1716488,-147.351,-37.826,299.191
14.9632,128.170704,37.960933,6400.246178400001,-147.453,-38.035,299.086
14.9799,128.170663,37.960956,6397.3088208,-147.556,-38.239,298.984
14.9966,128.170622,37.960979,6394.359576,-147.66,-38.44,298.885
15.0133,128.170581,37.961001,6391.398444,-147.765,-38.637,298.788
15.03,128.17054,37.961024,6388.425120000001,-147.869,-38.832,298.693
15.0467,128.170499,37.961047,6385.4399088,-147.972,-39.023,298.601
15.0634,128.170458,37.961069,6382.442505600001,-148.075,-39.213,298.51
15.0801,128.170417,37.961092,6379.432910400001,-148.178,-39.4,298.421
15.0968,128.170376,37.961114,6376.411428,-148.278,-39.585,298.334
15.1135,128.170335,37.961136,6373.3777536,-148.378,-39.768,298.248
15.1302,128.170295,37.961159,6370.331887200001,-148.477,-39.95,298.163
15.1469,128.170254,37.961181,6367.273828800001,-148.574,-40.13,298.079
15.1636,128.170213,37.961203,6364.203578400001,-148.67,-40.308,297.997
15.1803,128.170172,37.961225,6361.1214408000005,-148.764,-40.485,297.915
15.197,128.170131,37.961247,6358.026806400001,-148.857,-40.661,297.834
15.2137,128.170091,37.961269,6354.91998,-148.948,-40.835,297.754
15.2304,128.17005,37.96129,6351.8009616,-149.038,-41.009,297.675
15.2471,128.170009,37.961312,6348.669751200001,-149.126,-41.182,297.596
15.2638,128.169969,37.961334,6345.526044,-149.212,-41.354,297.517
15.2805,128.169928,37.961355,6342.3704496,-149.297,-41.526,297.439
15.2972,128.169887,37.961376,6339.2023584,-149.38,-41.697,297.361
15.3139,128.169847,37.961398,6336.0220752,-149.461,-41.867,297.283
15.3306,128.169806,37.961419,6332.8296,-149.541,-42.037,297.205
15.3473,128.169766,37.96144,6329.6249328,-149.619,-42.206,297.128
15.364,128.169725,37.961461,6326.4080736000005,-149.695,-42.375,297.05
15.3807,128.169685,37.961482,6323.1787176,-149.77,-42.544,296.973
