Time,Longitude,Latitude,Altitude,Roll (deg),Pitch (deg),Yaw (deg)
0.0,128.181881,37.923646,7000.146528,0.0,-0.003,0.0
0.0167,128.181881,37.923691,7000.1605488000005,0.0,-0.012,0.0
0.0334,128.181881,37.923736,7000.173960000001,0.0,-0.026,0.0
0.0501,128.181881,37.923781,7000.186152000001,0.0,-0.042,0.0
0.0668,128.181881,37.923826,7000.1977344,0.0,-0.06,0.0
0.0834,128.181881,37.923871,7000.208097600001,0.0,-0.08,0.0
0.1002,128.181881,37.923916,7000.217851200001,0.0,-0.1,0.0
0.1169,128.181881,37.923961,7000.2266904,0.0,-0.12,0.0
0.1336,128.181881,37.924006,7000.234310400001,0.0,-0.14,0.0
0.1503,128.181881,37.924051,7000.2413208,0.0,-0.161,0.0
0.1669,128.181881,37.924096,7000.2477216,0.0,-0.168,0.0
0.1837,128.181881,37.924141,7000.2529032,0.0,-0.174,0.0
0.2004,128.181881,37.924186,7000.257170400001,0.0,-0.184,0.0
0.2171,128.181881,37.924231,7000.260218400001,0.0,-0.198,0.0
0.2338,128.181881,37.924276,7000.2626568000005,0.0,-0.214,0.0
0.2505,128.181881,37.924321,7000.2641808,0.0,-0.231,0.0
0.2672,128.181881,37.924366,7000.2644856,0.0,-0.249,0.0
0.2839,128.181881,37.924411,7000.2641808,0.0,-0.268,0.0
0.3006,128.181881,37.924456,7000.2626568000005,0.0,-0.286,0.0
0.3172,128.181881,37.924501,7000.260218400001,0.0,-0.305,0.0
0.3339,128.181881,37.924546,7000.256865600001,0.0,-0.324,0.0
0.3507,128.181881,37.924591,7000.2525984,0.0,-0.343,0.0
0.3674,128.181881,37.924636,7000.247112,0.0,-0.361,0.0
0.3841,128.181881,37.924682,7000.240711200001,0.001,-0.38,0.0
0.4008,128.181881,37.924727,7000.2337008,0.001,-0.384,0.0
0.4175,128.181881,37.924772,7000.2251664,0.001,-0.388,0.0
0.4342,128.181881,37.924817,7000.2160224,0.001,-0.396,0.0
0.4509,128.181881,37.924862,7000.205659200001,0.001,-0.408,0.0
0.4676,128.181881,37.924907,7000.1943816,0.001,-0.422,0.0
0.4843,128.181881,37.924952,7000.1821896,0.002,-0.437,0.0
0.501,128.181881,37.924998,7000.1690832,0.002,-0.453,0.0
0.5176,128.181881,37.925043,7000.1547576,0.002,-0.47,0.0
0.5344,128.181881,37.925088,7000.1392128,0.002,-0.487,0.0
0.5511,128.181881,37.925133,7000.1230584,0.003,-0.505,0.0
0.5678,128.181881,37.925179,7000.1056848,0.003,-0.522,0.0
0.5845,128.181881,37.925224,7000.0873968000005,0.003,-0.539,0.0
0.6012,128.181881,37.925269,7000.0678896,0.004,-0.556,0.0
0.6179,128.181881,37.925314,7000.0471632,0.004,-0.573,0.0
0.6345,128.181881,37.92536,7000.0258272,0.005,-0.59,0.0
0.6513,128.181881,37.925405,7000.003272,0.005,-0.607,0.0
0.6679,128.181881,37.92545,6999.979497600001,0.006,-0.623,0.0
0.6847,128.181881,37.925495,6999.9548088,0.007,-0.64,0.0
0.7014,128.181881,37.925541,6999.9289008000005,0.007,-0.656,0.001
0.7181,128.181881,37.925586,6999.9017736000005,0.008,-0.672,0.001
0.7348,128.181881,37.925631,6999.874036800001,0.009,-0.688,0.001
0.7514,128.181881,37.925677,6999.844776,0.01,-0.704,0.001
0.7682,128.181881,37.925722,6999.8146008,0.011,-0.72,0.001
0.7848,128.181881,37.925767,6999.7832064,0.012,-0.735,0.001
0.8016,128.181881,37.925813,6999.750897600001,0.013,-0.75,0.001
0.8183,128.181881,37.925858,6999.717369600001,0.014,-0.766,0.001
0.835,128.181881,37.925903,6999.682622400001,0.016,-0.781,0.001
0.8517,128.181881,37.925949,6999.646960800001,0.017,-0.796,0.001
0.8684,128.181881,37.925994,6999.6100799999995,0.019,-0.811,0.001
0.8851,128.181881,37.92604,6999.5722848,0.021,-0.826,0.002
0.9018,128.181881,37.926085,6999.532965600001,0.023,-0.841,0.002
0.9185,128.181881,37.92613,6999.492732000001,0.025,-0.855,0.002
0.9352,128.181881,37.926176,6999.451584000001,0.027,-0.87,0.002
0.9519,128.181881,37.926221,6999.408912,0.03,-0.884,0.002
0.9686,128.181881,37.926267,6999.3653256,0.032,-0.899,0.002
0.9853,128.181881,37.926312,6999.320520000001,0.035,-0.913,0.003
1.002,128.181881,37.926358,6999.2748,0.039,-0.928,0.003
1.0187,128.181881,37.926403,6999.227556000001,0.042,-0.942,0.003
1.0353,128.181881,37.926449,6999.179397600001,0.046,-0.956,0.003
1.0521,128.181881,37.926494,6999.1300200000005,0.05,-0.97,0.003
1.0688,128.181881,37.92654,6999.079728000001,0.055,-0.984,0.004
1.0855,128.181881,37.926585,6999.027912,0.06,-0.998,0.004
1.1022,128.181881,37.926631,6998.975181600001,0.065,-1.012,0.004
1.1189,128.181881,37.926676,6998.921232000001,0.071,-1.026,0.005
1.1356,128.181881,37.926722,6998.8660632,0.077,-1.04,0.005
1.1522,128.181881,37.926767,6998.8096752,0.084,-1.054,0.005
1.169,128.181881,37.926813,6998.752372800001,0.091,-1.068,0.006
1.1857,128.181881,37.926858,6998.693546400001,0.1,-1.082,0.006
1.2024,128.181881,37.926904,6998.6338056,0.108,-1.095,0.007
1.2191,128.181881,37.92695,6998.572845600001,0.118,-1.109,0.007
1.2358,128.181881,37.926995,6998.5106663999995,0.129,-1.123,0.008
1.2525,128.181881,37.927041,6998.447268,0.14,-1.136,0.009
1.2691,128.181881,37.927086,6998.382650400001,0.152,-1.15,0.009
1.2859,128.181881,37.927132,6998.3168136,0.166,-1.164,0.01
1.3026,128.181881,37.927178,6998.2500624,0.18,-1.177,0.011
1.3193,128.181881,37.927223,6998.1817872,0.196,-1.191,0.012
1.3359,128.181881,37.927269,6998.112597600001,0.213,-1.204,0.013
1.3527,128.181881,37.927315,6998.041884000001,0.232,-1.218,0.014
1.3694,128.181881,37.92736,6997.969951200001,0.252,-1.231,0.015
1.386,128.181881,37.927406,6997.897104000001,0.274,-1.245,0.016
1.4028,128.181881,37.927452,6997.8227328,0.298,-1.259,0.017
1.4195,128.181881,37.927497,6997.7471424000005,0.324,-1.272,0.019
1.4362,128.181881,37.927543,6997.6703328,0.353,-1.286,0.02
1.4528,128.181881,37.927589,6997.592304,0.384,-1.299,0.022
1.4696,128.181881,37.927635,6997.513056000001,0.417,-1.313,0.024
1.4863,128.181881,37.92768,6997.432588799999,0.454,-1.326,0.026
1.5029,128.181881,37.927726,6997.350597600001,0.493,-1.34,0.028
1.5197,128.181881,37.927772,6997.2673872000005,0.536,-1.354,0.03
1.5364,128.181881,37.927818,6997.1829576,0.583,-1.367,0.033
1.5531,128.181881,37.927864,6997.097004,0.634,-1.381,0.035
1.5697,128.181881,37.927909,6997.0098312,0.689,-1.395,0.038
1.5865,128.181881,37.927955,6996.9214392,0.749,-1.408,0.041
1.6032,128.181881,37.928001,6996.831218400001,0.814,-1.422,0.045
1.6198,128.181881,37.928047,6996.7400832,0.885,-1.436,0.049
1.6366,128.181881,37.928093,6996.647119200001,0.963,-1.45,0.053
1.6533,128.181881,37.928138,6996.552936,1.046,-1.464,0.057
1.67,128.181881,37.928184,6996.457228800001,1.138,-1.478,0.062
1.6867,128.181881,37.92823,6996.3599976000005,1.237,-1.492,0.067
1.7034,128.181881,37.928276,6996.261242400001,1.344,-1.506,0.073
1.7201,128.181881,37.928322,6996.1606584,1.461,-1.521,0.079
1.7368,128.181881,37.928368,6996.058855200001,1.589,-1.535,0.085
1.7535,128.181881,37.928414,6995.955223200001,1.727,-1.55,0.092
1.7702,128.181881,37.92846,6995.8497624,1.877,-1.565,0.1
1.7869,128.181881,37.928506,6995.7427776,2.041,-1.58,0.109
1.8036,128.181881,37.928552,6995.633659200001,2.219,-1.595,0.118
1.8203,128.181881,37.928598,6995.5230168,2.413,-1.611,0.127
1.837,128.181881,37.928644,6995.410545600001,2.625,-1.626,0.137
1.8537,128.181881,37.928689,6995.295940800001,2.856,-1.642,0.147
1.8704,128.181881,37.928735,6995.1792024,3.108,-1.658,0.157
1.8871,128.181881,37.928781,6995.0603304,3.383,-1.675,0.167
1.9038,128.181881,37.928828,6994.939324800001,3.682,-1.692,0.178
1.9205,128.181881,37.928874,6994.816185600001,4.008,-1.709,0.188
1.9372,128.181881,37.92892,6994.690608,4.364,-1.727,0.199
1.9539,128.181881,37.928966,6994.5622872,4.751,-1.745,0.211
1.9706,128.181882,37.929012,6994.431528000001,5.173,-1.763,0.223
1.9873,128.181882,37.929058,6994.2980256,5.632,-1.782,0.235
2.004,128.181882,37.929104,6994.16178,6.132,-1.802,0.247
2.0207,128.181882,37.92915,6994.0221816,6.677,-1.823,0.26
2.0374,128.181882,37.929196,6993.8798400000005,7.271,-1.844,0.274
2.0541,128.181882,37.929242,6993.735364800001,7.834,-1.865,0.283
2.0707,128.181882,37.929288,6993.588756000001,8.365,-1.886,0.288
2.0875,128.181882,37.929335,6993.4406232,8.869,-1.907,0.29
2.1042,128.181882,37.929381,6993.2912712,9.351,-1.927,0.291
2.1208,128.181882,37.929427,6993.141309600001,9.819,-1.948,0.293
2.1376,128.181882,37.929473,6992.9892144000005,10.278,-1.97,0.296
2.1543,128.181882,37.929519,6992.8355952,10.733,-1.991,0.3
2.171,128.181882,37.929566,6992.6804520000005,11.189,-2.014,0.305
2.1877,128.181882,37.929612,6992.52348,11.651,-2.036,0.311
2.2044,128.181882,37.929658,6992.364679200001,12.121,-2.059,0.317
2.2211,128.181882,37.929704,6992.2040496,12.603,-2.081,0.324
2.2378,128.181882,37.929751,6992.0412864,13.098,-2.104,0.332
2.2544,128.181882,37.929797,6991.8763896,13.608,-2.128,0.34
2.2712,128.181882,37.929843,6991.7093592,14.136,-2.151,0.348
2.2879,128.181882,37.929889,6991.5401952,14.682,-2.175,0.356
2.3045,128.181882,37.929936,6991.368897600001,15.247,-2.199,0.365
2.3213,128.181882,37.929982,6991.1954663999995,15.833,-2.223,0.373
2.338,128.181882,37.930028,6991.019596800001,16.441,-2.248,0.382
2.3546,128.181882,37.930075,6990.8412888,17.072,-2.273,0.39
2.3714,128.181883,37.930121,6990.660542400001,17.726,-2.298,0.399
2.3881,128.181883,37.930168,6990.4776624,18.405,-2.324,0.408
2.4048,128.181883,37.930214,6990.2920392,19.11,-2.35,0.417
2.4215,128.181883,37.93026,6990.104282400001,19.841,-2.377,0.425
2.4382,128.181883,37.930307,6989.9134776,20.6,-2.404,0.434
2.4549,128.181883,37.930353,6989.7202344,21.388,-2.432,0.443
2.4716,128.181883,37.9304,6989.5245528,22.206,-2.46,0.451
2.4882,128.181883,37.930446,6989.325823200001,23.055,-2.489,0.459
2.505,128.181883,37.930493,6989.1243504,23.936,-2.519,0.467
2.5217,128.181883,37.930539,6988.9201344,24.851,-2.549,0.475
2.5383,128.181883,37.930586,6988.7131752,25.8,-2.579,0.481
2.5551,128.181883,37.930632,6988.503168,26.786,-2.61,0.488
2.5718,128.181883,37.930679,6988.2901128,27.809,-2.642,0.494
2.5884,128.181883,37.930725,6988.074314400001,28.869,-2.674,0.499
2.6052,128.181884,37.930772,6987.8551632,29.97,-2.707,0.503
2.6219,128.181884,37.930818,6987.632964,31.111,-2.741,0.507
2.6386,128.181884,37.930865,6987.4077168,32.294,-2.775,0.51
2.6553,128.181884,37.930912,6987.1791168,33.52,-2.809,0.513
2.6719,128.181884,37.930958,6986.947468800001,34.791,-2.845,0.514
2.6887,128.181884,37.931005,6986.7121632,36.108,-2.881,0.515
2.7054,128.181884,37.931052,6986.4738096,37.472,-2.917,0.515
2.722,128.181884,37.931098,6986.2317984,38.885,-2.954,0.513
2.7388,128.181884,37.931145,6985.9867392,40.347,-2.992,0.511
2.7555,128.181884,37.931192,6985.7380224,41.858,-3.03,0.507
2.7721,128.181884,37.931238,6985.4862576,43.416,-3.069,0.502
2.7889,128.181884,37.931285,6985.23114,45.02,-3.108,0.496
2.8056,128.181884,37.931332,6984.972669600001,46.669,-3.146,0.488
2.8222,128.181884,37.931379,6984.7108464,48.359,-3.185,0.479
2.839,128.181884,37.931425,6984.4459752,50.091,-3.224,0.468
2.8557,128.181884,37.931472,6984.177751200001,51.862,-3.263,0.456
2.8724,128.181884,37.931519,6983.906479200001,53.671,-3.301,0.442
2.8891,128.181884,37.931566,6983.6321592,55.518,-3.339,0.427
2.9057,128.181884,37.931613,6983.3544864000005,57.399,-3.377,0.411
2.9225,128.181884,37.93166,6983.074070400001,59.316,-3.415,0.393
2.9392,128.181884,37.931706,6982.790301600001,61.266,-3.452,0.374
2.9558,128.181884,37.931753,6982.5034848,63.248,-3.488,0.354
2.9726,128.181884,37.9318,6982.21362,65.261,-3.524,0.332
2.9893,128.181884,37.931847,6981.9207072,67.304,-3.559,0.309
3.0059,128.181884,37.931894,6981.625051200001,69.377,-3.593,0.285
3.0227,128.181884,37.931941,6981.326042400001,71.478,-3.627,0.261
3.0394,128.181884,37.931988,6981.024290400001,73.607,-3.659,0.235
3.056,128.181884,37.932035,6980.719795200001,75.762,-3.691,0.208
3.0728,128.181884,37.932082,6980.412252000001,77.944,-3.722,0.18
3.0895,128.181884,37.932129,6980.101965600001,80.15,-3.751,0.152
3.1062,128.181883,37.932176,6979.788936,82.381,-3.78,0.123
3.1229,128.181883,37.932223,6979.4728584,84.635,-3.807,0.093
3.1395,128.181883,37.93227,6979.1540376,86.912,-3.834,0.063
3.1563,128.181883,37.932317,6978.8327784,89.212,-3.859,0.032
3.173,128.181883,37.932364,6978.508776,91.533,-3.883,0.001
3.1896,128.181883,37.932412,6978.1820304,93.875,-3.905,359.97
3.2064,128.181883,37.932459,6977.8525416,96.237,-3.927,359.938
3.2231,128.181882,37.932506,6977.5206144,98.618,-3.948,359.91
3.2397,128.181882,37.932553,6977.1862488,101.018,-3.97,359.894
3.2565,128.181882,37.9326,6976.84914,103.435,-3.994,359.894
3.2732,128.181882,37.932647,6976.509897600001,105.868,-4.023,359.913
3.2899,128.181882,37.932695,6976.1676072,108.317,-4.058,359.954
3.3066,128.181882,37.932742,6975.823183200001,110.781,-4.102,0.015
3.3233,128.181881,37.932789,6975.475711200001,113.258,-4.155,0.097
3.34,128.181881,37.932836,6975.1261056,115.747,-4.22,0.199
3.3567,128.181881,37.932884,6974.773452000001,118.248,-4.299,0.319
3.3734,128.181881,37.932931,6974.4174456,120.746,-4.391,0.456
3.3901,128.181881,37.932978,6974.0577816,123.227,-4.498,0.608
3.4068,128.181881,37.933026,6973.694155200001,125.675,-4.62,0.775
3.4235,128.18188,37.933073,6973.3262616,128.076,-4.759,0.954
3.4402,128.18188,37.93312,6972.953491200001,130.417,-4.914,1.143
3.4569,128.18188,37.933168,6972.5752344,132.687,-5.087,1.342
3.4736,128.18188,37.933215,6972.1908816000005,134.878,-5.278,1.547
3.4903,128.181881,37.933262,6971.800128000001,136.982,-5.487,1.757
3.507,128.181881,37.93331,6971.402059200001,138.994,-5.714,1.969
3.5237,128.181881,37.933357,6970.996370400001,140.909,-5.959,2.183
3.5404,128.181881,37.933404,6970.582452000001,142.727,-6.22,2.396
3.5571,128.181882,37.933452,6970.1596944,144.447,-6.496,2.606
3.5738,128.181882,37.933499,6969.727792800001,146.069,-6.787,2.813
3.5905,128.181882,37.933546,6969.286137600001,147.595,-7.091,3.014
3.6072,128.181883,37.933594,6968.8347288,149.029,-7.406,3.21
3.6239,128.181883,37.933641,6968.372652000001,150.373,-7.732,3.399
3.6406,128.181884,37.933688,6967.8996024,151.633,-8.066,3.58
3.6573,128.181885,37.933736,6967.4152752,152.811,-8.408,3.753
3.674,128.181886,37.933783,6966.919365600001,153.914,-8.754,3.917
3.6907,128.181886,37.93383,6966.4115688,154.946,-9.1,4.071
3.7074,128.181887,37.933878,6965.8918848,155.913,-9.443,4.212
3.7241,128.181888,37.933925,6965.359399200001,156.818,-9.779,4.342
3.7408,128.181889,37.933972,6964.814112,157.668,-10.108,4.459
3.7575,128.18189,37.93402,6964.256328,158.465,-10.429,4.565
3.7742,128.181891,37.934067,6963.6851328,159.216,-10.74,4.66
3.7909,128.181892,37.934114,6963.1005264000005,159.922,-11.044,4.744
3.8076,128.181894,37.934161,6962.502204,160.589,-11.338,4.82
3.8243,128.181895,37.934209,6961.890470400001,161.219,-11.625,4.886
3.841,128.181896,37.934256,6961.264716,161.816,-11.903,4.946
3.8577,128.181897,37.934303,6960.6249408,162.382,-12.175,4.998
3.8744,128.181899,37.93435,6959.9711448,162.92,-12.439,5.043
3.8911,128.1819,37.934398,6959.303937600001,163.507,-12.699,5.078
3.9078,128.181902,37.934445,6958.623319200001,164.14,-12.953,5.104
3.9245,128.181903,37.934492,6957.9295944000005,164.809,-13.203,5.122
3.9412,128.181905,37.934539,6957.2224584000005,165.503,-13.447,5.135
3.9579,128.181906,37.934586,6956.501301600001,166.213,-13.686,5.145
3.9746,128.181908,37.934633,6955.766124000001,166.927,-13.92,5.152
3.9913,128.18191,37.934681,6955.016316,167.638,-14.15,5.156
4.008,128.181911,37.934728,6954.251572800001,168.337,-14.376,5.158
4.0247,128.181913,37.934775,6953.4718944,169.018,-14.599,5.157
4.0414,128.181915,37.934822,6952.676976,169.676,-14.819,5.154
4.058,128.181917,37.934869,6951.8671224,170.308,-15.036,5.147
4.0748,128.181919,37.934916,6951.041419200001,170.912,-15.251,5.139
4.0915,128.18192,37.934963,6950.200476,171.485,-15.464,5.127
4.1082,128.181922,37.93501,6949.343683200001,172.027,-15.675,5.113
4.1249,128.181924,37.935057,6948.471650400001,172.539,-15.885,5.097
4.1415,128.181926,37.935104,6947.583768,173.022,-16.094,5.078
4.1583,128.181928,37.935151,6946.680036000001,173.478,-16.301,5.058
4.175,128.18193,37.935198,6945.7607592,173.908,-16.507,5.038
4.1917,128.181932,37.935245,6944.8259376000005,174.313,-16.712,5.018
4.2084,128.181934,37.935291,6943.8752664,174.694,-16.916,4.996
4.2251,128.181936,37.935338,6942.908745600001,175.052,-17.119,4.972
4.2417,128.181938,37.935385,6941.92668,175.389,-17.321,4.948
4.2585,128.18194,37.935432,6940.929069600001,175.706,-17.522,4.922
4.2752,128.181942,37.935479,6939.915609600001,176.004,-17.722,4.894
4.2919,128.181945,37.935525,6938.8863,176.286,-17.921,4.866
4.3086,128.181947,37.935572,6937.8414456,176.552,-18.119,4.836
4.3252,128.181949,37.935619,6936.7810464,176.804,-18.316,4.805
4.342,128.181951,37.935665,6935.704797600001,177.043,-18.511,4.774
4.3587,128.181953,37.935712,6934.613004,177.271,-18.706,4.741
4.3754,128.181955,37.935759,6933.505665600001,177.488,-18.9,4.708
4.3921,128.181958,37.935805,6932.3824776,177.696,-19.092,4.674
4.4088,128.18196,37.935852,6931.2437448,177.894,-19.284,4.64
4.4254,128.181962,37.935898,6930.0894672,178.085,-19.474,4.605
4.4422,128.181964,37.935945,6928.9196448,178.269,-19.664,4.57
4.4589,128.181966,37.935991,6927.733972800001,178.446,-19.852,4.534
4.4756,128.181969,37.936038,6926.5327560000005,178.617,-20.04,4.498
4.4923,128.181971,37.936084,6925.3159944,178.783,-20.227,4.462
4.5089,128.181973,37.93613,6924.083688000001,178.943,-20.413,4.425
4.5256,128.181975,37.936177,6922.835836800001,179.099,-20.598,4.389
4.5424,128.181978,37.936223,6921.572136000001,179.252,-20.783,4.353
4.5591,128.18198,37.936269,6920.2931952,179.401,-20.967,4.317
4.5758,128.181982,37.936316,6918.998404800001,179.547,-21.15,4.283
4.5925,128.181984,37.936362,6917.688069600001,179.69,-21.332,4.248
4.6091,128.181987,37.936408,6916.3621896,179.83,-21.514,4.215
4.6259,128.181989,37.936454,6915.0207648000005,179.968,-21.695,4.182
4.6426,128.181991,37.9365,6913.6637952,-179.896,-21.876,4.15
4.6593,128.181994,37.936546,6912.2912808,-179.764,-22.056,4.118
4.676,128.181996,37.936592,6910.9032216000005,-179.633,-22.235,4.087
4.6927,128.181998,37.936639,6909.4999224,-179.505,-22.415,4.056
4.7093,128.182,37.936684,6908.080773600001,-179.379,-22.593,4.027
4.7261,128.182003,37.93673,6906.6460799999995,-179.255,-22.772,3.997
4.7428,128.182005,37.936776,6905.195841600001,-179.133,-22.95,3.969
4.7595,128.182007,37.936822,6903.7303632,-179.012,-23.128,3.94
4.7762,128.18201,37.936868,6902.24934,-178.894,-23.305,3.913
4.7928,128.182012,37.936914,6900.7524672,-178.777,-23.482,3.886
4.8096,128.182014,37.93696,6899.2403544,-178.663,-23.659,3.859
4.8263,128.182017,37.937005,6897.713001600001,-178.55,-23.836,3.833
4.843,128.182019,37.937051,6896.1697992,-178.438,-24.012,3.807
4.8597,128.182021,37.937097,6894.611356800001,-178.329,-24.189,3.782
4.8764,128.182023,37.937142,6893.037369600001,-178.222,-24.365,3.757
4.893,128.182026,37.937188,6891.447837600001,-178.116,-24.54,3.733
4.9098,128.182028,37.937234,6889.842760800001,-178.012,-24.716,3.709
4.9265,128.18203,37.937279,6888.222444,-177.91,-24.892,3.685
4.9432,128.182032,37.937325,6886.5865824,-177.811,-25.067,3.661
4.9599,128.182035,37.93737,6884.9354808,-177.714,-25.242,3.638
4.9765,128.182037,37.937415,6883.2688344,-177.619,-25.417,3.614
4.9932,128.182039,37.937461,6881.586643199999,-177.526,-25.592,3.59
5.01,128.182042,37.937506,6879.889212,-177.435,-25.767,3.565
5.0267,128.182044,37.937551,6878.1765408,-177.346,-25.942,3.541
5.0434,128.182046,37.937597,6876.448020000001,-177.259,-26.117,3.516
5.0601,128.182048,37.937642,6874.704564000001,-177.174,-26.291,3.492
5.0767,128.18205,37.937687,6872.9455632,-177.091,-26.466,3.467
5.0935,128.182053,37.937732,6871.171017600001,-177.01,-26.64,3.442
5.1102,128.182055,37.937777,6869.3815368000005,-176.93,-26.814,3.417
5.1269,128.182057,37.937822,6867.576511200001,-176.853,-26.989,3.392
5.1436,128.182059,37.937867,6865.755940800001,-176.777,-27.163,3.367
5.1602,128.182062,37.937912,6863.9201304,-176.703,-27.337,3.342
5.1769,128.182064,37.937957,6862.06908,-176.631,-27.511,3.317
5.1937,128.182066,37.938002,6860.2027896,-176.561,-27.684,3.292
5.2104,128.182068,37.938047,6858.3212592,-176.492,-27.858,3.267
5.2271,128.18207,37.938092,6856.424184000001,-176.426,-28.032,3.241
5.2438,128.182072,37.938136,6854.5118688,-176.361,-28.206,3.216
5.2604,128.182075,37.938181,6852.5846184,-176.298,-28.379,3.191
5.2772,128.182077,37.938226,6850.6418232000005,-176.237,-28.553,3.165
5.2939,128.182079,37.93827,6848.683788000001,-176.178,-28.726,3.14
5.3106,128.182081,37.938315,6846.7105128,-176.12,-28.9,3.114
5.3273,128.182083,37.938359,6844.721997600001,-176.065,-29.073,3.089
5.3439,128.182085,37.938404,6842.718242400001,-176.011,-29.247,3.063
5.3606,128.182087,37.938448,6840.699247200001,-175.959,-29.42,3.038
5.3774,128.182089,37.938492,6838.665012,-175.909,-29.593,3.013
5.3941,128.182092,37.938537,6836.615536800001,-175.861,-29.766,2.987
5.4108,128.182094,37.938581,6834.5511264,-175.814,-29.94,2.962
5.4275,128.182096,37.938625,6832.471476,-175.769,-30.113,2.936
5.4441,128.182098,37.938669,6830.3765856,-175.726,-30.286,2.911
5.4609,128.1821,37.938713,6828.266455200001,-175.685,-30.459,2.886
5.4776,128.182102,37.938757,6826.1410848,-175.645,-30.632,2.86
5.4943,128.182104,37.938802,6824.000779200001,-175.607,-30.805,2.835
5.511,128.182106,37.938845,6821.845538400001,-175.571,-30.978,2.81
5.5277,128.182108,37.938889,6819.6747528,-175.536,-31.151,2.784
5.5443,128.18211,37.938933,6817.4893368,-175.503,-31.324,2.759
5.5611,128.182112,37.938977,6815.288376,-175.472,-31.496,2.734
5.5778,128.182114,37.939021,6813.0727848,-175.442,-31.669,2.709
5.5945,128.182116,37.939064,6810.8419536,-175.414,-31.842,2.684
5.6112,128.182118,37.939108,6808.595882400001,-175.387,-32.015,2.659
5.6278,128.182119,37.939152,6806.334876,-175.362,-32.188,2.635
5.6445,128.182121,37.939195,6804.0589344,-175.338,-32.36,2.61
5.6613,128.182123,37.939239,6801.7680576,-175.316,-32.533,2.585
5.678,128.182125,37.939282,6799.4619408,-175.295,-32.706,2.561
5.6947,128.182127,37.939325,6797.1408888,-175.276,-32.878,2.536
5.7114,128.182129,37.939369,6794.8049016,-175.257,-33.051,2.512
5.728,128.182131,37.939412,6792.4539792000005,-175.241,-33.224,2.487
5.7448,128.182133,37.939455,6790.0881216,-175.225,-33.396,2.463
5.7615,128.182134,37.939498,6787.707328800001,-175.211,-33.569,2.439
5.7782,128.182136,37.939542,6785.311600800001,-175.198,-33.742,2.415
5.7949,128.182138,37.939585,6782.9009376,-175.186,-33.914,2.391
5.8115,128.18214,37.939628,6780.4753392,-175.175,-34.087,2.367
5.8282,128.182142,37.93967,6778.0348056,-175.165,-34.259,2.344
5.845,128.182143,37.939713,6775.5796416,-175.157,-34.432,2.32
5.8617,128.182145,37.939756,6773.109237600001,-175.149,-34.604,2.297
5.8784,128.182147,37.939799,6770.6242032,-175.143,-34.777,2.273
5.8951,128.182149,37.939842,6768.124538400001,-175.137,-34.949,2.25
5.9117,128.18215,37.939884,6765.609938400001,-175.133,-35.122,2.227
5.9285,128.182152,37.939927,6763.0804032,-175.129,-35.295,2.204
5.9452,128.182154,37.939969,6760.5362376,-175.127,-35.467,2.181
5.9619,128.182155,37.940012,6757.9771368,-175.125,-35.64,2.159
5.9786,128.182157,37.940054,6755.4031008,-175.124,-35.812,2.136
5.9952,128.182159,37.940096,6752.8147392,-175.124,-35.985,2.114
6.0119,128.18216,37.940139,6750.211442400001,-175.125,-36.157,2.091
6.0287,128.182162,37.940181,6747.593515200001,-175.126,-36.33,2.069
6.0454,128.182164,37.940223,6744.9606527999995,-175.128,-36.502,2.047
6.0621,128.182165,37.940265,6742.3134648000005,-175.131,-36.675,2.025
6.0788,128.182167,37.940307,6739.651341600001,-175.135,-36.847,2.004
6.0954,128.182168,37.940349,6736.974588000001,-175.139,-37.02,1.982
6.1121,128.18217,37.940391,6734.283204,-175.144,-37.193,1.96
6.1289,128.182171,37.940433,6731.5771896,-175.149,-37.365,1.939
6.1456,128.182173,37.940474,6728.8565448,-175.155,-37.538,1.918
6.1623,128.182174,37.940516,6726.1212696,-175.162,-37.71,1.897
6.179,128.182176,37.940558,6723.3716688,-175.169,-37.883,1.876
6.1956,128.182177,37.940599,6720.607132800001,-175.176,-38.056,1.855
6.2124,128.182179,37.940641,6717.8282712,-175.184,-38.228,1.835
6.2291,128.18218,37.940682,6715.034779200001,-175.193,-38.401,1.814
6.2458,128.182182,37.940724,6712.2266568000005,-175.202,-38.574,1.794
6.2625,128.182183,37.940765,6709.404208800001,-175.211,-38.746,1.774
6.2791,128.182185,37.940806,6706.5671304,-175.221,-38.919,1.754
6.2958,128.182186,37.940847,6703.7157264,-175.231,-39.092,1.734
6.3126,128.182188,37.940888,6700.849996800001,-175.242,-39.264,1.714
6.3293,128.182189,37.940929,6697.9696368,-175.253,-39.437,1.694
6.346,128.18219,37.94097,6695.0746464,-175.264,-39.61,1.675
6.3627,128.182192,37.941011,6692.1653304,-175.275,-39.783,1.655
6.3793,128.182193,37.941052,6689.2416888,-175.287,-39.956,1.636
6.3961,128.182194,37.941093,6686.3037216,-175.299,-40.128,1.617
6.4128,128.182196,37.941133,6683.351428800001,-175.311,-40.301,1.598
6.4295,128.182197,37.941174,6680.384810400001,-175.324,-40.474,1.579
6.4462,128.182198,37.941214,6677.4035616,-175.337,-40.647,1.561
6.4628,128.1822,37.941255,6674.408292000001,-175.35,-40.82,1.542
6.4795,128.182201,37.941295,6671.398696800001,-175.363,-40.993,1.524
6.4963,128.182202,37.941336,6668.374776,-175.376,-41.166,1.505
6.513,128.182203,37.941376,6665.3365296,-175.39,-41.339,1.487
6.5297,128.182204,37.941416,6662.2839576,-175.404,-41.512,1.469
6.5464,128.182206,37.941456,6659.217364800001,-175.418,-41.685,1.451
6.5631,128.182207,37.941496,6656.136446400001,-175.432,-41.858,1.434
6.5798,128.182208,37.941536,6653.0412024,-175.446,-42.031,1.416
6.5965,128.182209,37.941576,6649.9319376,-175.46,-42.204,1.398
6.6132,128.18221,37.941616,6646.808347200001,-175.474,-42.377,1.381
6.6299,128.182212,37.941655,6643.670736,-175.489,-42.551,1.364
6.6466,128.182213,37.941695,6640.519104,-175.503,-42.724,1.347
6.6633,128.182214,37.941735,6637.353146400001,-175.518,-42.897,1.33
6.68,128.182215,37.941774,6634.1734728,-175.533,-43.07,1.313
6.6967,128.182216,37.941813,6630.9791688000005,-175.547,-43.244,1.296
6.7134,128.182217,37.941853,6627.7711488,-175.562,-43.417,1.279
6.7301,128.182218,37.941892,6624.549108,-175.577,-43.59,1.263
6.7468,128.182219,37.941931,6621.3130464000005,-175.592,-43.764,1.246
6.7635,128.18222,37.94197,6618.062659200001,-175.607,-43.937,1.23
6.7802,128.182221,37.942009,6614.798556000001,-175.621,-44.111,1.214
6.7969,128.182222,37.942048,6611.520432,-175.636,-44.284,1.198
6.8136,128.182223,37.942087,6608.228592,-175.651,-44.458,1.182
6.8303,128.182224,37.942126,6604.9224264,-175.666,-44.631,1.166
6.847,128.182225,37.942164,6601.6025448,-175.681,-44.805,1.15
6.8637,128.182226,37.942203,6598.268947200001,-175.696,-44.978,1.134
6.8804,128.182227,37.942242,6594.921024,-175.711,-45.152,1.119
6.8971,128.182228,37.94228,6591.5596896,-175.726,-45.326,1.103
6.9138,128.182229,37.942318,6588.1843344,-175.74,-45.499,1.088
6.9305,128.18223,37.942357,6584.7949584,-175.755,-45.673,1.073
6.9472,128.182231,37.942395,6581.3921712,-175.77,-45.847,1.058
6.9639,128.182232,37.942433,6577.9753632,-175.785,-46.021,1.043
6.9806,128.182233,37.942471,6574.5448392,-175.799,-46.195,1.028
6.9973,128.182234,37.942509,6571.1005992,-175.814,-46.369,1.013
7.014,128.182235,37.942547,6567.6426432,-175.828,-46.542,0.998
7.0307,128.182235,37.942585,6564.1709712,-175.843,-46.716,0.983
7.0474,128.182236,37.942622,6560.685583200001,-175.857,-46.89,0.968
7.0641,128.182237,37.94266,6557.186479200001,-175.871,-47.064,0.954
7.0808,128.182238,37.942697,6553.673659200001,-175.886,-47.239,0.939
7.0975,128.182239,37.942735,6550.147428,-175.9,-47.413,0.925
7.1142,128.182239,37.942772,6546.6077856,-175.914,-47.587,0.911
7.1309,128.18224,37.94281,6543.0541224,-175.928,-47.761,0.896
7.1476,128.182241,37.942847,6539.487048,-175.942,-47.935,0.882
7.1643,128.182242,37.942884,6535.9065624,-175.956,-48.11,0.868
7.181,128.182243,37.942921,6532.3123608000005,-175.969,-48.284,0.854
7.1977,128.182243,37.942958,6528.7050528,-175.983,-48.458,0.84
7.2144,128.182244,37.942995,6525.083724000001,-175.997,-48.633,0.826
7.2311,128.182245,37.943031,6521.4492887999995,-176.01,-48.807,0.813
7.2478,128.182245,37.943068,6517.8014424,-176.024,-48.981,0.799
7.2645,128.182246,37.943104,6514.1401848,-176.037,-49.156,0.785
7.2812,128.182247,37.943141,6510.465211200001,-176.05,-49.33,0.772
7.2979,128.182247,37.943177,6506.7771312,-176.063,-49.505,0.758
7.3146,128.182248,37.943214,6503.07564,-176.076,-49.68,0.745
7.3313,128.182249,37.94325,6499.361042400001,-176.089,-49.854,0.731
7.348,128.182249,37.943286,6495.633033600001,-176.102,-50.029,0.718
7.3647,128.18225,37.943322,6491.891613600001,-176.114,-50.204,0.705
7.3814,128.182251,37.943358,6488.136782400001,-176.127,-50.379,0.691
7.3981,128.182251,37.943394,6484.3691496,-176.139,-50.553,0.678
7.4148,128.182252,37.943429,6480.588105600001,-176.152,-50.728,0.665
7.4315,128.182252,37.943465,6476.793650400001,-176.164,-50.903,0.652
7.4482,128.182253,37.9435,6472.9863936,-176.176,-51.078,0.639
7.4649,128.182253,37.943536,6469.1657256,-176.188,-51.253,0.626
7.4816,128.182254,37.943571,6465.331951200001,-176.2,-51.428,0.613
7.4983,128.182255,37.943607,6461.4853752,-176.211,-51.603,0.6
7.515,128.182255,37.943642,6457.625388,-176.223,-51.778,0.587
7.5317,128.182256,37.943677,6453.7525992,-176.234,-51.953,0.574
7.5484,128.182256,37.943712,6449.866704,-176.246,-52.129,0.561
7.5651,128.182257,37.943747,6445.9677024,-176.257,-52.304,0.549
7.5818,128.182257,37.943781,6442.0555944,-176.268,-52.479,0.536
7.5985,128.182258,37.943816,6438.1306848,-176.279,-52.655,0.523
7.6152,128.182258,37.943851,6434.1929736,-176.29,-52.83,0.511
7.6319,128.182258,37.943885,6430.242156,-176.301,-53.005,0.498
7.6486,128.182259,37.943919,6426.2788416,-176.311,-53.181,0.485
7.6653,128.182259,37.943954,6422.302116,-176.322,-53.356,0.473
7.682,128.18226,37.943988,6418.3128936,-176.332,-53.532,0.46
7.6987,128.18226,37.944022,6414.310869600001,-176.342,-53.708,0.448
7.7154,128.182261,37.944056,6410.296044,-176.353,-53.883,0.435
7.7321,128.182261,37.94409,6406.2684168,-176.363,-54.059,0.423
7.7488,128.182261,37.944124,6402.227988000001,-176.372,-54.235,0.41
7.7655,128.182262,37.944157,6398.1747576,-176.382,-54.41,0.398
7.7822,128.182262,37.944191,6394.1090304,-176.392,-54.586,0.385
7.7989,128.182262,37.944224,6390.030806400001,-176.401,-54.762,0.373
7.8156,128.182263,37.944258,6385.9397808,-176.411,-54.938,0.361
7.8323,128.182263,37.944291,6381.8359536,-176.42,-55.114,0.348
7.849,128.182263,37.944324,6377.7199344,-176.429,-55.29,0.336
7.8657,128.182264,37.944357,6373.5911136,-176.438,-55.466,0.324
7.8824,128.182264,37.94439,6369.449796000001,-176.447,-55.642,0.311
7.8991,128.182264,37.944423,6365.2959816,-176.455,-55.818,0.299
7.9158,128.182264,37.944456,6361.129670400001,-176.464,-55.995,0.287
7.9325,128.182265,37.944488,6356.9508624,-176.472,-56.171,0.274
7.9492,128.182265,37.944521,6352.7598624,-176.481,-56.347,0.262
7.9659,128.182265,37.944553,6348.5563656,-176.489,-56.524,0.25
7.9826,128.182266,37.944585,6344.340372000001,-176.497,-56.7,0.237
7.9993,128.182266,37.944618,6340.112186400001,-176.505,-56.877,0.225
8.016,128.182266,37.94465,6335.8718088000005,-176.513,-57.053,0.213
8.0327,128.182266,37.944682,6331.6189343999995,-176.52,-57.23,0.2
8.0494,128.182266,37.944714,6327.353868,-176.528,-57.406,0.188
8.0661,128.182267,37.944745,6323.076609600001,-176.535,-57.583,0.176
8.0828,128.182267,37.944777,6318.7871592,-176.543,-57.76,0.163
8.0994,128.182267,37.944809,6314.4855168,-176.55,-57.936,0.151
8.1161,128.182267,37.94484,6310.1716824000005,-176.557,-58.113,0.139
8.1329,128.182267,37.944871,6305.8459608,-176.564,-58.29,0.126
8.1496,128.182267,37.944903,6301.508047200001,-176.571,-58.467,0.114
8.1663,128.182267,37.944934,6297.1579416,-176.577,-58.644,0.101
8.183,128.182268,37.944965,6292.7959488,-176.584,-58.821,0.089
8.1997,128.182268,37.944996,6288.4220688000005,-176.59,-58.998,0.076
8.2164,128.182268,37.945026,6284.0359968,-176.596,-59.175,0.064
8.2331,128.182268,37.945057,6279.638037600001,-176.603,-59.352,0.051
8.2498,128.182268,37.945088,6275.228191200001,-176.609,-59.53,0.039
8.2665,128.182268,37.945118,6270.8067624,-176.615,-59.707,0.026
8.2831,128.182268,37.945148,6266.3731416,-176.62,-59.884,0.014
8.2998,128.182268,37.945179,6261.927938400001,-176.626,-60.062,0.001
8.3166,128.182268,37.945209,6257.470848,-176.632,-60.239,359.988
8.3333,128.182268,37.945239,6253.001870400001,-176.637,-60.416,359.976
8.35,128.182268,37.945268,6248.5213104,-176.642,-60.594,359.963
8.3667,128.182268,37.945298,6244.029168,-176.647,-60.772,359.95
8.3834,128.182268,37.945328,6239.525138400001,-176.652,-60.949,359.937
8.4001,128.182268,37.945357,6235.0095264,-176.657,-61.127,359.924
8.4168,128.182268,37.945387,6230.4826368,-176.662,-61.305,359.911
8.4335,128.182268,37.945416,6225.94386,-176.667,-61.483,359.899
8.4502,128.182268,37.945445,6221.393500800001,-176.671,-61.66,359.886
8.4668,128.182268,37.945474,6216.831864000001,-176.676,-61.838,359.873
8.4835,128.182268,37.945503,6212.2586448,-176.68,-62.016,359.859
8.5003,128.182268,37.945532,6207.674148,-176.684,-62.194,359.846
8.517,128.182268,37.945561,6203.0780688,-176.688,-62.372,359.833
8.5337,128.182268,37.945589,6198.470712,-176.692,-62.551,359.82
8.5504,128.182268,37.945618,6193.8520776000005,-176.696,-62.729,359.807
8.5671,128.182268,37.945646,6189.222165600001,-176.7,-62.907,359.793
8.5838,128.182268,37.945674,6184.580976,-176.703,-63.085,359.78
8.6005,128.182268,37.945702,6179.928508800001,-176.707,-63.264,359.766
8.6172,128.182268,37.94573,6175.2647640000005,-176.71,-63.442,359.753
8.6339,128.182268,37.945758,6170.589741600001,-176.713,-63.621,359.739
8.6505,128.182268,37.945786,6165.904051200001,-176.716,-63.799,359.725
8.6672,128.182267,37.945813,6161.206778400001,-176.719,-63.978,359.712
8.684,128.182267,37.945841,6156.498837600001,-176.722,-64.156,359.698
8.7007,128.182267,37.945868,6151.7796192000005,-176.724,-64.335,359.684
8.7174,128.182267,37.945895,6147.049428,-176.727,-64.514,359.67
8.7341,128.182267,37.945922,6142.308264,-176.729,-64.693,359.656
8.7508,128.182267,37.945949,6137.5561272,-176.732,-64.872,359.642
8.7675,128.182266,37.945976,6132.7933224,-176.734,-65.051,359.627
8.7842,128.182266,37.946003,6128.0195448,-176.736,-65.23,359.613
8.8009,128.182266,37.94603,6123.2350992,-176.738,-65.409,359.599
8.8176,128.182266,37.946056,6118.4396808,-176.74,-65.588,359.584
8.8342,128.182266,37.946082,6113.6335944,-176.741,-65.767,359.569
8.8509,128.182266,37.946109,6108.81684,-176.743,-65.946,359.555
8.8676,128.182265,37.946135,6103.9891128,-176.744,-66.125,359.54
8.8844,128.182265,37.946161,6099.1510224,-176.745,-66.305,359.525
8.9011,128.182265,37.946186,6094.302264000001,-176.747,-66.484,359.51
8.9178,128.182265,37.946212,6089.4431424,-176.748,-66.664,359.495
8.9345,128.182264,37.946238,6084.5733528,-176.748,-66.843,359.48
8.9512,128.182264,37.946263,6079.693200000001,-176.749,-67.023,359.464
8.9679,128.182264,37.946289,6074.8023792,-176.75,-67.202,359.449
8.9846,128.182264,37.946314,6069.9011952,-176.75,-67.382,359.433
9.0013,128.182263,37.946339,6064.989648,-176.751,-67.562,359.418
9.0179,128.182263,37.946364,6060.0677376,-176.751,-67.742,359.402
9.0346,128.182263,37.946388,6055.135768800001,-176.751,-67.922,359.386
9.0513,128.182262,37.946413,6050.1934368,-176.751,-68.102,359.37
9.0681,128.182262,37.946438,6045.240741600001,-176.751,-68.282,359.353
9.0848,128.182262,37.946462,6040.277988000001,-176.75,-68.462,359.337
9.1015,128.182261,37.946486,6035.3048712,-176.75,-68.642,359.321
9.1182,128.182261,37.94651,6030.322000800001,-176.749,-68.822,359.304
9.1349,128.182261,37.946534,6025.3287672,-176.748,-69.002,359.287
9.1516,128.18226,37.946558,6020.32578,-176.748,-69.183,359.27
9.1683,128.18226,37.946582,6015.3127343999995,-176.746,-69.363,359.253
9.185,128.18226,37.946606,6010.2896304,-176.745,-69.543,359.236
9.2016,128.182259,37.946629,6005.2567728,-176.744,-69.724,359.218
9.2183,128.182259,37.946652,6000.213856800001,-176.742,-69.905,359.201
9.235,128.182259,37.946676,5995.1611872,-176.741,-70.085,359.183
9.2518,128.182258,37.946699,5990.098764,-176.739,-70.266,359.165
9.2685,128.182258,37.946722,5985.026587200001,-176.737,-70.447,359.147
9.2852,128.182257,37.946744,5979.944656800001,-176.735,-70.628,359.128
9.3019,128.182257,37.946767,5974.8532776,-176.733,-70.808,359.11
9.3186,128.182257,37.94679,5969.7521448,-176.73,-70.989,359.091
9.3353,128.182256,37.946812,5964.6412584,-176.727,-71.17,359.072
9.352,128.182256,37.946834,5959.5212280000005,-176.725,-71.351,359.053
9.3687,128.182255,37.946856,5954.391444,-176.722,-71.533,359.034
9.3854,128.182255,37.946878,5949.252211200001,-176.719,-71.714,359.014
9.402,128.182255,37.9469,5944.1035296,-176.715,-71.895,358.994
9.4187,128.182254,37.946922,5938.945704,-176.712,-72.076,358.974
9.4355,128.182254,37.946943,5933.7784296,-176.708,-72.258,358.954
9.4522,128.182253,37.946965,5928.601706400001,-176.704,-72.439,358.933
9.4689,128.182253,37.946986,5923.4158392,-176.7,-72.621,358.913
9.4856,128.182252,37.947007,5918.2211328,-176.696,-72.802,358.892
9.5023,128.182252,37.947028,5913.0169776,-176.692,-72.984,358.87
9.519,128.182251,37.947049,5907.8036784000005,-176.687,-73.166,358.849
9.5357,128.182251,37.947069,5902.5812352,-176.682,-73.348,358.827
9.5524,128.18225,37.94709,5897.3499528,-176.677,-73.529,358.805
9.5691,128.18225,37.94711,5892.1098312,-176.672,-73.711,358.782
9.5857,128.182249,37.947131,5886.860565600001,-176.666,-73.893,358.759
9.6024,128.182249,37.947151,5881.602460800001,-176.661,-74.075,358.736
9.6192,128.182248,37.947171,5876.3355168,-176.655,-74.257,358.713
9.6359,128.182248,37.947191,5871.059733600001,-176.649,-74.439,358.689
9.6526,128.182247,37.94721,5865.7754159999995,-176.642,-74.621,358.665
9.6693,128.182247,37.94723,5860.4822592,-176.635,-74.804,358.641
9.686,128.182246,37.947249,5855.1802632,-176.629,-74.986,358.616
9.7027,128.182246,37.947268,5849.870037600001,-176.621,-75.168,358.591
9.7194,128.182245,37.947288,5844.550972800001,-176.614,-75.35,358.565
9.7361,128.182245,37.947306,5839.223373600001,-176.606,-75.533,358.54
9.7528,128.182244,37.947325,5833.8875448,-176.598,-75.715,358.513
9.7694,128.182243,37.947344,5828.5431816,-176.59,-75.898,358.486
9.7861,128.182243,37.947362,5823.190284000001,-176.582,-76.08,358.459
9.8029,128.182242,37.947381,5817.829461599999,-176.573,-76.263,358.432
9.8196,128.182242,37.947399,5812.4601048,-176.563,-76.446,358.403
9.8363,128.182241,37.947417,5807.0825184000005,-176.554,-76.629,358.375
9.853,128.182241,37.947435,5801.6967024,-176.544,-76.811,358.346
9.8697,128.18224,37.947453,5796.302961599999,-176.534,-76.994,358.316
9.8864,128.182239,37.94747,5790.9009912,-176.523,-77.177,358.286
9.9031,128.182239,37.947488,5785.490791200001,-176.512,-77.36,358.255
9.9198,128.182238,37.947505,5780.0729712,-176.501,-77.543,358.224
9.9365,128.182238,37.947522,5774.6469216,-176.489,-77.726,358.192
9.9531,128.182237,37.947539,5769.2132520000005,-176.477,-77.91,358.159
9.9698,128.182236,37.947556,5763.7716576,-176.464,-78.093,358.126
9.9865,128.182236,37.947573,5758.322138400001,-176.451,-78.276,358.092
10.0033,128.182235,37.947589,5752.8649992,-176.438,-78.46,358.058
10.02,128.182234,37.947606,5747.40024,-176.424,-78.643,358.022
10.0367,128.182234,37.947622,5741.927556000001,-176.409,-78.827,357.986
10.0534,128.182233,37.947638,5736.447556800001,-176.394,-79.01,357.949
10.0701,128.182233,37.947654,5730.959937600001,-176.378,-79.194,357.912
10.0868,128.182232,37.94767,5725.4650032,-176.362,-79.378,357.873
10.1035,128.182231,37.947686,5719.9624488,-176.345,-79.561,357.834
10.1202,128.182231,37.947701,5714.4525792,-176.328,-79.745,357.793
10.1368,128.18223,37.947716,5708.9353944,-176.309,-79.929,357.752
10.1535,128.182229,37.947732,5703.4105896,-176.29,-80.113,357.71
10.1702,128.182229,37.947747,5697.879079200001,-176.271,-80.297,357.666
10.187,128.182228,37.947761,5692.3399488,-176.25,-80.481,357.621
10.2037,128.182227,37.947776,5686.7941128,-176.229,-80.666,357.576
10.2204,128.182227,37.947791,5681.2409615999995,-176.207,-80.85,357.529
10.2371,128.182226,37.947805,5675.6808,-176.184,-81.034,357.48
10.2538,128.182225,37.947819,5670.113628,-176.16,-81.219,357.43
10.2705,128.182225,37.947833,5664.5397504,-176.135,-81.403,357.379
10.2872,128.182224,37.947847,5658.9588624,-176.108,-81.588,357.326
10.3039,128.182223,37.947861,5653.3712688000005,-176.081,-81.772,357.272
10.3205,128.182222,37.947875,5647.7769696000005,-176.052,-81.957,357.216
10.3372,128.182222,37.947888,5642.175660000001,-176.023,-82.142,357.158
10.3539,128.182221,37.947901,5636.5679496,-175.991,-82.326,357.098
10.3707,128.18222,37.947915,5630.953838400001,-175.958,-82.511,357.036
10.3874,128.18222,37.947928,5625.3327168,-175.924,-82.696,356.972
10.4041,128.182219,37.94794,5619.7054992,-175.888,-82.881,356.906
10.4208,128.182218,37.947953,5614.0718808,-175.85,-83.066,356.837
10.4375,128.182218,37.947966,5608.431556800001,-175.81,-83.251,356.765
10.4542,128.182217,37.947978,5602.7851368,-175.768,-83.437,356.691
10.4709,128.182216,37.94799,5597.1326208,-175.724,-83.622,356.613
10.4876,128.182215,37.948002,5591.473704,-175.677,-83.807,356.532
10.5042,128.182215,37.948014,5585.808691200001,-175.627,-83.993,356.448
10.5209,128.182214,37.948026,5580.137582400001,-175.574,-84.178,356.36
10.5376,128.182213,37.948037,5574.4603776,-175.519,-84.364,356.267
10.5544,128.182213,37.948048,5568.7773816,-175.459,-84.55,356.17
10.5711,128.182212,37.94806,5563.0882896,-175.395,-84.735,356.067
10.5878,128.182211,37.948071,5557.3934064000005,-175.325,-84.921,355.957
10.6045,128.18221,37.948082,5551.692732,-175.25,-85.107,355.841
10.6212,128.18221,37.948092,5545.9862664,-175.169,-85.293,355.717
10.6379,128.182209,37.948103,5540.274009600001,-175.081,-85.479,355.584
10.6546,128.182208,37.948113,5534.5562664,-174.99,-85.66,355.448
10.6713,128.182208,37.948123,5528.832732000001,-174.904,-85.831,355.314
10.6879,128.182207,37.948133,5523.1037112,-174.829,-85.989,355.19
10.7046,128.182206,37.948143,5517.3692040000005,-174.769,-86.131,355.078
10.7213,128.182205,37.948153,5511.6295152,-174.724,-86.26,354.98
10.7381,128.182205,37.948163,5505.8840352,-174.696,-86.377,354.895
10.7548,128.182204,37.948172,5500.133373600001,-174.68,-86.484,354.822
10.7715,128.182203,37.948181,5494.3778352,-174.677,-86.583,354.759
10.7882,128.182203,37.94819,5488.616810400001,-174.682,-86.677,354.702
10.8049,128.182202,37.948199,5482.850604,-174.694,-86.767,354.651
10.8216,128.182201,37.948208,5477.0795208,-174.712,-86.853,354.604
10.8383,128.1822,37.948217,5471.303256000001,-174.733,-86.937,354.56
10.855,128.1822,37.948225,5465.521809600001,-174.757,-87.019,354.518
10.8717,128.182199,37.948234,5459.735791200001,-174.784,-87.099,354.479
10.8883,128.182198,37.948242,5453.9445912,-174.814,-87.177,354.442
10.905,128.182198,37.94825,5448.148819200001,-174.845,-87.255,354.406
10.9218,128.182197,37.948258,5442.347865600001,-174.878,-87.331,354.373
10.9385,128.182196,37.948266,5436.54234,-174.913,-87.406,354.342
10.9552,128.182195,37.948273,5430.7319376000005,-174.949,-87.479,354.313
10.9719,128.182195,37.948281,5424.9166584,-174.988,-87.552,354.287
10.9886,128.182194,37.948288,5419.0968072,-175.028,-87.623,354.263
11.0053,128.182193,37.948295,5413.272384000001,-175.07,-87.694,354.242
11.022,128.182193,37.948302,5407.443084,-175.115,-87.763,354.224
11.0387,128.182192,37.948309,5401.609212,-175.161,-87.831,354.209
11.0554,128.182191,37.948316,5395.770768,-175.209,-87.899,354.196
11.072,128.182191,37.948323,5389.9277520000005,-175.259,-87.965,354.187
11.0887,128.18219,37.948329,5384.080164,-175.312,-88.031,354.181
11.1054,128.182189,37.948336,5378.2283088,-175.369,-88.095,354.181
11.1222,128.182189,37.948342,5372.3715768,-175.431,-88.159,354.188
11.1389,128.182188,37.948348,5366.5105776,-175.496,-88.221,354.198
11.1556,128.182188,37.948354,5360.645006400001,-175.564,-88.283,354.212
11.1723,128.182187,37.94836,5354.7748632,-175.632,-88.344,354.228
11.189,128.182186,37.948366,5348.9004528,-175.7,-88.403,354.246
11.2057,128.182186,37.948371,5343.0217752,-175.768,-88.462,354.265
11.2224,128.182185,37.948377,5337.1388304,-175.835,-88.52,354.284
11.2391,128.182184,37.948382,5331.251618400001,-175.902,-88.577,354.304
11.2557,128.182184,37.948388,5325.3601392,-175.967,-88.633,354.325
11.2724,128.182183,37.948393,5319.4643928000005,-176.031,-88.688,354.346
11.2891,128.182183,37.948398,5313.564379200001,-176.094,-88.742,354.367
11.3059,128.182182,37.948403,5307.6604032,-176.155,-88.795,354.388
11.3226,128.182181,37.948408,5301.752160000001,-176.214,-88.848,354.409
11.3393,128.182181,37.948413,5295.8399544,-176.27,-88.899,354.428
11.356,128.18218,37.948417,5289.9234816,-176.323,-88.95,354.446
11.3727,128.18218,37.948422,5284.0030464,-176.371,-89.0,354.461
11.3894,128.182179,37.948426,5278.078344,-176.415,-89.049,354.473
11.4061,128.182179,37.948431,5272.149984000001,-176.453,-89.097,354.479
11.4228,128.182178,37.948435,5266.217356800001,-176.48,-89.144,354.477
11.4394,128.182177,37.948439,5260.281072,-176.49,-89.191,354.459
11.4561,128.182177,37.948443,5254.340520000001,-176.475,-89.236,354.419
11.4728,128.182176,37.948447,5248.3963104,-176.429,-89.281,354.348
11.4896,128.182176,37.948451,5242.447833600001,-176.343,-89.325,354.24
11.5063,128.182175,37.948454,5236.4956992,-176.209,-89.369,354.086
11.523,128.182175,37.948458,5230.5396024,-176.018,-89.411,353.875
11.5397,128.182174,37.948462,5224.579847999999,-175.759,-89.452,353.598
11.5564,128.182174,37.948465,5218.6158264,-175.615,-89.47,353.437
11.5731,128.182173,37.948468,5212.647842400001,-175.659,-89.46,353.465
11.5898,128.182173,37.948472,5206.6762008000005,-175.803,-89.432,353.592
11.6065,128.182172,37.948475,5200.7005968,-175.937,-89.4,353.709
11.6231,128.182172,37.948478,5194.7213352,-176.002,-89.375,353.757
11.6398,128.182171,37.948481,5188.738416,-175.982,-89.359,353.72
11.6565,128.182171,37.948484,5182.7518392,-175.88,-89.354,353.601
11.6733,128.182171,37.948487,5176.7613,-175.707,-89.359,353.412
11.69,128.18217,37.948489,5170.767408,-175.478,-89.371,353.167
11.7067,128.18217,37.948492,5164.7695536,-175.208,-89.388,352.88
11.7234,128.182169,37.948495,5158.7680416,-174.913,-89.408,352.567
11.7401,128.182169,37.948497,5152.7625672,-174.608,-89.429,352.244
11.7568,128.182168,37.9485,5146.75374,-174.309,-89.452,351.924
11.7735,128.182168,37.948502,5140.740950400001,-174.03,-89.475,351.622
11.7902,128.182167,37.948504,5134.7245032,-173.785,-89.498,351.353
11.8068,128.182167,37.948507,5128.704093599999,-173.884,-89.498,351.424
11.8235,128.182167,37.948509,5122.6800264,-174.417,-89.466,351.928
11.8402,128.182166,37.948511,5116.6519968,-175.135,-89.413,352.613
11.857,128.182166,37.948513,5110.6203096,-175.814,-89.355,353.259
11.8737,128.182165,37.948515,5104.5852696,-176.374,-89.305,353.785
11.8904,128.182165,37.948517,5098.546572,-176.812,-89.269,354.191
11.9071,128.182165,37.948519,5092.503912,-177.15,-89.247,354.501
11.9238,128.182164,37.94852,5086.4575944,-177.411,-89.237,354.738
11.9405,128.182164,37.948522,5080.407924000001,-177.612,-89.236,354.917
11.9572,128.182163,37.948524,5074.3542912,-177.762,-89.241,355.051
11.9739,128.182163,37.948526,5068.296696,-177.866,-89.25,355.143
11.9905,128.182163,37.948527,5062.235748,-177.928,-89.262,355.195
12.0072,128.182162,37.948529,5056.170837600001,-177.947,-89.275,355.206
12.0239,128.182162,37.94853,5050.102269600001,-177.922,-89.289,355.177
12.0407,128.182162,37.948532,5044.030044,-177.854,-89.303,355.106
12.0574,128.182161,37.948533,5037.953856000001,-177.742,-89.318,354.992
12.0741,128.182161,37.948534,5031.874010400001,-177.588,-89.333,354.836
12.0908,128.182161,37.948536,5025.790507199999,-177.393,-89.349,354.641
12.1075,128.18216,37.948537,5019.703346400001,-177.161,-89.364,354.408
12.1242,128.18216,37.948538,5013.612223200001,-176.898,-89.38,354.145
12.1409,128.18216,37.948539,5007.5177472000005,-176.611,-89.395,353.856
12.1576,128.182159,37.94854,5001.4193088,-176.308,-89.41,353.552
12.1743,128.182159,37.948541,4995.3172128,-176.001,-89.424,353.242
12.1909,128.182159,37.948542,4989.2111544,-175.701,-89.438,352.938
12.2076,128.182158,37.948543,4983.1017432,-175.422,-89.452,352.652
12.2243,128.182158,37.948544,4976.9883696,-175.176,-89.466,352.398
12.2411,128.182158,37.948545,4970.8716432,-174.976,-89.48,352.188
12.2578,128.182157,37.948546,4964.7509544,-174.834,-89.494,352.034
12.2745,128.182157,37.948547,4958.626608,-174.761,-89.507,351.945
12.2912,128.182157,37.948548,4952.4982992000005,-174.762,-89.52,351.929
12.3079,128.182156,37.948548,4946.3666376,-174.842,-89.534,351.989
12.3246,128.182156,37.948549,4940.231013600001,-174.998,-89.547,352.124
12.3413,128.182156,37.94855,4934.092036800001,-175.224,-89.56,352.328
12.358,128.182156,37.94855,4927.949097600001,-175.51,-89.573,352.591
12.3746,128.182155,37.948551,4921.802196000001,-175.839,-89.586,352.899
12.3913,128.182155,37.948552,4915.6519416,-176.195,-89.599,353.234
12.408,128.182155,37.948552,4909.4977248000005,-176.555,-89.612,353.576
12.4248,128.182155,37.948552,4903.339850400001,-176.897,-89.625,353.902
12.4415,128.182154,37.948553,4897.1783184000005,-177.2,-89.638,354.191
12.4582,128.182154,37.948553,4891.012824,-177.44,-89.651,354.42
12.4749,128.182154,37.948554,4884.843672,-177.596,-89.664,354.569
12.4916,128.182153,37.948554,4878.6708624,-177.65,-89.676,354.617
12.5083,128.182153,37.948554,4872.4940904000005,-177.584,-89.688,354.548
12.525,128.182153,37.948555,4866.3136608,-177.385,-89.7,354.347
12.5417,128.182153,37.948555,4860.1295736,-177.04,-89.712,354.002
12.5583,128.182152,37.948555,4853.941524,-176.544,-89.723,353.506
12.575,128.182152,37.948555,4847.7501216,-175.897,-89.734,352.86
12.5917,128.182152,37.948555,4841.5547568,-175.106,-89.744,352.069
12.6085,128.182152,37.948555,4835.3557344,-174.189,-89.753,351.152
12.6252,128.182152,37.948555,4829.153054400001,-173.173,-89.762,350.135
12.6419,128.182151,37.948555,4822.946412,-172.099,-89.771,349.058
12.6586,128.182151,37.948555,4816.7364168,-171.019,-89.779,347.972
12.6753,128.182151,37.948555,4810.522764,-169.996,-89.786,346.938
12.692,128.182151,37.948555,4804.3054536,-169.102,-89.794,346.029
12.7087,128.18215,37.948555,4798.0844856,-168.412,-89.801,345.317
12.7254,128.18215,37.948555,4791.8598600000005,-167.998,-89.809,344.873
12.742,128.18215,37.948555,4785.6315768,-167.916,-89.817,344.754
12.7587,128.18215,37.948555,4779.3999408,-168.207,-89.825,345.001
12.7754,128.18215,37.948555,4773.1643424,-168.877,-89.833,345.62
12.7922,128.182149,37.948554,4766.9253912,-169.895,-89.841,346.584
12.8089,128.182149,37.948554,4760.6827824,-171.188,-89.85,347.821
12.8256,128.182149,37.948554,4754.436516000001,-172.64,-89.858,349.22
12.8423,128.182149,37.948553,4748.1862872,-174.107,-89.867,350.639
12.859,128.182149,37.948553,4741.9327056,-175.427,-89.875,351.917
12.8757,128.182148,37.948553,4735.6751616,-176.438,-89.884,352.896
12.8924,128.182148,37.948552,4729.4142648,-176.992,-89.892,353.425
12.9091,128.182148,37.948552,4723.1494056,-176.95,-89.9,353.366
12.9257,128.182148,37.948552,4716.8808888,-176.18,-89.908,352.586
12.9424,128.182148,37.948551,4710.6090192,-174.545,-89.916,350.945
12.9591,128.182148,37.948551,4704.333187200001,-171.906,-89.924,348.304
12.9759,128.182147,37.94855,4698.0536976,-168.145,-89.93,344.541
12.9926,128.182147,37.94855,4691.7708552,-163.229,-89.936,339.625
13.0093,128.182147,37.948549,4685.4843552,-157.319,-89.941,333.713
13.026,128.182147,37.948549,4679.1941976,-150.82,-89.944,327.208
13.0427,128.182147,37.948548,4672.9006872,-144.351,-89.948,320.722
13.0594,128.182147,37.948547,4666.603519200001,-138.581,-89.951,314.92
13.0761,128.182147,37.948547,4660.3029984,-134.096,-89.955,310.38
13.0928,128.182146,37.948546,4653.9994296,-131.349,-89.962,307.549
13.1095,128.182146,37.948546,4647.6922032,-131.184,-89.971,307.269
13.1262,128.182146,37.948545,4641.381624,-136.808,-89.982,312.75
13.1429,128.182146,37.948544,4635.0676920000005,-177.519,-89.994,353.301
13.1596,128.182146,37.948543,4628.7501024,87.761,-89.989,87.863
13.1763,128.182146,37.948543,4622.4285504,70.869,-89.979,104.618
13.193,128.182146,37.948542,4616.103036,61.062,-89.973,114.331
13.2097,128.182145,37.948541,4609.774168800001,50.402,-89.969,124.93
13.2264,128.182145,37.94854,4603.441339200001,37.076,-89.967,138.219
13.2431,128.182145,37.948539,4597.104852,21.704,-89.964,153.569
13.2598,128.182145,37.948539,4590.765012000001,6.399,-89.958,168.862
13.2765,128.182145,37.948538,4584.4215144,-6.918,-89.95,182.174
13.2932,128.182145,37.948537,4578.0743592,-17.528,-89.94,192.78
13.3099,128.182145,37.948536,4571.7235464000005,-25.561,-89.928,200.812
13.3266,128.182145,37.948535,4565.3693808,-31.447,-89.914,206.7
13.3433,128.182145,37.948534,4559.011557600001,-35.639,-89.9,210.897
13.36,128.182144,37.948533,4552.6503816,-38.516,-89.885,213.78
13.3767,128.182144,37.948532,4546.2852432,-40.357,-89.87,215.629
13.3934,128.182144,37.948531,4539.916752,-41.358,-89.855,216.641
13.4101,128.182144,37.948531,4533.544908,-41.639,-89.842,216.937
13.4268,128.182144,37.94853,4527.1694064,-41.271,-89.83,216.588
13.4435,128.182144,37.948529,4520.7902472000005,-40.283,-89.82,215.622
13.4602,128.182144,37.948528,4514.4074304000005,-38.682,-89.811,214.047
13.4769,128.182144,37.948527,4508.0215656,-36.457,-89.804,211.852
13.4936,128.182144,37.948526,4501.6317384,-33.59,-89.798,209.017
13.5103,128.182144,37.948524,4495.2385584,-30.063,-89.793,205.526
13.527,128.182144,37.948523,4488.8417208,-25.88,-89.789,201.381
13.5437,128.182143,37.948522,4482.4415304,-21.082,-89.785,196.621
13.5604,128.182143,37.948521,4476.0379872,-15.767,-89.78,191.345
13.5771,128.182143,37.94852,4469.6307864,-10.103,-89.774,185.718
13.5938,128.182143,37.948519,4463.219928,-4.319,-89.765,179.968
13.6105,128.182143,37.948518,4456.8060216,1.327,-89.755,174.353
13.6272,128.182143,37.948517,4450.3881528,6.588,-89.742,169.118
13.6439,128.182143,37.948515,4443.967236,11.268,-89.726,164.458
13.6606,128.182143,37.948514,4437.5426616,15.239,-89.71,160.502
13.6773,128.182143,37.948513,4431.1147344,18.435,-89.692,157.313
13.694,128.182143,37.948512,4424.6831496,20.837,-89.675,154.91
13.7107,128.182143,37.948511,4418.248212,22.452,-89.658,153.284
13.7274,128.182143,37.948509,4411.8099216,23.299,-89.643,152.418
13.7441,128.182143,37.948508,4405.3679736,23.395,-89.629,152.293
13.7608,128.182143,37.948507,4398.9229776,22.753,-89.617,152.897
13.7775,128.182143,37.948505,4392.474019200001,21.38,-89.608,154.224
13.7942,128.182142,37.948504,4386.0220128,19.282,-89.6,156.269
13.8109,128.182142,37.948503,4379.566348800001,16.471,-89.593,159.021
13.8276,128.182142,37.948502,4373.1073320000005,12.98,-89.586,162.45
13.8443,128.182142,37.9485,4366.644657600001,8.877,-89.579,166.491
13.861,128.182142,37.948499,4360.178325600001,4.274,-89.571,171.033
13.8777,128.182142,37.948497,4353.7089456,-0.66,-89.559,175.914
13.8944,128.182142,37.948496,4347.235603200001,-5.72,-89.545,180.927
13.9111,128.182142,37.948495,4340.758908,-10.68,-89.526,185.851
13.9278,128.182142,37.948493,4334.2785552000005,-15.328,-89.504,190.478
13.9445,128.182142,37.948492,4327.7945448,-19.497,-89.48,194.643
13.9612,128.182142,37.94849,4321.3071816,-23.07,-89.454,198.232
13.9779,128.182142,37.948489,4314.8161608,-25.982,-89.427,201.181
13.9946,128.182142,37.948487,4308.321482400001,-28.204,-89.401,203.465
14.0113,128.182142,37.948486,4301.8231464,-29.814,-89.377,205.162
14.028,128.182142,37.948484,4295.3211528,-30.879,-89.356,206.337
14.0447,128.182142,37.948483,4288.8158064,-31.449,-89.337,207.041
14.0614,128.182142,37.948482,4282.3064976000005,-31.561,-89.321,207.308
14.0781,128.182142,37.94848,4275.793836,-31.233,-89.308,207.157
14.0948,128.182142,37.948478,4269.277516800001,-30.475,-89.299,206.592
14.1115,128.182142,37.948477,4262.75754,-29.28,-89.293,205.607
14.1282,128.182142,37.948475,4256.2339056,-27.635,-89.29,204.183
14.1449,128.182142,37.948474,4249.7069184,-25.514,-89.289,202.292
14.1616,128.182142,37.948472,4243.1762736,-22.887,-89.29,199.897
14.1783,128.182142,37.948471,4236.6425808,-19.72,-89.292,196.962
14.195,128.182142,37.948469,4230.104925600001,-15.985,-89.295,193.454
14.2117,128.182142,37.948467,4223.5642224,-11.673,-89.296,189.356
14.2284,128.182142,37.948466,4217.020166400001,-6.797,-89.294,184.681
14.2451,128.182142,37.948464,4210.4727576000005,-1.417,-89.287,179.481
14.2618,128.182142,37.948463,4203.922300800001,4.278,-89.274,173.94
14.2785,128.182142,37.948461,4197.3684912,10.009,-89.253,168.33
14.2952,128.182142,37.948459,4190.8113288,15.487,-89.225,162.935
14.3119,128.182142,37.948457,4184.2514232,20.461,-89.19,157.999
14.3286,128.182142,37.948456,4177.6881648,24.754,-89.15,153.691
14.3453,128.182142,37.948454,4171.1218584,28.318,-89.107,150.057
14.362,128.182142,37.948452,4164.5528088,31.221,-89.063,147.027
14.3787,128.182142,37.94845,4157.9807112,33.535,-89.02,144.528
14.3954,128.182142,37.948448,4151.4055656,35.327,-88.977,142.488
14.4121,128.182142,37.948446,4144.8276768000005,36.657,-88.937,140.848
14.4288,128.182142,37.948444,4138.2470448,37.573,-88.899,139.559
14.4455,128.182142,37.948442,4131.6636696,38.114,-88.864,138.581
14.4622,128.182142,37.94844,4125.0775512,38.303,-88.832,137.894
14.4789,128.182142,37.948438,4118.4883848,38.143,-88.805,137.503
14.4956,128.182142,37.948436,4111.8964752,37.632,-88.783,137.421
14.5123,128.182142,37.948434,4105.3015176,36.761,-88.766,137.665
14.529,128.182142,37.948432,4098.703512,35.517,-88.756,138.257
14.5457,128.182143,37.94843,4092.1024584,33.88,-88.751,139.226
14.5624,128.182143,37.948428,4085.4983568000002,31.824,-88.751,140.605
14.5791,128.182143,37.948425,4078.8912072000003,29.314,-88.757,142.439
14.5958,128.182143,37.948423,4072.2807048000004,26.306,-88.767,144.782
14.6125,128.182143,37.948421,4065.6668496,22.75,-88.779,147.691
14.6292,128.182143,37.948419,4059.0493368,18.594,-88.793,151.23
14.6459,128.182143,37.948417,4052.4287760000007,13.8,-88.804,155.447
14.6626,128.182144,37.948414,4045.8042528000005,8.356,-88.811,160.365
14.6793,128.182144,37.948412,4039.176072,2.299,-88.809,165.958
14.696,128.182144,37.94841,4032.5439288000002,-4.265,-88.795,172.131
14.7127,128.182144,37.948408,4025.9078232,-11.147,-88.764,178.706
14.7294,128.182145,37.948405,4019.2677552000005,-17.937,-88.715,185.292
14.7461,128.182145,37.948403,4012.62342,-24.248,-88.647,191.518
14.7628,128.182145,37.948401,4005.9748176000003,-29.857,-88.564,197.174
14.7795,128.182145,37.948399,3999.3213384,-34.724,-88.468,202.226
14.7962,128.182145,37.948397,3992.6638968,-38.858,-88.362,206.686
14.8129,128.182145,37.948395,3986.0015784000007,-42.302,-88.248,210.6
14.8296,128.182146,37.948392,3979.3343832,-45.12,-88.13,214.029
14.8463,128.182146,37.94839,3972.6629208000004,-47.376,-88.01,217.038
14.863,128.182146,37.948388,3965.9871912000003,-48.95,-87.906,219.291
14.8797,128.182146,37.948386,3959.3074992,-49.958,-87.824,220.884
14.8964,128.182146,37.948384,3952.6238448,-50.571,-87.761,222.02
14.9131,128.182146,37.948382,3945.9365328000004,-50.865,-87.717,222.811
14.9298,128.182146,37.94838,3939.2455632,-50.857,-87.689,223.298
14.9465,128.182146,37.948378,3932.550936,-50.541,-87.678,223.491
14.9632,128.182146,37.948375,3925.8526512,-49.909,-87.683,223.384
14.9799,128.182146,37.948373,3919.1507088000003,-48.939,-87.704,222.952
14.9966,128.182146,37.948371,3912.4451088,-47.599,-87.74,222.161
15.0133,128.182146,37.948369,3905.736156,-45.855,-87.789,220.969
15.03,128.182146,37.948366,3899.0232408,-43.663,-87.852,219.325
15.0467,128.182146,37.948364,3892.3072776000004,-40.962,-87.925,217.164
15.0634,128.182146,37.948362,3885.5876568000003,-37.675,-88.007,214.398
15.0801,128.182146,37.948359,3878.8646832,-33.702,-88.093,210.926
15.0968,128.182146,37.948357,3872.1386616000004,-28.941,-88.179,206.636
15.1135,128.182146,37.948355,3865.4092872000006,-23.301,-88.258,201.433
15.1302,128.182145,37.948352,3858.6759504,-17.204,-88.319,195.928
15.1469,128.182145,37.94835,3851.938956,-10.733,-88.361,190.159
15.1636,128.182145,37.948347,3845.198304,-3.74,-88.385,183.88
15.1803,128.182145,37.948345,3838.4542992,3.758,-88.386,177.024
15.197,128.182145,37.948342,3831.7075512,11.555,-88.356,169.745
15.2137,128.182145,37.94834,3824.9577552000005,19.235,-88.294,162.419
15.2304,128.182145,37.948337,3818.2052160000003,26.261,-88.2,155.554
15.2471,128.182145,37.948335,3811.4502384,32.382,-88.08,149.388
15.2638,128.182144,37.948332,3804.6931272,37.531,-87.938,143.983
15.2805,128.182144,37.948329,3797.9341872000005,41.722,-87.778,139.322
15.2972,128.182144,37.948327,3791.1737232000005,45.027,-87.607,135.338
