Time,Longitude,Latitude,Altitude,Roll (deg),Pitch (deg),Yaw (deg)
0.0,128.181881,37.968463,7002.830292000001,0.0,-0.003,179.999
0.0167,128.181881,37.968418,7002.8116992000005,0.0,-0.012,180.0
0.0334,128.181881,37.968374,7002.793411200001,-0.087,-0.025,179.988
0.0501,128.181881,37.968329,7002.775428000001,-0.258,-0.041,179.965
0.0668,128.181881,37.968284,7002.7577496,-0.516,-0.059,179.935
0.0834,128.181881,37.968239,7002.7409856,-0.864,-0.076,179.902
0.1002,128.181881,37.968194,7002.725745600001,-1.3,-0.093,179.867
0.1169,128.181881,37.968149,7002.712029599999,-1.824,-0.107,179.832
0.1336,128.181881,37.968104,7002.700447200001,-2.432,-0.119,179.797
0.1503,128.181881,37.968059,7002.6909984,-3.122,-0.126,179.763
0.1669,128.181881,37.968014,7002.684292800001,-3.891,-0.128,179.73
0.1837,128.181881,37.967969,7002.6797208,-4.734,-0.125,179.697
0.2004,128.181881,37.967924,7002.677282400001,-5.649,-0.115,179.665
0.2171,128.181881,37.967879,7002.677282400001,-6.633,-0.098,179.633
0.2338,128.181881,37.967834,7002.6797208,-7.683,-0.074,179.6
0.2505,128.181881,37.967789,7002.684597600001,-8.794,-0.042,179.567
0.2672,128.181881,37.967744,7002.691608,-9.966,-0.002,179.533
0.2839,128.181881,37.967699,7002.7013615999995,-11.194,0.044,179.497
0.3006,128.181881,37.967654,7002.7135536000005,-12.477,0.1,179.46
0.3172,128.181881,37.967609,7002.7281840000005,-13.811,0.164,179.42
0.3339,128.181881,37.967564,7002.7455576,-15.193,0.236,179.378
0.3507,128.181881,37.967519,7002.7656744000005,-16.622,0.315,179.333
0.3674,128.181881,37.967474,7002.7885344,-18.095,0.402,179.284
0.3841,128.181882,37.967429,7002.814442400001,-19.61,0.496,179.231
0.4008,128.181882,37.967384,7002.8430935999995,-21.164,0.597,179.174
0.4175,128.181882,37.967339,7002.874792800001,-22.757,0.703,179.112
0.4342,128.181882,37.967294,7002.909540000001,-24.385,0.815,179.045
0.4509,128.181882,37.967249,7002.9473352,-26.048,0.931,178.972
0.4676,128.181883,37.967204,7002.988483200001,-27.744,1.051,178.894
0.4843,128.181883,37.967159,7003.032984000001,-29.472,1.173,178.81
0.501,128.181883,37.967114,7003.080532800001,-31.23,1.298,178.72
0.5176,128.181884,37.967069,7003.1317392,-33.018,1.424,178.625
0.5344,128.181884,37.967024,7003.1859936,-34.834,1.55,178.523
0.5511,128.181885,37.966979,7003.2439056,-36.678,1.676,178.415
0.5678,128.181885,37.966934,7003.305170400001,-38.548,1.8,178.302
0.5845,128.181886,37.966889,7003.369483200001,-40.445,1.922,178.184
0.6012,128.181887,37.966844,7003.4374536000005,-42.367,2.037,178.063
0.6179,128.181887,37.966799,7003.5081672,-44.314,2.145,177.941
0.6345,128.181888,37.966754,7003.582233600001,-46.285,2.243,177.82
0.6513,128.181889,37.966709,7003.659043199999,-48.281,2.331,177.701
0.6679,128.18189,37.966664,7003.737072,-50.115,2.41,177.605
0.6847,128.181891,37.966619,7003.816624800001,-51.793,2.473,177.543
0.7014,128.181892,37.966574,7003.897092000001,-53.315,2.509,177.523
0.7181,128.181893,37.966529,7003.9784736,-54.681,2.521,177.539
0.7348,128.181894,37.966484,7004.060160000001,-55.893,2.513,177.579
0.7514,128.181895,37.966439,7004.141846400001,-56.964,2.497,177.638
0.7682,128.181896,37.966394,7004.223532800001,-57.899,2.476,177.707
0.7848,128.181897,37.966349,7004.304609600001,-58.699,2.45,177.779
0.8016,128.181899,37.966304,7004.384772,-59.374,2.425,177.855
0.8183,128.1819,37.966259,7004.4637152000005,-59.932,2.403,177.932
0.835,128.181901,37.966214,7004.5414392,-60.375,2.382,178.008
0.8517,128.181903,37.966169,7004.6176392,-60.709,2.364,178.082
0.8684,128.181904,37.966124,7004.6917056,-60.938,2.348,178.155
0.8851,128.181905,37.966079,7004.7642479999995,-61.065,2.334,178.226
0.9018,128.181907,37.966034,7004.834047200001,-61.093,2.321,178.294
0.9185,128.181908,37.965988,7004.9020176,-61.031,2.309,178.358
0.9352,128.181909,37.965943,7004.9672448,-60.894,2.295,178.42
0.9519,128.181911,37.965898,7005.030948,-60.696,2.281,178.478
0.9686,128.181912,37.965853,7005.0925176,-60.446,2.266,178.534
0.9853,128.181913,37.965808,7005.1519536000005,-60.155,2.251,178.587
1.002,128.181915,37.965763,7005.209560800001,-59.827,2.235,178.637
1.0187,128.181916,37.965718,7005.2653392,-59.467,2.219,178.686
1.0353,128.181917,37.965672,7005.3189840000005,-59.077,2.203,178.732
1.0521,128.181919,37.965627,7005.370800000001,-58.66,2.186,178.777
1.0688,128.18192,37.965582,7005.420482400001,-58.216,2.169,178.82
1.0855,128.181922,37.965537,7005.4680312,-57.746,2.152,178.862
1.1022,128.181923,37.965491,7005.5134464,-57.25,2.135,178.903
1.1189,128.181924,37.965446,7005.5567280000005,-56.728,2.118,178.942
1.1356,128.181926,37.965401,7005.597876,-56.179,2.1,178.98
1.1522,128.181927,37.965356,7005.6368904,-55.602,2.083,179.018
1.169,128.181929,37.96531,7005.6734664,-54.996,2.066,179.055
1.1857,128.18193,37.965265,7005.7079088,-54.36,2.048,179.091
1.2024,128.181931,37.96522,7005.739608,-53.694,2.03,179.126
1.2191,128.181933,37.965174,7005.769173600001,-52.995,2.012,179.161
1.2358,128.181934,37.965129,7005.795996000001,-52.263,1.994,179.196
1.2525,128.181936,37.965084,7005.82038,-51.495,1.975,179.23
1.2691,128.181937,37.965038,7005.8423256,-50.691,1.956,179.265
1.2859,128.181938,37.964993,7005.861528,-49.85,1.937,179.299
1.3026,128.18194,37.964947,7005.877682400001,-48.968,1.917,179.332
1.3193,128.181941,37.964902,7005.8913984,-48.046,1.896,179.366
1.3359,128.181943,37.964856,7005.9020664,-47.081,1.875,179.4
1.3527,128.181944,37.964811,7005.9099912,-46.073,1.853,179.434
1.3694,128.181945,37.964765,7005.9145632,-45.018,1.83,179.469
1.386,128.181947,37.96472,7005.916696800001,-43.919,1.806,179.503
1.4028,128.181948,37.964674,7005.9154776000005,-42.775,1.781,179.537
1.4195,128.181949,37.964629,7005.9115152,-41.589,1.754,179.571
1.4362,128.18195,37.964583,7005.904504800001,-40.362,1.726,179.605
1.4528,128.181952,37.964538,7005.8947512,-39.096,1.696,179.639
1.4696,128.181953,37.964492,7005.881949600001,-37.793,1.665,179.672
1.4863,128.181954,37.964447,7005.8664048,-36.453,1.632,179.705
1.5029,128.181956,37.964401,7005.8481168,-35.078,1.597,179.738
1.5197,128.181957,37.964355,7005.8267808,-33.67,1.56,179.77
1.5364,128.181958,37.96431,7005.802396800001,-32.229,1.522,179.802
1.5531,128.181959,37.964264,7005.775269600001,-30.757,1.482,179.833
1.5697,128.181961,37.964218,7005.7453992,-29.255,1.44,179.864
1.5865,128.181962,37.964173,7005.7127856,-27.725,1.396,179.894
1.6032,128.181963,37.964127,7005.677428800001,-26.166,1.35,179.924
1.6198,128.181964,37.964081,7005.639024000001,-24.58,1.303,179.953
1.6366,128.181966,37.964035,7005.597876,-22.968,1.254,179.981
1.6533,128.181967,37.96399,7005.5542896,-21.33,1.203,180.008
1.67,128.181968,37.963944,7005.507655200001,-19.667,1.151,180.034
1.6867,128.181969,37.963898,7005.458277600001,-17.981,1.097,180.059
1.7034,128.181971,37.963852,7005.4064616,-16.271,1.041,180.083
1.7201,128.181972,37.963807,7005.351597600001,-14.539,0.984,180.106
1.7368,128.181973,37.963761,7005.2942952,-12.784,0.925,180.127
1.7535,128.181974,37.963715,7005.2342496,-11.008,0.864,180.148
1.7702,128.181975,37.963669,7005.171460800001,-9.21,0.803,180.166
1.7869,128.181977,37.963623,7005.1062336,-7.392,0.74,180.184
1.8036,128.181978,37.963577,7005.0382632,-5.553,0.675,180.199
1.8203,128.181979,37.963531,7004.9675496,-3.694,0.61,180.213
1.837,128.18198,37.963485,7004.894397600001,-1.816,0.543,180.226
1.8537,128.181981,37.963439,7004.8185023999995,0.08,0.476,180.236
1.8704,128.181983,37.963394,7004.739864,1.997,0.407,180.245
1.8871,128.181984,37.963348,7004.658787200001,3.932,0.338,180.252
1.9038,128.181985,37.963302,7004.5749672,5.885,0.268,180.257
1.9205,128.181986,37.963256,7004.4887088000005,7.857,0.197,180.26
1.9372,128.181987,37.96321,7004.400012,9.847,0.132,180.262
1.9539,128.181988,37.963164,7004.309181600001,11.854,0.077,180.264
1.9706,128.18199,37.963117,7004.215608,13.88,0.039,180.268
1.9873,128.181991,37.963071,7004.1202056,15.922,0.019,180.275
2.004,128.181992,37.963025,7004.022974400001,17.982,0.018,180.287
2.0207,128.181993,37.962979,7003.9236096,20.059,0.036,180.306
2.0374,128.181994,37.962933,7003.8227208,22.152,0.073,180.331
2.0541,128.181995,37.962887,7003.7200032,24.261,0.126,180.365
2.0707,128.181997,37.962841,7003.6163712,26.386,0.195,180.408
2.0875,128.181998,37.962795,7003.511215200001,28.525,0.278,180.46
2.1042,128.181999,37.962749,7003.4051448,30.679,0.371,180.523
2.1208,128.182,37.962702,7003.29816,32.848,0.474,180.596
2.1376,128.182001,37.962656,7003.190565600001,35.031,0.584,180.679
2.1543,128.182002,37.96261,7003.0829712,37.222,0.699,180.773
2.171,128.182003,37.962564,7002.975986400001,39.41,0.818,180.876
2.1877,128.182004,37.962518,7002.869306400001,41.589,0.94,180.988
2.2044,128.182005,37.962471,7002.763236000001,43.751,1.062,181.109
2.2211,128.182006,37.962425,7002.6583848,45.89,1.183,181.238
2.2378,128.182007,37.962379,7002.553838400001,47.862,1.304,181.354
2.2544,128.182008,37.962333,7002.450511200001,49.666,1.411,181.448
2.2712,128.182009,37.962286,7002.3480984,51.309,1.495,181.508
2.2879,128.182009,37.96224,7002.2469048,52.793,1.547,181.525
2.3045,128.18201,37.962194,7002.1466256,54.12,1.558,181.488
2.3213,128.182011,37.962148,7002.047565600001,55.296,1.537,181.41
2.338,128.182011,37.962101,7001.949724800001,56.327,1.495,181.304
2.3546,128.182012,37.962055,7001.8531032,57.221,1.442,181.182
2.3714,128.182012,37.962009,7001.757700800001,57.983,1.384,181.055
2.3881,128.182013,37.961962,7001.6635176,58.622,1.328,180.929
2.4048,128.182013,37.961916,7001.5705536000005,59.144,1.273,180.806
2.4215,128.182013,37.96187,7001.4788088000005,59.553,1.223,180.688
2.4382,128.182014,37.961823,7001.388283200001,59.855,1.177,180.577
2.4549,128.182014,37.961777,7001.298976800001,60.053,1.135,180.473
2.4716,128.182014,37.961731,7001.2105848,60.152,1.097,180.375
2.4882,128.182014,37.961684,7001.123412,60.156,1.063,180.285
2.505,128.182014,37.961638,7001.0368488,60.069,1.032,180.202
2.5217,128.182014,37.961592,7000.9515048,59.894,1.004,180.125
2.5383,128.182013,37.961545,7000.866465600001,59.635,0.978,180.054
2.5551,128.182013,37.961499,7000.7823408,59.295,0.955,179.989
2.5718,128.182013,37.961453,7000.6988255999995,58.879,0.934,179.93
2.5884,128.182012,37.961406,7000.6156152,58.389,0.915,179.875
2.6052,128.182012,37.96136,7000.533319200001,57.829,0.898,179.826
2.6219,128.182012,37.961314,7000.451632800001,57.201,0.882,179.78
2.6386,128.182011,37.961267,7000.370556000001,56.509,0.867,179.739
2.6553,128.182011,37.961221,7000.2900887999995,55.755,0.853,179.701
2.6719,128.18201,37.961174,7000.2099264,54.942,0.84,179.666
2.6887,128.182009,37.961128,7000.130678400001,54.074,0.827,179.635
2.7054,128.182009,37.961082,7000.0520400000005,53.152,0.815,179.606
2.722,128.182008,37.961035,6999.974316,52.179,0.804,179.579
2.7388,128.182007,37.960989,6999.896896800001,51.158,0.792,179.555
2.7555,128.182006,37.960943,6999.8206968,50.091,0.781,179.533
2.7721,128.182006,37.960896,6999.744801600001,48.979,0.77,179.512
2.7889,128.182005,37.96085,6999.6701256,47.825,0.759,179.493
2.8056,128.182004,37.960803,6999.596364,46.632,0.748,179.475
2.8222,128.182003,37.960757,6999.5235168,45.4,0.737,179.459
2.839,128.182002,37.960711,6999.4518888,44.132,0.726,179.444
2.8557,128.182001,37.960664,6999.3811752,42.829,0.714,179.429
2.8724,128.182,37.960618,6999.3116808,41.493,0.702,179.416
2.8891,128.181999,37.960571,6999.2434056,40.126,0.689,179.403
2.9057,128.181998,37.960525,6999.1763496,38.729,0.676,179.392
2.9225,128.181996,37.960478,6999.1108176,37.303,0.662,179.38
2.9392,128.181995,37.960432,6999.046504800001,35.851,0.648,179.37
2.9558,128.181994,37.960386,6998.9840208,34.373,0.633,179.36
2.9726,128.181993,37.960339,6998.922756000001,32.87,0.617,179.351
2.9893,128.181992,37.960293,6998.863624800001,31.344,0.601,179.342
3.0059,128.18199,37.960246,6998.8057128,29.796,0.584,179.333
3.0227,128.181989,37.9602,6998.7499344,28.226,0.567,179.325
3.0394,128.181988,37.960153,6998.6959848,26.637,0.548,179.318
3.056,128.181986,37.960107,6998.643864000001,25.029,0.529,179.311
3.0728,128.181985,37.96006,6998.593572,23.402,0.509,179.305
3.0895,128.181983,37.960014,6998.545718400001,21.758,0.488,179.299
3.1062,128.181982,37.959967,6998.4996936,20.097,0.466,179.293
3.1229,128.181981,37.959921,6998.4561072,18.421,0.444,179.289
3.1395,128.181979,37.959874,6998.414349600001,16.73,0.421,179.284
3.1563,128.181978,37.959828,6998.3750304,15.023,0.397,179.281
3.173,128.181976,37.959781,6998.3381496,13.303,0.372,179.278
3.1896,128.181975,37.959735,6998.3037072,11.57,0.346,179.275
3.2064,128.181973,37.959688,6998.2713984,9.823,0.32,179.273
3.2231,128.181972,37.959642,6998.2415280000005,8.064,0.293,179.272
3.2397,128.18197,37.959595,6998.2144008000005,6.293,0.265,179.272
3.2565,128.181969,37.959549,6998.1894072,4.509,0.237,179.272
3.2732,128.181967,37.959502,6998.167156800001,2.714,0.208,179.273
3.2899,128.181966,37.959456,6998.14704,0.908,0.178,179.275
3.3066,128.181964,37.959409,6998.1299712,-0.908,0.148,179.278
3.3233,128.181963,37.959363,6998.115036,-2.735,0.117,179.281
3.34,128.181961,37.959316,6998.1025392,-4.573,0.086,179.285
3.3567,128.18196,37.95927,6998.0927856,-6.422,0.055,179.291
3.3734,128.181959,37.959223,6998.085470400001,-8.28,0.03,179.296
3.3901,128.181957,37.959177,6998.0808984,-10.149,0.016,179.3
3.4068,128.181956,37.95913,6998.0790696,-12.027,0.016,179.302
3.4235,128.181954,37.959083,6998.0802888,-13.915,0.033,179.301
3.4402,128.181953,37.959037,6998.0821176,-15.628,0.058,179.321
3.4569,128.181952,37.95899,6998.0857752,-17.172,0.076,179.365
3.4736,128.18195,37.958944,6998.090347200001,-18.54,0.084,179.427
3.4903,128.181949,37.958897,6998.0955288000005,-19.73,0.082,179.499
3.507,128.181948,37.95885,6998.101320000001,-20.742,0.073,179.575
3.5237,128.181946,37.958804,6998.107416,-21.58,0.06,179.651
3.5404,128.181945,37.958757,6998.1132072,-22.251,0.045,179.727
3.5571,128.181944,37.958711,6998.1183888,-22.762,0.03,179.801
3.5738,128.181943,37.958664,6998.1226560000005,-23.12,0.014,179.873
3.5905,128.181941,37.958617,6998.125704,-23.332,0.0,179.943
3.6072,128.18194,37.958571,6998.127228,-23.405,-0.015,180.011
3.6239,128.181939,37.958524,6998.1269232,-23.346,-0.029,180.076
3.6406,128.181938,37.958477,6998.12418,-23.16,-0.043,180.14
3.6573,128.181937,37.958431,6998.1189984,-22.854,-0.056,180.201
3.674,128.181935,37.958384,6998.1107688,-22.432,-0.069,180.26
3.6907,128.181934,37.958337,6998.099491200001,-21.9,-0.081,180.318
3.7074,128.181933,37.95829,6998.084556000001,-21.264,-0.095,180.374
3.7241,128.181932,37.958244,6998.065963200001,-20.527,-0.108,180.428
3.7408,128.181931,37.958197,6998.0440176,-19.695,-0.123,180.48
3.7575,128.181929,37.95815,6998.0184144,-18.773,-0.138,180.531
3.7742,128.181928,37.958103,6997.9891536000005,-17.764,-0.153,180.58
3.7909,128.181927,37.958056,6997.95654,-16.672,-0.17,180.628
3.8076,128.181926,37.958009,6997.9205736,-15.502,-0.187,180.675
3.8243,128.181925,37.957963,6997.8806448000005,-14.256,-0.206,180.72
3.841,128.181923,37.957916,6997.8373632,-12.94,-0.226,180.763
3.8577,128.181922,37.957869,6997.790728800001,-11.555,-0.247,180.805
3.8744,128.181921,37.957822,6997.740132000001,-10.105,-0.269,180.846
3.8911,128.18192,37.957775,6997.686182400001,-8.594,-0.292,180.885
3.9078,128.181918,37.957728,6997.62888,-7.024,-0.317,180.923
3.9245,128.181917,37.957681,6997.567615200001,-5.398,-0.343,180.959
3.9412,128.181916,37.957634,6997.5029976000005,-3.718,-0.37,180.994
3.9579,128.181915,37.957587,6997.4350272,-1.988,-0.398,181.028
3.9746,128.181914,37.95754,6997.3633992000005,-0.209,-0.428,181.059
3.9913,128.181912,37.957493,6997.2881136000005,1.615,-0.459,181.09
4.008,128.181911,37.957446,6997.2094752,3.485,-0.49,181.118
4.0247,128.18191,37.957399,6997.127484000001,5.396,-0.515,181.146
4.0414,128.181909,37.957351,6997.0421400000005,7.347,-0.529,181.174
4.058,128.181908,37.957304,6996.953748,9.337,-0.528,181.202
4.0748,128.181906,37.957257,6996.8626128000005,11.363,-0.51,181.233
4.0915,128.181905,37.95721,6996.7684296,13.424,-0.474,181.267
4.1082,128.181904,37.957163,6996.671808,15.517,-0.421,181.306
4.1249,128.181903,37.957116,6996.572748,17.641,-0.351,181.35
4.1415,128.181902,37.957069,6996.4712496,19.795,-0.266,181.402
4.1583,128.1819,37.957021,6996.3676176,21.975,-0.167,181.461
4.175,128.181899,37.956974,6996.2624616,24.182,-0.057,181.528
4.1917,128.181898,37.956927,6996.1554768000005,26.412,0.061,181.604
4.2084,128.181897,37.95688,6996.0472728,28.666,0.188,181.689
4.2251,128.181895,37.956832,6995.9375448,30.942,0.32,181.783
4.2417,128.181894,37.956785,6995.8272072,33.237,0.453,181.886
4.2585,128.181893,37.956738,6995.716564800001,35.542,0.584,181.994
4.2752,128.181892,37.95669,6995.6056176,37.847,0.709,182.106
4.2919,128.18189,37.956643,6995.494670400001,40.147,0.826,182.219
4.3086,128.181889,37.956596,6995.384028,42.437,0.932,182.331
4.3252,128.181888,37.956548,6995.2733856,44.713,1.025,182.44
4.342,128.181887,37.956501,6995.163047999999,46.976,1.103,182.543
4.3587,128.181885,37.956454,6995.0527104,49.226,1.165,182.64
4.3754,128.181884,37.956406,6994.9423728,51.468,1.211,182.729
4.3921,128.181882,37.956359,6994.8317304,53.707,1.24,182.806
4.4088,128.181881,37.956311,6994.7207832,55.951,1.252,182.872
4.4254,128.181879,37.956264,6994.6086168,58.211,1.248,182.924
4.4422,128.181878,37.956216,6994.495536,60.501,1.228,182.959
4.4589,128.181876,37.956169,6994.3815408,62.821,1.192,182.977
4.4756,128.181875,37.956121,6994.2660216,65.174,1.143,182.975
4.4923,128.181873,37.956074,6994.148064000001,67.357,1.091,182.936
4.5089,128.181872,37.956026,6994.029192000001,69.379,1.041,182.866
4.5256,128.18187,37.955979,6993.9091008000005,71.241,0.995,182.779
4.5424,128.181868,37.955931,6993.7874856,72.942,0.951,182.683
4.5591,128.181867,37.955884,6993.6649560000005,74.486,0.91,182.586
4.5758,128.181865,37.955836,6993.540597600001,75.886,0.877,182.489
4.5925,128.181863,37.955789,6993.41502,77.146,0.85,182.397
4.6091,128.181861,37.955741,6993.2882232,78.264,0.826,182.31
4.6259,128.18186,37.955693,6993.159597600001,79.253,0.807,182.23
4.6426,128.181858,37.955646,6993.0297528,80.118,0.794,182.156
4.6593,128.181856,37.955598,6992.898384000001,80.861,0.785,182.088
4.676,128.181854,37.955551,6992.765796000001,81.486,0.778,182.026
4.6927,128.181852,37.955503,6992.631684000001,81.996,0.773,181.971
4.7093,128.18185,37.955455,6992.496048,82.396,0.768,181.922
4.7261,128.181848,37.955408,6992.359497600001,82.718,0.761,181.88
4.7428,128.181845,37.95536,6992.221118400001,82.988,0.748,181.843
4.7595,128.181843,37.955312,6992.081520000001,83.23,0.73,181.812
4.7762,128.181841,37.955265,6991.9400928000005,83.46,0.705,181.785
4.7928,128.181839,37.955217,6991.797141600001,83.69,0.677,181.762
4.8096,128.181836,37.955169,6991.6520568000005,83.926,0.646,181.743
4.8263,128.181834,37.955122,6991.5051432,84.171,0.614,181.727
4.843,128.181832,37.955074,6991.3564008,84.427,0.581,181.713
4.8597,128.18183,37.955026,6991.205524800001,84.691,0.55,181.701
4.8764,128.181827,37.954978,6991.052820000001,84.961,0.519,181.692
4.893,128.181825,37.954931,6990.898896000001,85.348,0.477,181.685
4.9098,128.181822,37.954883,6990.743143199999,85.848,0.424,181.681
4.9265,128.18182,37.954835,6990.584952000001,86.464,0.364,181.679
4.9432,128.181818,37.954787,6990.4246272,87.197,0.302,181.678
4.9599,128.181815,37.95474,6990.262168800001,88.045,0.24,181.677
4.9765,128.181813,37.954692,6990.097272,88.999,0.179,181.678
4.9932,128.18181,37.954644,6989.930241600001,90.044,0.121,181.678
5.01,128.181808,37.954596,6989.7607728,91.164,0.066,181.678
5.0267,128.181806,37.954549,6989.5891704000005,92.346,0.013,181.679
5.0434,128.181803,37.954501,6989.4154344,93.583,-0.035,181.68
5.0601,128.181801,37.954453,6989.23926,94.866,-0.083,181.681
5.0767,128.181799,37.954405,6989.061256800001,96.192,-0.129,181.683
5.0935,128.181796,37.954357,6988.880815200001,97.557,-0.175,181.684
5.1102,128.181794,37.954309,6988.69824,98.96,-0.219,181.685
5.1269,128.181792,37.954262,6988.513836,100.4,-0.263,181.687
5.1436,128.18179,37.954214,6988.3272984,101.876,-0.307,181.688
5.1602,128.181787,37.954166,6988.1383224,103.388,-0.351,181.689
5.1769,128.181785,37.954118,6987.9478224,104.938,-0.394,181.69
5.1937,128.181783,37.95407,6987.7551888,106.525,-0.438,181.691
5.2104,128.18178,37.954022,6987.5607264,108.153,-0.481,181.691
5.2271,128.181778,37.953974,6987.3641304,109.82,-0.525,181.691
5.2438,128.181776,37.953926,6987.1660104,111.529,-0.568,181.691
5.2604,128.181774,37.953878,6986.9660616,113.28,-0.611,181.689
5.2772,128.181772,37.953831,6986.7645888,115.075,-0.654,181.688
5.2939,128.181769,37.953783,6986.561592000001,116.915,-0.698,181.685
5.3106,128.181767,37.953735,6986.3570712,118.802,-0.74,181.682
5.3273,128.181765,37.953687,6986.1510264,120.735,-0.783,181.677
5.3439,128.181763,37.953639,6985.9437624,122.716,-0.826,181.672
5.3606,128.181761,37.953591,6985.735279200001,124.745,-0.867,181.666
5.3774,128.181759,37.953543,6985.5258816000005,126.823,-0.909,181.659
5.3941,128.181757,37.953495,6985.3152648000005,128.951,-0.95,181.65
5.4108,128.181755,37.953447,6985.103733600001,131.128,-0.99,181.641
5.4275,128.181753,37.953399,6984.891288000001,133.351,-1.029,181.63
5.4441,128.181751,37.953351,6984.6776232,135.619,-1.068,181.619
5.4609,128.181749,37.953302,6984.4636536,137.929,-1.105,181.606
5.4776,128.181747,37.953254,6984.248464800001,140.278,-1.141,181.593
5.4943,128.181745,37.953206,6984.0329712,142.664,-1.175,181.579
5.511,128.181743,37.953158,6983.8162584,145.085,-1.208,181.565
5.5277,128.181741,37.95311,6983.5992408,147.539,-1.24,181.549
5.5443,128.181739,37.953062,6983.3816136000005,150.023,-1.27,181.533
5.5611,128.181737,37.953014,6983.163072,152.536,-1.299,181.516
5.5778,128.181735,37.952966,6982.9442256,155.076,-1.326,181.499
5.5945,128.181733,37.952918,6982.7247696,157.64,-1.352,181.481
5.6112,128.181731,37.952869,6982.504704,160.228,-1.376,181.462
5.6278,128.181729,37.952821,6982.284028800001,162.837,-1.398,181.444
5.6445,128.181727,37.952773,6982.0630488,165.465,-1.419,181.424
5.6613,128.181725,37.952725,6981.8411544,168.111,-1.438,181.405
5.678,128.181723,37.952677,6981.6189552000005,170.774,-1.455,181.385
5.6947,128.181722,37.952628,6981.3961464,173.451,-1.471,181.365
5.7114,128.18172,37.95258,6981.172423200001,176.142,-1.485,181.345
5.728,128.181718,37.952532,6980.9480904,178.844,-1.504,181.326
5.7448,128.181716,37.952484,6980.7228432,-178.441,-1.536,181.307
5.7615,128.181714,37.952435,6980.496376800001,-175.719,-1.584,181.286
5.7782,128.181712,37.952387,6980.2683864,-172.988,-1.652,181.264
5.7949,128.18171,37.952339,6980.038872,-170.251,-1.74,181.236
5.8115,128.181708,37.95229,6979.807528800001,-167.511,-1.849,181.203
5.8282,128.181706,37.952242,6979.573442400001,-164.781,-1.977,181.163
5.845,128.181705,37.952194,6979.3360032,-162.071,-2.123,181.115
5.8617,128.181703,37.952145,6979.094906400001,-159.394,-2.285,181.058
5.8784,128.181701,37.952097,6978.849542400001,-156.757,-2.461,180.99
5.8951,128.181699,37.952049,6978.599911200001,-154.167,-2.648,180.911
5.9117,128.181697,37.952,6978.3450984,-151.63,-2.841,180.821
5.9285,128.181695,37.951952,6978.0857136,-149.146,-3.039,180.719
5.9452,128.181693,37.951904,6977.8205376000005,-146.717,-3.237,180.606
5.9619,128.181691,37.951855,6977.55018,-144.341,-3.432,180.483
5.9786,128.18169,37.951807,6977.2737264,-142.019,-3.623,180.351
5.9952,128.181688,37.951759,6976.9917864,-139.747,-3.809,180.21
6.0119,128.181686,37.95171,6976.703750400001,-137.524,-3.987,180.062
6.0287,128.181684,37.951662,6976.4096184,-135.346,-4.157,179.908
6.0454,128.181683,37.951613,6976.1090856,-133.213,-4.318,179.748
6.0621,128.181681,37.951565,6975.8027616,-131.121,-4.47,179.583
6.0788,128.181679,37.951517,6975.489732,-129.069,-4.612,179.415
6.0954,128.181678,37.951468,6975.170606400001,-127.056,-4.745,179.244
6.1121,128.181676,37.95142,6974.84508,-125.08,-4.869,179.07
6.1289,128.181675,37.951371,6974.5131528,-123.142,-4.983,178.895
6.1456,128.181673,37.951323,6974.1751296,-121.242,-5.089,178.716
6.1623,128.181672,37.951275,6973.8304008000005,-119.379,-5.188,178.535
6.179,128.181671,37.951226,6973.479576,-117.554,-5.279,178.352
6.1956,128.18167,37.951178,6973.122655200001,-115.768,-5.362,178.167
6.2124,128.181668,37.951129,6972.759638400001,-114.022,-5.438,177.981
6.2291,128.181667,37.951081,6972.3905256,-112.314,-5.506,177.793
6.2458,128.181666,37.951033,6972.0156216000005,-110.646,-5.568,177.606
6.2625,128.181665,37.950984,6971.6346216,-109.018,-5.622,177.418
6.2791,128.181665,37.950936,6971.2481352,-107.432,-5.67,177.229
6.2958,128.181664,37.950887,6970.8561624,-105.887,-5.711,177.041
6.3126,128.181663,37.950839,6970.4587032,-104.383,-5.746,176.853
6.3293,128.181663,37.95079,6970.0563672,-102.923,-5.775,176.665
6.346,128.181662,37.950742,6969.6485448,-101.506,-5.798,176.477
6.3627,128.181662,37.950694,6969.2361504,-100.134,-5.816,176.288
6.3793,128.181662,37.950645,6968.818879200001,-98.807,-5.829,176.098
6.3961,128.181662,37.950597,6968.397036,-97.526,-5.837,175.909
6.4128,128.181662,37.950548,6967.9706208,-96.291,-5.84,175.72
6.4295,128.181662,37.9505,6967.5402432,-95.103,-5.839,175.53
6.4462,128.181662,37.950452,6967.1059032,-93.961,-5.833,175.342
6.4628,128.181662,37.950403,6966.6676008,-92.864,-5.822,175.156
6.4795,128.181663,37.950355,6966.2256408,-91.813,-5.808,174.972
6.4963,128.181663,37.950306,6965.780328000001,-90.808,-5.789,174.788
6.513,128.181664,37.950258,6965.3316624,-89.849,-5.767,174.606
6.5297,128.181665,37.95021,6964.8799488,-88.935,-5.741,174.426
6.5464,128.181665,37.950161,6964.4251872,-88.066,-5.712,174.247
6.5631,128.181666,37.950113,6963.967682400001,-87.24,-5.68,174.074
6.5798,128.181668,37.950065,6963.5074343999995,-86.456,-5.646,173.904
6.5965,128.181669,37.950016,6963.0444431999995,-85.713,-5.609,173.739
6.6132,128.18167,37.949968,6962.5796232,-85.012,-5.569,173.577
6.6299,128.181672,37.94992,6962.1123648,-84.352,-5.528,173.417
6.6466,128.181673,37.949871,6961.6429728,-83.733,-5.485,173.259
6.6633,128.181675,37.949823,6961.1714472,-83.081,-5.435,173.1
6.68,128.181677,37.949775,6960.697788,-82.405,-5.379,172.94
6.6967,128.181679,37.949726,6960.2226048,-81.725,-5.32,172.778
6.7134,128.181681,37.949678,6959.745897600001,-81.055,-5.261,172.616
6.7301,128.181683,37.94963,6959.268276,-80.413,-5.202,172.451
6.7468,128.181686,37.949581,6958.7891304,-79.808,-5.145,172.287
6.7635,128.181688,37.949533,6958.3093751999995,-79.252,-5.09,172.123
6.7802,128.181691,37.949485,6957.829010400001,-78.749,-5.035,171.958
6.7969,128.181694,37.949436,6957.348036,-78.302,-4.982,171.791
6.8136,128.181697,37.949388,6956.866452000001,-77.909,-4.93,171.621
6.8303,128.1817,37.94934,6956.3845632,-77.565,-4.878,171.449
6.847,128.181703,37.949292,6955.9023696,-77.262,-4.828,171.274
6.8637,128.181706,37.949243,6955.4198712,-76.995,-4.782,171.103
6.8804,128.18171,37.949195,6954.937068,-76.763,-4.74,170.94
6.8971,128.181713,37.949147,6954.453960000001,-76.569,-4.702,170.789
6.9138,128.181717,37.949099,6953.970852000001,-76.416,-4.669,170.648
6.9305,128.181721,37.949051,6953.487744,-76.31,-4.64,170.52
6.9472,128.181725,37.949002,6953.004636000001,-76.256,-4.615,170.405
6.9639,128.181729,37.948954,6952.521832800001,-76.261,-4.595,170.301
6.9806,128.181734,37.948906,6952.0390296,-76.329,-4.578,170.203
6.9973,128.181738,37.948858,6951.5565312,-76.467,-4.564,170.112
7.014,128.181743,37.94881,6951.0740328,-76.679,-4.553,170.023
7.0307,128.181747,37.948762,6950.5918392,-76.965,-4.544,169.933
7.0474,128.181752,37.948714,6950.1096456000005,-77.326,-4.537,169.84
7.0641,128.181757,37.948665,6949.6277568000005,-77.763,-4.53,169.743
7.0808,128.181763,37.948617,6949.145563200001,-78.271,-4.524,169.642
7.0975,128.181768,37.948569,6948.663064800001,-78.846,-4.518,169.534
7.1142,128.181774,37.948521,6948.1802615999995,-79.487,-4.514,169.422
7.1309,128.181779,37.948473,6947.6971536,-80.189,-4.51,169.306
7.1476,128.181785,37.948425,6947.2131312,-80.943,-4.507,169.184
7.1643,128.181791,37.948377,6946.7284992,-81.745,-4.505,169.056
7.181,128.181797,37.948329,6946.2426479999995,-82.585,-4.504,168.921
7.1977,128.181804,37.948281,6945.755577600001,-83.459,-4.504,168.779
7.2144,128.18181,37.948233,6945.267288000001,-84.363,-4.506,168.632
7.2311,128.181816,37.948185,6944.777474400001,-85.288,-4.51,168.479
7.2478,128.181823,37.948137,6944.2861368,-86.23,-4.517,168.321
7.2645,128.18183,37.94809,6943.792665600001,-87.178,-4.525,168.154
7.2812,128.181837,37.948042,6943.2970608000005,-88.13,-4.536,167.981
7.2979,128.181844,37.947994,6942.7996272,-89.084,-4.55,167.802
7.3146,128.181851,37.947946,6942.299450400001,-90.028,-4.567,167.616
7.3313,128.181859,37.947898,6941.7968352,-90.963,-4.588,167.423
7.348,128.181866,37.94785,6941.2914768,-91.886,-4.613,167.226
7.3647,128.181874,37.947802,6940.7833752,-92.795,-4.642,167.024
7.3814,128.181881,37.947755,6940.2722256,-93.681,-4.677,166.816
7.3981,128.181889,37.947707,6939.758028,-94.553,-4.716,166.604
7.4148,128.181897,37.947659,6939.2404776,-95.401,-4.76,166.387
7.4315,128.181905,37.947611,6938.719269600001,-96.224,-4.808,166.162
7.4482,128.181914,37.947564,6938.194404,-97.023,-4.862,165.933
7.4649,128.181922,37.947516,6937.6658808,-97.796,-4.919,165.701
7.4816,128.181931,37.947468,6937.133090400001,-98.536,-4.981,165.469
7.4983,128.181939,37.947421,6936.596642400001,-99.25,-5.046,165.241
7.515,128.181948,37.947373,6936.0556224,-99.931,-5.114,165.017
7.5317,128.181957,37.947325,6935.5103352,-100.578,-5.185,164.799
7.5484,128.181966,37.947278,6934.9607808,-101.199,-5.258,164.587
7.5651,128.181976,37.94723,6934.4063496,-101.788,-5.334,164.381
7.5818,128.181985,37.947183,6933.847346400001,-102.343,-5.412,164.18
7.5985,128.181994,37.947135,6933.2834664,-102.865,-5.492,163.984
7.6152,128.182004,37.947088,6932.715014400001,-103.355,-5.573,163.794
7.6319,128.182014,37.94704,6932.141076,-103.817,-5.657,163.608
7.6486,128.182024,37.946993,6931.5619560000005,-104.251,-5.74,163.426
7.6653,128.182034,37.946945,6930.977654400001,-104.661,-5.824,163.248
7.682,128.182044,37.946898,6930.3878664,-105.042,-5.907,163.073
7.6987,128.182054,37.94685,6929.792896800001,-105.396,-5.99,162.902
7.7154,128.182065,37.946803,6929.192136000001,-105.726,-6.075,162.733
7.7321,128.182075,37.946756,6928.5861936,-106.03,-6.159,162.568
7.7488,128.182086,37.946708,6927.9741552000005,-106.312,-6.245,162.406
7.7655,128.182097,37.946661,6927.3566304,-106.574,-6.331,162.246
7.7822,128.182108,37.946614,6926.7333144,-106.817,-6.418,162.089
7.7989,128.182119,37.946567,6926.1042072,-107.042,-6.505,161.935
7.8156,128.18213,37.946519,6925.4690040000005,-107.253,-6.593,161.782
7.8323,128.182142,37.946472,6924.828009600001,-107.45,-6.681,161.632
7.849,128.182153,37.946425,6924.181224000001,-107.635,-6.77,161.483
7.8657,128.182165,37.946378,6923.528037600001,-107.81,-6.859,161.335
7.8824,128.182177,37.946331,6922.869060000001,-107.976,-6.949,161.189
7.8991,128.182189,37.946284,6922.203986400001,-108.133,-7.039,161.045
7.9158,128.182201,37.946237,6921.5328168,-108.283,-7.129,160.901
7.9325,128.182213,37.94619,6920.8552464,-108.427,-7.219,160.759
7.9492,128.182225,37.946143,6920.17158,-108.564,-7.309,160.617
7.9659,128.182238,37.946096,6919.4818176,-108.697,-7.4,160.477
7.9826,128.182251,37.946049,6918.785654400001,-108.825,-7.491,160.337
7.9993,128.182263,37.946003,6918.0833952,-108.949,-7.582,160.199
8.016,128.182276,37.945956,6917.3744304,-109.07,-7.673,160.061
8.0327,128.182289,37.945909,6916.659369600001,-109.187,-7.764,159.923
8.0494,128.182302,37.945863,6915.937908,-109.302,-7.855,159.786
8.0661,128.182316,37.945816,6915.210045600001,-109.415,-7.947,159.65
8.0828,128.182329,37.945769,6914.475782400001,-109.525,-8.039,159.515
8.0994,128.182343,37.945723,6913.7348136,-109.633,-8.13,159.38
8.1161,128.182356,37.945676,6912.987444,-109.74,-8.222,159.245
8.1329,128.18237,37.94563,6912.233673600001,-109.845,-8.314,159.111
8.1496,128.182384,37.945584,6911.4735024,-109.949,-8.406,158.977
8.1663,128.182398,37.945537,6910.7066256,-110.051,-8.498,158.843
8.183,128.182412,37.945491,6909.9330432,-110.153,-8.59,158.71
8.1997,128.182427,37.945445,6909.153060000001,-110.254,-8.683,158.577
8.2164,128.182441,37.945398,6908.3660664,-110.354,-8.775,158.445
8.2331,128.182456,37.945352,6907.5729768,-110.453,-8.868,158.312
8.2498,128.182471,37.945306,6906.772876800001,-110.553,-8.961,158.18
8.2665,128.182485,37.94526,6905.9660711999995,-110.651,-9.054,158.048
8.2831,128.1825,37.945214,6905.15256,-110.749,-9.147,157.917
8.2998,128.182516,37.945168,6904.3323432,-110.846,-9.24,157.785
8.3166,128.182531,37.945122,6903.5054208,-110.942,-9.333,157.654
8.3333,128.182546,37.945076,6902.671792800001,-111.038,-9.427,157.522
8.35,128.182562,37.94503,6901.831154400001,-111.134,-9.52,157.391
8.3667,128.182577,37.944985,6900.9835056,-111.229,-9.614,157.261
8.3834,128.182593,37.944939,6900.129151200001,-111.324,-9.708,157.13
8.4001,128.182609,37.944893,6899.267786400001,-111.418,-9.802,157.0
8.4168,128.182625,37.944847,6898.399411200001,-111.512,-9.896,156.87
8.4335,128.182641,37.944802,6897.5240256,-111.606,-9.99,156.74
8.4502,128.182658,37.944756,6896.6416296,-111.7,-10.084,156.611
8.4668,128.182674,37.944711,6895.7522232,-111.794,-10.178,156.481
8.4835,128.182691,37.944665,6894.855501600001,-111.888,-10.273,156.351
8.5003,128.182707,37.94462,6893.952074400001,-111.982,-10.368,156.222
8.517,128.182724,37.944574,6893.041332000001,-112.077,-10.463,156.092
8.5337,128.182741,37.944529,6892.123579200001,-112.171,-10.559,155.963
8.5504,128.182758,37.944484,6891.198511200001,-112.266,-10.654,155.833
8.5671,128.182775,37.944438,6890.266128,-112.36,-10.75,155.703
8.5838,128.182793,37.944393,6889.3270391999995,-112.454,-10.846,155.573
8.6005,128.18281,37.944348,6888.3803304,-112.548,-10.942,155.444
8.6172,128.182828,37.944303,6887.4266112000005,-112.642,-11.039,155.314
8.6339,128.182845,37.944258,6886.465272,-112.737,-11.135,155.184
8.6505,128.182863,37.944213,6885.496922400001,-112.831,-11.232,155.054
8.6672,128.182881,37.944168,6884.5212576,-112.926,-11.329,154.925
8.684,128.182899,37.944123,6883.538277600001,-113.021,-11.426,154.795
8.7007,128.182917,37.944078,6882.5479824,-113.116,-11.524,154.665
8.7174,128.182936,37.944033,6881.5500672,-113.211,-11.621,154.535
8.7341,128.182954,37.943988,6880.5451416000005,-113.306,-11.719,154.406
8.7508,128.182973,37.943943,6879.5322912,-113.402,-11.817,154.276
8.7675,128.182992,37.943899,6878.5124304,-113.497,-11.916,154.146
8.7842,128.18301,37.943854,6877.484949600001,-113.593,-12.014,154.016
8.8009,128.183029,37.943809,6876.4501536,-113.689,-12.113,153.887
8.8176,128.183049,37.943765,6875.407432800001,-113.785,-12.212,153.757
8.8342,128.183068,37.94372,6874.357396800001,-113.882,-12.311,153.628
8.8509,128.183087,37.943676,6873.3000456,-113.978,-12.41,153.498
8.8676,128.183107,37.943632,6872.234769600001,-114.075,-12.51,153.368
8.8844,128.183126,37.943587,6871.162178400001,-114.172,-12.609,153.239
8.9011,128.183146,37.943543,6870.0816624,-114.269,-12.709,153.109
8.9178,128.183166,37.943499,6868.9938312,-114.366,-12.809,152.98
8.9345,128.183186,37.943454,6867.8980752,-114.463,-12.91,152.851
8.9512,128.183206,37.94341,6866.7950040000005,-114.56,-13.01,152.721
8.9679,128.183226,37.943366,6865.684008,-114.657,-13.111,152.592
8.9846,128.183246,37.943322,6864.565087200001,-114.754,-13.212,152.462
9.0013,128.183267,37.943278,6863.438546400001,-114.852,-13.313,152.333
9.0179,128.183287,37.943234,6862.3043856,-114.95,-13.415,152.204
9.0346,128.183308,37.94319,6861.1623,-115.048,-13.516,152.074
9.0513,128.183329,37.943146,6860.0125944,-115.147,-13.618,151.945
9.0681,128.18335,37.943103,6858.854964,-115.245,-13.72,151.816
9.0848,128.183371,37.943059,6857.6894088,-115.343,-13.823,151.687
9.1015,128.183392,37.943015,6856.5159288,-115.442,-13.925,151.558
9.1182,128.183413,37.942972,6855.334828800001,-115.541,-14.028,151.429
9.1349,128.183435,37.942928,6854.145804,-115.64,-14.131,151.299
9.1516,128.183456,37.942884,6852.948549600001,-115.739,-14.234,151.17
9.1683,128.183478,37.942841,6851.743675199999,-115.838,-14.337,151.041
9.185,128.183499,37.942798,6850.5305712,-115.937,-14.441,150.913
9.2016,128.183521,37.942754,6849.3095424,-116.036,-14.545,150.784
9.2183,128.183543,37.942711,6848.0805887999995,-116.135,-14.649,150.655
9.235,128.183565,37.942668,6846.8437104,-116.234,-14.753,150.526
9.2518,128.183588,37.942624,6845.598602399999,-116.334,-14.858,150.397
9.2685,128.18361,37.942581,6844.345569600001,-116.433,-14.962,150.268
9.2852,128.183632,37.942538,6843.084612,-116.532,-15.067,150.14
9.3019,128.183655,37.942495,6841.815424800001,-116.632,-15.173,150.011
9.3186,128.183678,37.942452,6840.5383128,-116.732,-15.278,149.882
9.3353,128.183701,37.942409,6839.2529712,-116.832,-15.384,149.753
9.352,128.183723,37.942367,6837.9597048000005,-116.932,-15.49,149.625
9.3687,128.183746,37.942324,6836.6582088000005,-117.032,-15.596,149.496
9.3854,128.18377,37.942281,6835.3484832,-117.133,-15.702,149.368
9.402,128.183793,37.942238,6834.030528,-117.233,-15.809,149.239
9.4187,128.183816,37.942196,6832.704648,-117.333,-15.915,149.111
9.4355,128.18384,37.942153,6831.370233600001,-117.433,-16.022,148.983
9.4522,128.183863,37.942111,6830.0278944,-117.533,-16.129,148.855
9.4689,128.183887,37.942068,6828.6773256,-117.634,-16.237,148.727
9.4856,128.183911,37.942026,6827.3182224,-117.734,-16.344,148.599
9.5023,128.183935,37.941984,6825.9508896,-117.834,-16.452,148.471
9.519,128.183959,37.941942,6824.5753272,-117.935,-16.56,148.343
9.5357,128.183983,37.941899,6823.1915352,-118.035,-16.668,148.215
9.5524,128.184007,37.941857,6821.7992088,-118.135,-16.777,148.088
9.5691,128.184031,37.941815,6820.3986528,-118.235,-16.885,147.96
9.5857,128.184056,37.941773,6818.9895624,-118.335,-16.994,147.833
9.6024,128.18408,37.941731,6817.5722424000005,-118.436,-17.103,147.705
9.6192,128.184105,37.94169,6816.146388000001,-118.536,-17.212,147.578
9.6359,128.18413,37.941648,6814.7119992,-118.636,-17.322,147.451
9.6526,128.184155,37.941606,6813.2693808,-118.735,-17.431,147.324
9.6693,128.18418,37.941564,6811.818228,-118.835,-17.541,147.197
9.686,128.184205,37.941523,6810.3585408,-118.935,-17.651,147.07
9.7027,128.18423,37.941481,6808.890319200001,-119.034,-17.762,146.943
9.7194,128.184255,37.94144,6807.413868000001,-119.134,-17.872,146.816
9.7361,128.184281,37.941398,6805.928577600001,-119.233,-17.983,146.689
9.7528,128.184306,37.941357,6804.4347528,-119.332,-18.094,146.562
9.7694,128.184332,37.941316,6802.9323936,-119.431,-18.205,146.435
9.7861,128.184358,37.941275,6801.4215,-119.53,-18.316,146.309
9.8029,128.184384,37.941234,6799.9017672,-119.628,-18.428,146.182
9.8196,128.184409,37.941192,6798.373500000001,-119.727,-18.539,146.056
9.8363,128.184435,37.941151,6796.8366984,-119.825,-18.651,145.929
9.853,128.184462,37.941111,6795.2910576,-119.923,-18.763,145.803
9.8697,128.184488,37.94107,6793.7368824000005,-120.021,-18.876,145.676
9.8864,128.184514,37.941029,6792.174172800001,-120.119,-18.988,145.55
9.9031,128.184541,37.940988,6790.6023192,-120.216,-19.101,145.424
9.9198,128.184567,37.940948,6789.022236000001,-120.314,-19.214,145.298
9.9365,128.184594,37.940907,6787.433008800001,-120.411,-19.327,145.172
9.9531,128.184621,37.940866,6785.835247200001,-120.508,-19.441,145.046
9.9698,128.184647,37.940826,6784.228341600001,-120.605,-19.554,144.92
9.9865,128.184674,37.940786,6782.6129016,-120.702,-19.668,144.794
10.0033,128.184701,37.940745,6780.9886224,-120.798,-19.782,144.668
10.02,128.184729,37.940705,6779.355504,-120.895,-19.896,144.542
10.0367,128.184756,37.940665,6777.7135464,-120.991,-20.011,144.416
10.0534,128.184783,37.940625,6776.062749600001,-121.087,-20.125,144.29
10.0701,128.184811,37.940585,6774.4031136,-121.183,-20.24,144.165
10.0868,128.184838,37.940545,6772.7343336,-121.278,-20.355,144.039
10.1035,128.184866,37.940505,6771.0570192000005,-121.373,-20.47,143.913
10.1202,128.184893,37.940465,6769.370256000001,-121.468,-20.586,143.788
10.1368,128.184921,37.940425,6767.6749584,-121.563,-20.701,143.662
10.1535,128.184949,37.940386,6765.9705168,-121.657,-20.817,143.537
10.1702,128.184977,37.940346,6764.257236,-121.752,-20.933,143.411
10.187,128.185005,37.940307,6762.534811200001,-121.845,-21.049,143.286
10.2037,128.185033,37.940267,6760.803547200001,-121.939,-21.165,143.161
10.2204,128.185062,37.940228,6759.0631392,-122.032,-21.282,143.035
10.2371,128.18509,37.940189,6757.313892000001,-122.125,-21.399,142.91
10.2538,128.185118,37.940149,6755.555196,-122.217,-21.515,142.785
10.2705,128.185147,37.94011,6753.787660800001,-122.309,-21.632,142.659
10.2872,128.185176,37.940071,6752.0109816,-122.4,-21.75,142.534
10.3039,128.185204,37.940032,6750.2254632,-122.492,-21.867,142.409
10.3205,128.185233,37.939993,6748.430496000001,-122.583,-21.985,142.284
10.3372,128.185262,37.939954,6746.6266896,-122.673,-22.102,142.159
10.3539,128.185291,37.939916,6744.8134344,-122.764,-22.22,142.034
10.3707,128.18532,37.939877,6742.9913400000005,-122.854,-22.339,141.909
10.3874,128.185349,37.939838,6741.159796800001,-122.943,-22.457,141.784
10.4041,128.185379,37.9398,6739.3191096,-123.033,-22.575,141.659
10.4208,128.185408,37.939761,6737.469278400001,-123.121,-22.694,141.534
10.4375,128.185438,37.939723,6735.6103032,-123.21,-22.813,141.409
10.4542,128.185467,37.939685,6733.742184000001,-123.298,-22.932,141.285
10.4709,128.185497,37.939646,6731.864616,-123.386,-23.051,141.16
10.4876,128.185526,37.939608,6729.977904,-123.473,-23.17,141.035
10.5042,128.185556,37.93957,6728.081743199999,-123.56,-23.29,140.91
10.5209,128.185586,37.939532,6726.176438400001,-123.647,-23.41,140.785
10.5376,128.185616,37.939494,6724.2619896,-123.734,-23.53,140.661
10.5544,128.185646,37.939456,6722.338092000001,-123.82,-23.65,140.536
10.5711,128.185676,37.939419,6720.404745600001,-123.906,-23.77,140.411
10.5878,128.185706,37.939381,6718.4622552,-123.991,-23.89,140.287
10.6045,128.185737,37.939343,6716.510316,-124.076,-24.011,140.162
10.6212,128.185767,37.939306,6714.549232800001,-124.16,-24.131,140.037
10.6379,128.185798,37.939268,6712.578396000001,-124.244,-24.252,139.913
10.6546,128.185828,37.939231,6710.598415200001,-124.327,-24.373,139.788
10.6713,128.185859,37.939194,6708.6089856,-124.41,-24.494,139.663
10.6879,128.185889,37.939156,6706.610412,-124.493,-24.615,139.539
10.7046,128.18592,37.939119,6704.6020848,-124.574,-24.737,139.414
10.7213,128.185951,37.939082,6702.5846136,-124.656,-24.858,139.289
10.7381,128.185982,37.939045,6700.5573888,-124.737,-24.98,139.165
10.7548,128.186013,37.939008,6698.521020000001,-124.817,-25.102,139.04
10.7715,128.186044,37.938972,6696.474897600001,-124.898,-25.224,138.915
10.7882,128.186075,37.938935,6694.4193264000005,-124.977,-25.346,138.791
10.8049,128.186107,37.938898,6692.354611200001,-125.057,-25.468,138.666
10.8216,128.186138,37.938862,6690.280142400001,-125.136,-25.591,138.542
10.8383,128.186169,37.938825,6688.195920000001,-125.215,-25.714,138.417
10.855,128.186201,37.938789,6686.1025536,-125.294,-25.836,138.292
10.8717,128.186232,37.938752,6683.999433600001,-125.372,-25.959,138.168
10.8883,128.186264,37.938716,6681.886864800001,-125.449,-26.082,138.043
10.905,128.186296,37.93868,6679.764847200001,-125.526,-26.206,137.918
10.9218,128.186327,37.938644,6677.6333808,-125.603,-26.329,137.794
10.9385,128.186359,37.938608,6675.4921608,-125.679,-26.452,137.669
10.9552,128.186391,37.938572,6673.341187200001,-125.755,-26.576,137.544
10.9719,128.186423,37.938536,6671.1807648,-125.829,-26.699,137.419
10.9886,128.186455,37.938501,6669.0108936,-125.904,-26.823,137.294
11.0053,128.186487,37.938465,6666.8312688000005,-125.977,-26.947,137.169
11.022,128.18652,37.938429,6664.6418904,-126.05,-27.071,137.044
11.0387,128.186552,37.938394,6662.4430632,-126.123,-27.195,136.92
11.0554,128.186584,37.938358,6660.234787200001,-126.195,-27.32,136.795
11.072,128.186617,37.938323,6658.0164528,-126.267,-27.444,136.67
11.0887,128.186649,37.938288,6655.7886696000005,-126.338,-27.569,136.545
11.1054,128.186682,37.938253,6653.5511328,-126.409,-27.694,136.42
11.1222,128.186715,37.938218,6651.3041472,-126.479,-27.818,136.294
11.1389,128.186747,37.938183,6649.047408,-126.548,-27.943,136.169
11.1556,128.18678,37.938148,6646.780915200001,-126.617,-28.068,136.044
11.1723,128.186813,37.938113,6644.5046688,-126.686,-28.193,135.919
11.189,128.186846,37.938078,6642.2186688,-126.754,-28.319,135.794
11.2057,128.186879,37.938044,6639.923220000001,-126.822,-28.444,135.668
11.2224,128.186912,37.938009,6637.6177128,-126.889,-28.57,135.543
11.2391,128.186945,37.937975,6635.302756800001,-126.955,-28.695,135.417
11.2557,128.186978,37.937941,6632.978047200001,-127.021,-28.821,135.292
11.2724,128.187011,37.937906,6630.6432792000005,-127.086,-28.947,135.166
11.2891,128.187045,37.937872,6628.2990624,-127.151,-29.073,135.041
11.3059,128.187078,37.937838,6625.945092000001,-127.215,-29.199,134.915
11.3226,128.187111,37.937804,6623.581368,-127.279,-29.325,134.789
11.3393,128.187145,37.93777,6621.2075856,-127.342,-29.451,134.663
11.356,128.187178,37.937736,6618.824354400001,-127.404,-29.577,134.537
11.3727,128.187212,37.937703,6616.431064800001,-127.466,-29.704,134.411
11.3894,128.187246,37.937669,6614.0283264,-127.527,-29.83,134.285
11.4061,128.187279,37.937635,6611.6143104,-127.695,-29.964,134.165
11.4228,128.187313,37.937602,6609.190236,-127.965,-30.104,134.052
11.4394,128.187347,37.937569,6606.7551888,-128.338,-30.248,133.942
11.4561,128.187381,37.937535,6604.3088640000005,-128.812,-30.396,133.834
11.4728,128.187415,37.937502,6601.8512616,-129.387,-30.545,133.727
11.4896,128.187449,37.937469,6599.3820768000005,-130.06,-30.696,133.619
11.5063,128.187483,37.937436,6596.9007,-130.826,-30.849,133.512
11.523,128.187518,37.937404,6594.407436,-131.684,-31.005,133.405
11.5397,128.187552,37.937371,6591.9016752,-132.63,-31.164,133.299
11.5564,128.187586,37.937338,6589.3831128,-133.66,-31.327,133.193
11.5731,128.187621,37.937306,6586.8523584,-134.772,-31.494,133.087
11.5898,128.187655,37.937273,6584.307888000001,-135.774,-31.639,132.977
11.6065,128.18769,37.937241,6581.7518352,-136.676,-31.752,132.874
11.6231,128.187724,37.937209,6579.1838952,-137.478,-31.826,132.797
11.6398,128.187759,37.937177,6576.6046776,-138.184,-31.857,132.763
11.6565,128.187793,37.937145,6574.014487200001,-138.79,-31.854,132.764
11.6733,128.187828,37.937113,6571.413628800001,-139.291,-31.833,132.788
11.69,128.187863,37.937081,6568.802712,-139.684,-31.805,132.823
11.7067,128.187897,37.937049,6566.181432,-139.971,-31.777,132.86
11.7234,128.187932,37.937017,6563.5503984,-140.155,-31.753,132.896
11.7401,128.187967,37.936985,6560.9102207999995,-140.238,-31.734,132.928
11.7568,128.188002,37.936954,6558.2608992000005,-140.225,-31.722,132.954
11.7735,128.188037,37.936922,6555.6030432,-140.118,-31.715,132.974
11.7902,128.188072,37.936891,6552.9366528,-139.922,-31.716,132.987
11.8068,128.188107,37.936859,6550.262337600001,-139.64,-31.721,132.995
11.8235,128.188142,37.936828,6547.5804024,-139.275,-31.732,132.997
11.8402,128.188176,37.936796,6544.890847200001,-138.829,-31.748,132.994
11.857,128.188212,37.936765,6542.1942816,-138.306,-31.768,132.986
11.8737,128.188247,37.936733,6539.4907056,-137.709,-31.791,132.972
11.8904,128.188282,37.936702,6536.779814400001,-137.04,-31.819,132.954
11.9071,128.188317,37.936671,6534.0619128,-136.302,-31.849,132.931
11.9238,128.188352,37.936639,6531.337305600001,-135.495,-31.882,132.903
11.9405,128.188387,37.936608,6528.605383200001,-134.623,-31.917,132.871
11.9572,128.188422,37.936577,6525.866755200001,-133.688,-31.954,132.833
11.9739,128.188458,37.936546,6523.1214216,-132.69,-31.992,132.791
11.9905,128.188493,37.936515,6520.3690776,-131.632,-32.032,132.745
12.0072,128.188528,37.936484,6517.610637600001,-130.724,-32.102,132.696
12.0239,128.188564,37.936453,6514.844882400001,-129.95,-32.209,132.634
12.0407,128.188599,37.936422,6512.0712023999995,-129.309,-32.355,132.54
12.0574,128.188634,37.936391,6509.289597600001,-128.797,-32.541,132.397
12.0741,128.18867,37.93636,6506.4997632,-128.416,-32.753,132.211
12.0908,128.188705,37.936329,6503.7013944,-128.17,-32.983,131.994
12.1075,128.188741,37.936298,6500.8935768,-128.058,-33.221,131.756
12.1242,128.188777,37.936268,6498.076615200001,-128.079,-33.461,131.51
12.1409,128.188812,37.936237,6495.250204800001,-128.23,-33.698,131.262
12.1576,128.188848,37.936207,6492.4140408,-128.507,-33.93,131.019
12.1743,128.188884,37.936176,6489.5675136,-128.906,-34.156,130.784
12.1909,128.18892,37.936146,6486.710623200001,-129.42,-34.377,130.558
12.2076,128.188956,37.936116,6483.8430648,-130.045,-34.593,130.342
12.2243,128.188992,37.936086,6480.9645336,-130.775,-34.806,130.135
12.2411,128.189028,37.936056,6478.074724800001,-131.607,-35.015,129.938
12.2578,128.189064,37.936026,6475.173333600001,-132.534,-35.223,129.749
12.2745,128.1891,37.935996,6472.2597504000005,-133.554,-35.43,129.569
12.2912,128.189136,37.935967,6469.333670400001,-134.663,-35.637,129.397
12.3079,128.189172,37.935937,6466.3957032,-135.857,-35.845,129.233
12.3246,128.189208,37.935908,6463.4449343999995,-137.133,-36.054,129.076
12.3413,128.189244,37.935879,6460.4816688,-138.49,-36.266,128.927
12.358,128.189281,37.935849,6457.504992000001,-139.717,-36.452,128.778
12.3746,128.189317,37.93582,6454.516428000001,-140.83,-36.599,128.64
12.3913,128.189353,37.935791,6451.5159768,-141.832,-36.7,128.534
12.408,128.18939,37.935762,6448.504248,-142.728,-36.746,128.479
12.4248,128.189426,37.935734,6445.4815464,-143.517,-36.744,128.474
12.4415,128.189462,37.935705,6442.4484816,-144.195,-36.71,128.505
12.4582,128.189499,37.935676,6439.4047488,-144.758,-36.658,128.556
12.4749,128.189535,37.935648,6436.3512624,-145.203,-36.604,128.613
12.4916,128.189571,37.935619,6433.2880224,-145.533,-36.555,128.668
12.5083,128.189608,37.935591,6430.2159432,-145.752,-36.514,128.718
12.525,128.189644,37.935562,6427.134720000001,-145.864,-36.481,128.76
12.5417,128.189681,37.935534,6424.0452672,-145.874,-36.455,128.796
12.5583,128.189717,37.935506,6420.9475848,-145.786,-36.436,128.826
12.575,128.189754,37.935477,6417.842282400001,-145.604,-36.424,128.85
12.5917,128.18979,37.935449,6414.729664800001,-145.332,-36.418,128.868
12.6085,128.189827,37.935421,6411.609732000001,-144.973,-36.417,128.881
12.6252,128.189863,37.935393,6408.4830936,-144.531,-36.421,128.89
12.6419,128.1899,37.935364,6405.3500544,-144.009,-36.429,128.895
12.6586,128.189936,37.935336,6402.2097,-143.409,-36.441,128.895
12.6753,128.189973,37.935308,6399.0632496,-142.734,-36.457,128.89
12.692,128.19001,37.93528,6395.9097888,-141.988,-36.476,128.882
12.7087,128.190046,37.935252,6392.749622400001,-141.171,-36.498,128.869
12.7254,128.190083,37.935224,6389.5833600000005,-140.286,-36.523,128.852
12.742,128.19012,37.935196,6386.410087200001,-139.335,-36.551,128.83
12.7587,128.190156,37.935168,6383.2307184,-138.321,-36.581,128.805
12.7754,128.190193,37.93514,6380.044644,-137.244,-36.612,128.774
12.7922,128.19023,37.935112,6376.8521688,-136.107,-36.646,128.739
12.8089,128.190267,37.935085,6373.653292800001,-134.912,-36.681,128.7
12.8256,128.190304,37.935057,6370.4483208,-133.881,-36.747,128.663
12.8423,128.19034,37.935029,6367.2366432,-132.999,-36.857,128.613
12.859,128.190377,37.935001,6364.0173456,-132.262,-37.009,128.529
12.8757,128.190414,37.934974,6360.790428,-131.662,-37.206,128.39
12.8924,128.190451,37.934946,6357.554976,-131.199,-37.441,128.193
12.9091,128.190488,37.934919,6354.3112944,-130.872,-37.702,127.948
12.9257,128.190525,37.934891,6351.058468800001,-130.683,-37.98,127.669
12.9424,128.190562,37.934864,6347.7964992,-130.634,-38.262,127.374
12.9591,128.190599,37.934837,6344.5250808,-130.727,-38.539,127.08
12.9759,128.190636,37.934809,6341.243604,-130.957,-38.808,126.795
12.9926,128.190673,37.934782,6337.9520688,-131.321,-39.067,126.521
13.0093,128.19071,37.934755,6334.649865600001,-131.811,-39.318,126.26
13.026,128.190748,37.934729,6331.3369944,-132.421,-39.561,126.013
13.0427,128.190785,37.934702,6328.0128456,-133.146,-39.799,125.779
13.0594,128.190822,37.934675,6324.6774192,-133.98,-40.032,125.556
13.0761,128.190859,37.934649,6321.3298008,-134.917,-40.262,125.345
13.0928,128.190897,37.934622,6317.970295200001,-135.952,-40.49,125.144
13.1095,128.190934,37.934596,6314.598292800001,-137.083,-40.717,124.953
13.1262,128.190971,37.93457,6311.2137936,-138.304,-40.944,124.773
13.1429,128.191009,37.934544,6307.8167976,-139.612,-41.172,124.602
13.1596,128.191046,37.934518,6304.407,-141.005,-41.401,124.44
13.1763,128.191083,37.934492,6300.9837912,-142.259,-41.602,124.275
13.193,128.19112,37.934467,6297.5483904,-143.389,-41.759,124.121
13.2097,128.191158,37.934441,6294.1011024,-144.402,-41.866,124.002
13.2264,128.191195,37.934416,6290.6425368,-145.304,-41.913,123.938
13.2431,128.191232,37.93439,6287.1733032,-146.1,-41.897,123.939
13.2598,128.19127,37.934365,6283.6934016000005,-146.785,-41.836,123.988
13.2765,128.191307,37.93434,6280.203441600001,-147.353,-41.747,124.068
13.2932,128.191344,37.934315,6276.7034232000005,-147.801,-41.646,124.161
13.3099,128.191382,37.93429,6273.194260800001,-148.126,-41.551,124.252
13.3266,128.191419,37.934265,6269.6762592000005,-148.327,-41.472,124.328
13.3433,128.191456,37.93424,6266.1494184,-148.41,-41.41,124.39
13.36,128.191494,37.934215,6262.6146528,-148.38,-41.361,124.44
13.3767,128.191531,37.93419,6259.0719624,-148.245,-41.324,124.48
13.3934,128.191568,37.934165,6255.521956800001,-148.009,-41.295,124.512
13.4101,128.191606,37.93414,6251.9649408000005,-147.677,-41.273,124.539
13.4268,128.191643,37.934116,6248.4009144,-147.252,-41.257,124.56
13.4435,128.19168,37.934091,6244.830487200001,-146.74,-41.246,124.576
13.4602,128.191718,37.934066,6241.253659200001,-146.142,-41.24,124.588
13.4769,128.191755,37.934041,6237.6704303999995,-145.463,-41.238,124.595
13.4936,128.191792,37.934017,6234.0808008,-144.705,-41.24,124.598
13.5103,128.19183,37.933992,6230.4850752,-143.871,-41.246,124.597
13.527,128.191867,37.933968,6226.882644,-142.964,-41.255,124.592
13.5437,128.191905,37.933943,6223.2744216,-141.985,-41.268,124.582
13.5604,128.191942,37.933919,6219.6597984,-140.938,-41.282,124.568
13.5771,128.19198,37.933894,6216.039079200001,-139.824,-41.3,124.55
13.5938,128.192017,37.93387,6212.411959200001,-138.645,-41.319,124.527
13.6105,128.192055,37.933845,6208.779047999999,-137.404,-41.341,124.5
13.6272,128.192092,37.933821,6205.139736,-136.101,-41.364,124.469
13.6439,128.19213,37.933796,6201.4949376,-134.979,-41.421,124.443
13.6606,128.192167,37.933772,6197.843433600001,-134.015,-41.527,124.405
13.6773,128.192205,37.933748,6194.184919200001,-133.205,-41.68,124.327
13.694,128.192243,37.933724,6190.5190896,-132.54,-41.879,124.188
13.7107,128.19228,37.933699,6186.8453352,-132.009,-42.127,123.97
13.7274,128.192318,37.933675,6183.163046400001,-131.615,-42.409,123.687
13.7441,128.192355,37.933651,6179.4722232,-131.358,-42.713,123.355
13.7608,128.192393,37.933628,6175.7719512,-131.241,-43.03,122.993
13.7775,128.192431,37.933604,6172.0625352,-131.269,-43.345,122.623
13.7942,128.192469,37.93358,6168.343365600001,-131.449,-43.646,122.271
13.8109,128.192506,37.933557,6164.6141376000005,-131.779,-43.929,121.944
13.8276,128.192544,37.933533,6160.8745464,-132.251,-44.196,121.641
13.8443,128.192582,37.93351,6157.1242872,-132.854,-44.452,121.359
13.861,128.192619,37.933487,6153.3630552,-133.581,-44.7,121.095
13.8777,128.192657,37.933464,6149.5902408,-134.424,-44.942,120.845
13.8944,128.192695,37.933441,6145.8061488,-135.376,-45.181,120.608
13.9111,128.192733,37.933418,6142.0098648,-136.433,-45.417,120.383
13.9278,128.192771,37.933395,6138.201084000001,-137.59,-45.653,120.169
13.9445,128.192808,37.933373,6134.380416,-138.841,-45.889,119.966
13.9612,128.192846,37.93335,6130.547251200001,-140.185,-46.125,119.775
13.9779,128.192884,37.933328,6126.7012847999995,-141.617,-46.363,119.594
13.9946,128.192921,37.933306,6122.8425168,-142.898,-46.57,119.407
14.0113,128.192959,37.933284,6118.971252000001,-144.046,-46.73,119.23
14.028,128.192997,37.933262,6115.088709600001,-145.068,-46.836,119.092
14.0447,128.193034,37.93324,6111.1951944,-145.977,-46.878,119.02
14.0614,128.193072,37.933218,6107.291316,-146.783,-46.846,119.029
14.0781,128.193109,37.933197,6103.376464800001,-147.478,-46.76,119.1
14.0948,128.193147,37.933175,6099.452164800001,-148.055,-46.636,119.213
14.1115,128.193184,37.933154,6095.518416,-148.509,-46.494,119.346
14.1282,128.193222,37.933132,6091.575828000001,-148.833,-46.352,119.48
14.1449,128.193259,37.933111,6087.6247056,-149.023,-46.228,119.597
14.1616,128.193297,37.933089,6083.6650488,-149.077,-46.134,119.685
14.1783,128.193334,37.933068,6079.6980768,-149.003,-46.066,119.749
14.195,128.193372,37.933047,6075.7234848,-148.81,-46.017,119.795
14.2117,128.193409,37.933026,6071.741882400001,-148.508,-45.98,119.831
14.2284,128.193447,37.933005,6067.753574400001,-148.102,-45.951,119.859
14.2451,128.193484,37.932984,6063.758865600001,-147.599,-45.928,119.882
14.2618,128.193522,37.932962,6059.758060800001,-147.002,-45.909,119.9
14.2785,128.193559,37.932941,6055.751160000001,-146.316,-45.895,119.915
14.2952,128.193597,37.93292,6051.7378584,-145.543,-45.884,119.925
14.3119,128.193635,37.932899,6047.718765600001,-144.688,-45.878,119.931
14.3286,128.193672,37.932878,6043.6935768,-143.752,-45.874,119.933
14.3453,128.19371,37.932858,6039.662596800001,-142.74,-45.874,119.931
14.362,128.193747,37.932837,6035.6255208,-141.653,-45.877,119.925
14.3787,128.193785,37.932816,6031.5826536,-140.494,-45.882,119.915
14.3954,128.193822,37.932795,6027.5339952,-139.266,-45.889,119.901
14.4121,128.19386,37.932774,6023.4792408,-137.971,-45.899,119.883
14.4288,128.193898,37.932753,6019.419,-136.612,-45.909,119.862
14.4455,128.193935,37.932733,6015.3532728,-135.446,-45.958,119.849
14.4622,128.193973,37.932712,6011.2811448,-134.45,-46.058,119.825
14.4789,128.194011,37.932691,6007.202311200001,-133.614,-46.209,119.756
14.4956,128.194048,37.932671,6003.1164672,-132.928,-46.411,119.614
14.5123,128.194086,37.93265,5999.023308,-132.375,-46.666,119.377
14.529,128.194124,37.93263,5994.921919200001,-131.957,-46.959,119.058
14.5457,128.194161,37.93261,5990.811386400001,-131.609,-47.268,118.66
14.5624,128.194199,37.932589,5986.6920144000005,-131.3,-47.578,118.202
14.5791,128.194237,37.932569,5982.5634984,-131.018,-47.879,117.718
14.5958,128.194274,37.932549,5978.426143199999,-130.762,-48.162,117.242
14.6125,128.194312,37.932529,5974.2799488,-130.526,-48.426,116.807
14.6292,128.19435,37.932509,5970.124610400001,-130.306,-48.674,116.415
14.6459,128.194387,37.93249,5965.960128000001,-130.1,-48.909,116.056
14.6626,128.194425,37.93247,5961.785892000001,-129.907,-49.133,115.719
14.6793,128.194463,37.932451,5957.6022072,-129.726,-49.348,115.397
14.696,128.1945,37.932431,5953.409073600001,-129.556,-49.554,115.085
14.7127,128.194538,37.932412,5949.206186400001,-129.394,-49.753,114.781
14.7294,128.194576,37.932393,5944.9938504,-129.239,-49.947,114.487
14.7461,128.194613,37.932374,5940.7717608,-129.087,-50.137,114.201
14.7628,128.194651,37.932355,5936.5399176,-128.94,-50.323,113.923
14.7795,128.194688,37.932336,5932.2983208,-128.796,-50.504,113.651
14.7962,128.194726,37.932318,5928.046970400001,-128.657,-50.68,113.385
14.8129,128.194764,37.932299,5923.7858664,-128.522,-50.851,113.121
14.8296,128.194801,37.932281,5919.514704,-128.391,-51.018,112.86
14.8463,128.194839,37.932263,5915.2340928,-128.263,-51.179,112.602
14.863,128.194877,37.932244,5910.9434232,-128.135,-51.338,112.346
14.8797,128.194914,37.932226,5906.643,-128.007,-51.494,112.094
14.8964,128.194952,37.932209,5902.3328232,-127.879,-51.647,111.844
14.9131,128.194989,37.932191,5898.0128928,-127.75,-51.798,111.597
14.9298,128.195027,37.932173,5893.6832088,-127.621,-51.948,111.351
14.9465,128.195064,37.932156,5889.3437711999995,-127.491,-52.095,111.108
14.9632,128.195102,37.932139,5884.99458,-127.361,-52.241,110.866
14.9799,128.195139,37.932121,5880.6353304,-127.23,-52.385,110.625
14.9966,128.195177,37.932104,5876.266632000001,-127.098,-52.527,110.385
15.0133,128.195214,37.932087,5871.88818,-126.966,-52.668,110.146
15.03,128.195252,37.932071,5867.499974400001,-126.834,-52.808,109.907
15.0467,128.195289,37.932054,5863.102015200001,-126.7,-52.946,109.669
15.0634,128.195326,37.932038,5858.6943024,-126.565,-53.083,109.431
15.0801,128.195364,37.932021,5854.276836,-126.43,-53.22,109.193
