Time,Longitude,Latitude,Altitude,Roll (deg),Pitch (deg),Yaw (deg)
0.0,128.182449,37.914482,3999.992508,0.0,-0.003,179.999
0.0167,128.182449,37.914444,3999.9763536,0.0,-0.013,180.0
0.0334,128.182449,37.914407,3999.9580656000003,0.084,-0.014,180.015
0.0501,128.182449,37.914369,3999.9373392,0.249,0.003,180.046
0.0668,128.182449,37.914331,3999.9138696,0.5,0.054,180.086
0.0834,128.182449,37.914294,3999.887352,0.84,0.15,180.134
0.1002,128.182449,37.914256,3999.8577864000004,1.269,0.302,180.185
0.1169,128.182449,37.914219,3999.824868,1.786,0.517,180.239
0.1336,128.182449,37.914181,3999.7889016,2.388,0.804,180.297
0.1503,128.182449,37.914144,3999.7498872000006,3.072,1.167,180.359
0.1669,128.182449,37.914106,3999.7072152,3.834,1.595,180.428
0.1837,128.182449,37.914068,3999.6630192000002,4.67,2.078,180.504
0.2004,128.182449,37.914031,3999.6169944,5.577,2.606,180.588
0.2171,128.182449,37.913993,3999.5703600000006,6.55,3.166,180.681
0.2338,128.182449,37.913955,3999.5234208,7.588,3.744,180.784
0.2505,128.182449,37.913917,3999.4767864,8.686,4.327,180.897
0.2672,128.182449,37.91388,3999.4310664000004,9.842,4.902,181.019
0.2839,128.182449,37.913842,3999.3868704,11.053,5.456,181.148
0.3006,128.182449,37.913804,3999.3441984000006,12.316,5.98,181.283
0.3172,128.182449,37.913766,3999.3042695999998,13.628,6.475,181.425
0.3339,128.182449,37.913728,3999.267084,14.988,6.943,181.574
0.3507,128.182449,37.91369,3999.2329464000004,16.393,7.388,181.73
0.3674,128.182449,37.913652,3999.2027712000004,17.841,7.813,181.894
0.3841,128.182448,37.913615,3999.1765584,19.33,8.218,182.066
0.4008,128.182448,37.913577,3999.1546128,20.86,8.604,182.246
0.4175,128.182448,37.913539,3999.1375440000006,22.428,8.973,182.435
0.4342,128.182448,37.913501,3999.125352,24.033,9.326,182.632
0.4509,128.182448,37.913463,3999.1186464,25.672,9.662,182.837
0.4676,128.182447,37.913425,3999.1189512,27.325,9.984,183.049
0.4843,128.182447,37.913387,3999.1268760000003,28.974,10.293,183.264
0.501,128.182447,37.913349,3999.1427256,30.6,10.59,183.482
0.5176,128.182446,37.913311,3999.1671096000005,32.189,10.876,183.703
0.5344,128.182445,37.913273,3999.2012472,33.726,11.152,183.926
0.5511,128.182445,37.913235,3999.2448336,35.201,11.419,184.152
0.5678,128.182444,37.913197,3999.2993928,36.605,11.676,184.381
0.5845,128.182443,37.913159,3999.3643152,37.932,11.925,184.614
0.6012,128.182442,37.913121,3999.4411248,39.177,12.166,184.85
0.6179,128.182441,37.913083,3999.5295168000002,40.339,12.399,185.091
0.6345,128.18244,37.913045,3999.6301008000005,41.418,12.624,185.337
0.6513,128.182439,37.913007,3999.7431816000003,42.414,12.842,185.587
0.6679,128.182437,37.912969,3999.8690640000004,43.33,13.052,185.842
0.6847,128.182436,37.912931,4000.0074432,44.17,13.256,186.101
0.7014,128.182434,37.912893,4000.1564904,44.995,13.447,186.371
0.7181,128.182432,37.912855,4000.3165104,45.802,13.627,186.65
0.7348,128.182431,37.912817,4000.486284,46.584,13.798,186.935
0.7514,128.182429,37.912779,4000.6655064,47.337,13.963,187.224
0.7682,128.182426,37.912742,4000.856616,48.054,14.124,187.515
0.7848,128.182424,37.912704,4001.057784,48.733,14.282,187.809
0.8016,128.182422,37.912666,4001.26962,49.371,14.436,188.103
0.8183,128.182419,37.912628,4001.492124,49.965,14.587,188.398
0.835,128.182416,37.91259,4001.7252960000005,50.515,14.735,188.694
0.8517,128.182413,37.912553,4001.9688312,51.023,14.879,188.991
0.8684,128.18241,37.912515,4002.2224248,51.49,15.02,189.288
0.8851,128.182407,37.912477,4002.4866864,51.916,15.157,189.587
0.9018,128.182404,37.912439,4002.7607016,52.306,15.291,189.886
0.9185,128.1824,37.912402,4003.0447752000005,52.663,15.423,190.184
0.9352,128.182397,37.912364,4003.3386024,52.99,15.552,190.483
0.9519,128.182393,37.912327,4003.6421832,53.289,15.68,190.782
0.9686,128.182389,37.912289,4003.9552128,53.562,15.805,191.081
0.9853,128.182385,37.912251,4004.2776912000004,53.812,15.927,191.38
1.002,128.182381,37.912214,4004.6096184000003,54.04,16.048,191.679
1.0187,128.182376,37.912176,4004.9506896000003,54.251,16.167,191.977
1.0353,128.182372,37.912139,4005.3009048000004,54.445,16.284,192.275
1.0521,128.182367,37.912101,4005.660264,54.626,16.401,192.571
1.0688,128.182362,37.912064,4006.0287672,54.795,16.517,192.866
1.0855,128.182357,37.912026,4006.4058048,54.952,16.633,193.16
1.1022,128.182352,37.911989,4006.7922912000004,55.1,16.749,193.452
1.1189,128.182347,37.911952,4007.1873120000005,55.238,16.864,193.743
1.1356,128.182341,37.911914,4007.591172,55.367,16.979,194.032
1.1522,128.182336,37.911877,4008.0038712000005,55.488,17.093,194.32
1.169,128.18233,37.91184,4008.4254096000004,55.601,17.207,194.606
1.1857,128.182324,37.911803,4008.8557872000006,55.706,17.322,194.89
1.2024,128.182318,37.911765,4009.295004,55.804,17.436,195.173
1.2191,128.182312,37.911728,4009.7430600000002,55.895,17.549,195.455
1.2358,128.182306,37.911691,4010.1996504000003,55.978,17.662,195.736
1.2525,128.182299,37.911654,4010.66508,56.054,17.774,196.015
1.2691,128.182292,37.911617,4011.1393488000003,56.123,17.886,196.293
1.2859,128.182286,37.91158,4011.6224568000002,56.186,17.997,196.57
1.3026,128.182279,37.911543,4012.1140992,56.242,18.107,196.846
1.3193,128.182272,37.911506,4012.6142760000002,56.293,18.217,197.121
1.3359,128.182264,37.911469,4013.1235968,56.338,18.327,197.395
1.3527,128.182257,37.911432,4013.6414520000003,56.378,18.436,197.667
1.3694,128.182249,37.911395,4014.1678416000004,56.412,18.545,197.939
1.386,128.182242,37.911359,4014.7030704000003,56.442,18.654,198.21
1.4028,128.182234,37.911322,4015.2468336,56.468,18.762,198.479
1.4195,128.182226,37.911285,4015.7994360000002,56.489,18.87,198.747
1.4362,128.182218,37.911249,4016.3605728,56.506,18.978,199.014
1.4528,128.182209,37.911212,4016.9305488000005,56.519,19.086,199.281
1.4696,128.182201,37.911175,4017.5090592,56.529,19.194,199.546
1.4863,128.182192,37.911139,4018.096104,56.536,19.301,199.81
1.5029,128.182183,37.911102,4018.691988,56.54,19.409,200.073
1.5197,128.182174,37.911066,4019.2964064000003,56.54,19.516,200.335
1.5364,128.182165,37.91103,4019.9096640000002,56.539,19.624,200.596
1.5531,128.182156,37.910993,4020.531456,56.535,19.732,200.856
1.5697,128.182147,37.910957,4021.1617824000004,56.528,19.839,201.115
1.5865,128.182137,37.910921,4021.800948,56.52,19.947,201.373
1.6032,128.182127,37.910885,4022.448648,56.51,20.055,201.63
1.6198,128.182117,37.910848,4023.1051872000003,56.498,20.163,201.886
1.6366,128.182107,37.910812,4023.7702608,56.484,20.271,202.141
1.6533,128.182097,37.910776,4024.4438688000005,56.469,20.379,202.395
1.67,128.182087,37.91074,4025.1263160000003,56.453,20.488,202.648
1.6867,128.182077,37.910704,4025.8172976,56.436,20.597,202.9
1.7034,128.182066,37.910669,4026.5168136,56.417,20.705,203.152
1.7201,128.182055,37.910633,4027.2251688000006,56.398,20.815,203.402
1.7368,128.182044,37.910597,4027.9420584,56.378,20.924,203.652
1.7535,128.182033,37.910561,4028.6677872000005,56.358,21.033,203.901
1.7702,128.182022,37.910526,4029.4017456,56.337,21.143,204.149
1.7869,128.182011,37.91049,4030.1448480000004,56.315,21.253,204.396
1.8036,128.181999,37.910455,4030.89618,56.293,21.364,204.642
1.8203,128.181987,37.910419,4031.6563512,56.271,21.474,204.888
1.837,128.181976,37.910384,4032.4253616,56.249,21.585,205.133
1.8537,128.181964,37.910348,4033.2029064000003,56.227,21.696,205.377
1.8704,128.181952,37.910313,4033.9889856,56.204,21.808,205.621
1.8871,128.181939,37.910278,4034.7835992,56.182,21.919,205.863
1.9038,128.181927,37.910243,4035.5870520000003,56.16,22.031,206.105
1.9205,128.181914,37.910208,4036.3990392000005,56.138,22.143,206.347
1.9372,128.181902,37.910173,4037.2198656,56.116,22.256,206.588
1.9539,128.181889,37.910138,4038.0489216,56.095,22.368,206.828
1.9706,128.181876,37.910103,4038.8871216,56.074,22.481,207.067
1.9873,128.181863,37.910068,4039.7335512,56.053,22.595,207.306
2.004,128.181849,37.910033,4040.58882,56.033,22.708,207.545
2.0207,128.181836,37.909998,4041.4526232000003,56.013,22.822,207.783
2.0374,128.181822,37.909964,4042.3249608,55.994,22.936,208.02
2.0541,128.181809,37.909929,4043.2061376,55.976,23.05,208.257
2.0707,128.181795,37.909895,4044.0958488000006,55.958,23.165,208.493
2.0875,128.181781,37.90986,4044.9940944,55.941,23.28,208.729
2.1042,128.181767,37.909826,4045.9011792,55.924,23.395,208.964
2.1208,128.181752,37.909792,4046.8167984,55.908,23.51,209.199
2.1376,128.181738,37.909757,4047.740952,55.893,23.626,209.434
2.1543,128.181723,37.909723,4048.67364,55.878,23.741,209.668
2.171,128.181709,37.909689,4049.6148624000007,55.864,23.858,209.901
2.1877,128.181694,37.909655,4050.564924,55.851,23.974,210.134
2.2044,128.181679,37.909621,4051.5232152,55.839,24.09,210.367
2.2211,128.181664,37.909587,4052.4903456,55.827,24.207,210.6
2.2378,128.181649,37.909554,4053.4660104,55.816,24.324,210.832
2.2544,128.181633,37.90952,4054.4502096,55.806,24.441,211.064
2.2712,128.181618,37.909486,4055.4429432,55.796,24.559,211.295
2.2879,128.181602,37.909453,4056.4442112,55.788,24.676,211.526
2.3045,128.181586,37.909419,4057.4540136,55.78,24.794,211.757
2.3213,128.18157,37.909386,4058.4723504000003,55.773,24.912,211.988
2.338,128.181554,37.909353,4059.4992216,55.767,25.03,212.218
2.3546,128.181538,37.909319,4060.5346272,55.761,25.148,212.449
2.3714,128.181522,37.909286,4061.5785672,55.757,25.267,212.678
2.3881,128.181505,37.909253,4062.6307368000002,55.753,25.385,212.908
2.4048,128.181489,37.90922,4063.6917456,55.75,25.504,213.138
2.4215,128.181472,37.909187,4064.760984,55.747,25.623,213.367
2.4382,128.181455,37.909154,4065.8387568000003,55.746,25.742,213.596
2.4549,128.181438,37.909122,4066.9250640000005,55.745,25.861,213.825
2.4716,128.181421,37.909089,4068.0196008000003,55.745,25.981,214.054
2.4882,128.181404,37.909056,4069.122672,55.745,26.1,214.282
2.505,128.181386,37.909024,4070.2342776000005,55.747,26.22,214.511
2.5217,128.181369,37.908991,4071.3544176,55.749,26.34,214.739
2.5383,128.181351,37.908959,4072.4827872000005,55.752,26.46,214.967
2.5551,128.181333,37.908927,4073.6193864,55.756,26.58,215.195
2.5718,128.181315,37.908895,4074.76452,55.76,26.7,215.423
2.5884,128.181297,37.908863,4075.9178832,55.765,26.82,215.651
2.6052,128.181279,37.908831,4077.0797807999998,55.771,26.94,215.879
2.6219,128.181261,37.908799,4078.249908,55.778,27.061,216.107
2.6386,128.181242,37.908767,4079.4282648,55.785,27.181,216.335
2.6553,128.181224,37.908735,4080.615156,55.793,27.302,216.562
2.6719,128.181205,37.908703,4081.8102768,55.802,27.422,216.79
2.6887,128.181187,37.908672,4083.0136272,55.811,27.543,217.018
2.7054,128.181168,37.90864,4084.2252072,55.821,27.664,217.245
2.722,128.181149,37.908609,4085.4450168000003,55.832,27.785,217.473
2.7388,128.181129,37.908578,4086.673056,55.844,27.906,217.7
2.7555,128.18111,37.908547,4087.9093248000004,55.856,28.027,217.928
2.7721,128.181091,37.908516,4089.1541280000006,55.869,28.148,218.156
2.7889,128.181071,37.908484,4090.406856,55.883,28.269,218.383
2.8056,128.181052,37.908454,4091.6675088,55.897,28.39,218.611
2.8222,128.181032,37.908423,4092.936696,55.912,28.511,218.839
2.839,128.181012,37.908392,4094.213808,55.928,28.632,219.066
2.8557,128.180992,37.908361,4095.4991496000002,55.944,28.753,219.294
2.8724,128.180972,37.908331,4096.7927208,55.961,28.875,219.522
2.8891,128.180952,37.9083,4098.0942168,55.979,28.996,219.75
2.9057,128.180932,37.90827,4099.4039424,55.997,29.117,219.978
2.9225,128.180911,37.90824,4100.7215928000005,56.016,29.238,220.206
2.9392,128.180891,37.90821,4102.047168,56.036,29.359,220.434
2.9558,128.18087,37.908179,4103.380972800001,56.056,29.481,220.662
2.9726,128.180849,37.90815,4104.7227024,56.077,29.602,220.891
2.9893,128.180828,37.90812,4106.0723568,56.099,29.723,221.119
3.0059,128.180807,37.90809,4107.4302408,56.121,29.844,221.347
3.0227,128.180786,37.90806,4108.7960496000005,56.144,29.965,221.576
3.0394,128.180765,37.908031,4110.1694784,56.168,30.087,221.805
3.056,128.180744,37.908001,4111.551136800001,56.192,30.208,222.034
3.0728,128.180722,37.907972,4112.9407200000005,56.217,30.329,222.263
3.0895,128.180701,37.907942,4114.337923200001,56.242,30.45,222.492
3.1062,128.180679,37.907913,4115.7430512,56.268,30.571,222.721
3.1229,128.180658,37.907884,4117.156104,56.295,30.692,222.951
3.1395,128.180636,37.907855,4118.5770816,56.322,30.813,223.18
3.1563,128.180614,37.907826,4120.005984,56.35,30.933,223.41
3.173,128.180592,37.907797,4121.4422016,56.379,31.054,223.64
3.1896,128.18057,37.907769,4122.8866488,56.408,31.175,223.87
3.2064,128.180547,37.90774,4124.338716,56.438,31.296,224.101
3.2231,128.180525,37.907712,4125.7984032,56.468,31.416,224.331
3.2397,128.180502,37.907683,4127.2657104,56.499,31.537,224.562
3.2565,128.18048,37.907655,4128.7409424,56.531,31.657,224.792
3.2732,128.180457,37.907627,4130.2237944,56.563,31.778,225.024
3.2899,128.180434,37.907599,4131.7142664,56.595,31.898,225.255
3.3066,128.180412,37.907571,4133.2123584,56.629,32.018,225.486
3.3233,128.180389,37.907543,4134.7180704,56.663,32.138,225.718
3.34,128.180366,37.907515,4136.231402400001,56.697,32.258,225.95
3.3567,128.180342,37.907487,4137.7523544000005,56.732,32.378,226.182
3.3734,128.180319,37.90746,4139.2809264,56.768,32.498,226.414
3.3901,128.180296,37.907432,4140.8168136,56.804,32.618,226.647
3.4068,128.180272,37.907405,4142.3603208,56.841,32.738,226.879
3.4235,128.180249,37.907378,4143.911448,56.878,32.857,227.112
3.4402,128.180225,37.907351,4145.4698904,56.916,32.977,227.345
3.4569,128.180202,37.907324,4147.035648,56.955,33.096,227.579
3.4736,128.180178,37.907297,4148.609025600001,56.994,33.215,227.813
3.4903,128.180154,37.90727,4150.1897184,57.034,33.334,228.047
3.507,128.18013,37.907243,4151.7777264,57.074,33.453,228.281
3.5237,128.180106,37.907217,4153.373354400001,57.115,33.572,228.515
3.5404,128.180082,37.90719,4154.9759928,57.157,33.691,228.75
3.5571,128.180057,37.907164,4156.5862512,57.199,33.809,228.985
3.5738,128.180033,37.907138,4158.20352,57.242,33.928,229.22
3.5905,128.180009,37.907111,4159.828104,57.285,34.046,229.456
3.6072,128.179984,37.907085,4161.460003200001,57.329,34.164,229.692
3.6239,128.17996,37.907059,4163.0992176,57.374,34.282,229.928
3.6406,128.179935,37.907034,4164.7457472,57.419,34.4,230.164
3.6573,128.17991,37.907008,4166.399287200001,57.465,34.517,230.401
3.674,128.179885,37.906982,4168.0598376,57.511,34.635,230.638
3.6907,128.17986,37.906957,4169.7277032,57.558,34.752,230.875
3.7074,128.179835,37.906931,4171.4025792,57.606,34.87,231.112
3.7241,128.17981,37.906906,4173.0847704,57.654,34.987,231.35
3.7408,128.179785,37.906881,4174.7736672,57.703,35.103,231.588
3.7575,128.17976,37.906856,4176.4698792,57.752,35.22,231.827
3.7742,128.179735,37.906831,4178.1731016,57.802,35.337,232.066
3.7909,128.179709,37.906806,4179.8833344,57.853,35.453,232.305
3.8076,128.179684,37.906781,4181.6005776,57.904,35.569,232.544
3.8243,128.179658,37.906757,4183.3245264,57.956,35.685,232.784
3.841,128.179632,37.906732,4185.0554856,58.008,35.801,233.024
3.8577,128.179607,37.906708,4186.793455200001,58.061,35.917,233.264
3.8744,128.179581,37.906683,4188.5384352,58.115,36.032,233.505
3.8911,128.179555,37.906659,4190.289816,58.169,36.147,233.746
3.9078,128.179529,37.906635,4192.048512,58.224,36.262,233.987
3.9245,128.179503,37.906611,4193.8136088,58.279,36.377,234.229
3.9412,128.179477,37.906588,4195.5857160000005,58.335,36.492,234.471
3.9579,128.179451,37.906564,4197.3648336,58.392,36.606,234.714
3.9746,128.179425,37.90654,4199.150352000001,58.449,36.721,234.956
3.9913,128.179398,37.906517,4200.942576,58.507,36.835,235.199
4.008,128.179372,37.906493,4202.741505600001,58.565,36.948,235.443
4.0247,128.179346,37.90647,4204.5471408,58.624,37.062,235.687
4.0414,128.179319,37.906447,4206.3594816,58.684,37.175,235.931
4.058,128.179293,37.906424,4208.178528,58.744,37.288,236.175
4.0748,128.179266,37.906401,4210.0039752,58.805,37.401,236.42
4.0915,128.179239,37.906378,4211.8358232,58.867,37.514,236.666
4.1082,128.179212,37.906356,4213.6746816,58.929,37.627,236.911
4.1249,128.179186,37.906333,4215.519636,58.992,37.739,237.157
4.1415,128.179159,37.906311,4217.371296,59.056,37.851,237.404
4.1583,128.179132,37.906288,4219.2293568000005,59.12,37.963,237.65
4.175,128.179105,37.906266,4221.093818400001,59.184,38.074,237.898
4.1917,128.179078,37.906244,4222.9646808,59.25,38.185,238.145
4.2084,128.179051,37.906222,4224.841944000001,59.316,38.296,238.393
4.2251,128.179023,37.9062,4226.7259128,59.382,38.407,238.641
4.2417,128.178996,37.906179,4228.6156728000005,59.45,38.518,238.89
4.2585,128.178969,37.906157,4230.5121384,59.518,38.628,239.139
4.2752,128.178941,37.906136,4232.4147,59.586,38.738,239.389
4.2919,128.178914,37.906114,4234.3236624,59.655,38.848,239.639
4.3086,128.178887,37.906093,4236.2387208,59.725,38.957,239.889
4.3252,128.178859,37.906072,4238.160180000001,59.795,39.067,240.14
4.342,128.178831,37.906051,4240.087735200001,59.866,39.176,240.391
4.3587,128.178804,37.90603,4242.021386400001,59.938,39.284,240.643
4.3754,128.178776,37.906009,4243.9611336,60.011,39.393,240.895
4.3921,128.178748,37.905988,4245.9069768,60.084,39.501,241.147
4.4088,128.17872,37.905968,4247.858916,60.157,39.609,241.4
4.4254,128.178693,37.905947,4249.8169512,60.232,39.717,241.653
4.4422,128.178665,37.905927,4251.781082400001,60.306,39.824,241.907
4.4589,128.178637,37.905907,4253.7513096,60.382,39.931,242.161
4.4756,128.178609,37.905887,4255.727328,60.458,40.038,242.416
4.4923,128.178581,37.905867,4257.7094424,60.535,40.144,242.671
4.5089,128.178552,37.905847,4259.697348000001,60.613,40.25,242.926
4.5256,128.178524,37.905827,4261.6913496,60.691,40.356,243.182
4.5424,128.178496,37.905808,4263.6908376,60.77,40.462,243.438
4.5591,128.178468,37.905788,4265.6964216,60.849,40.567,243.695
4.5758,128.17844,37.905769,4267.7077968,60.929,40.672,243.952
4.5925,128.178411,37.90575,4269.7249632,61.01,40.777,244.21
4.6091,128.178383,37.905731,4271.7479208,61.091,40.881,244.468
4.6259,128.178354,37.905712,4273.7766696,61.174,40.985,244.726
4.6426,128.178326,37.905693,4275.8112096,61.256,41.089,244.985
4.6593,128.178297,37.905674,4277.851236,61.34,41.193,245.245
4.676,128.178269,37.905656,4279.8970536,61.424,41.296,245.505
4.6927,128.17824,37.905637,4281.9483576,61.509,41.399,245.765
4.7093,128.178211,37.905619,4284.0054528,61.594,41.501,246.026
4.7261,128.178183,37.9056,4286.0680344,61.68,41.603,246.287
4.7428,128.178154,37.905582,4288.1361024,61.767,41.705,246.549
4.7595,128.178125,37.905564,4290.2099616000005,61.854,41.807,246.811
4.7762,128.178097,37.905546,4292.2890024,61.942,41.908,247.074
4.7928,128.178068,37.905529,4294.3735296,62.031,42.009,247.337
4.8096,128.178039,37.905511,4296.463848,62.121,42.109,247.601
4.8263,128.17801,37.905493,4298.559348000001,62.211,42.209,247.865
4.843,128.177981,37.905476,4300.660029600001,62.302,42.309,248.129
4.8597,128.177952,37.905459,4302.7665024,62.393,42.408,248.394
4.8764,128.177923,37.905442,4304.8778520000005,62.485,42.508,248.66
4.893,128.177894,37.905425,4306.994992800001,62.578,42.606,248.926
4.9098,128.177865,37.905408,4309.1170104,62.671,42.705,249.193
4.9265,128.177836,37.905391,4311.2445144,62.766,42.803,249.46
4.9432,128.177807,37.905374,4313.3772,62.86,42.901,249.727
4.9599,128.177777,37.905358,4315.5150672,62.956,42.998,249.995
4.9765,128.177748,37.905341,4317.6581160000005,63.052,43.095,250.264
4.9932,128.177719,37.905325,4319.806346400001,63.149,43.192,250.533
5.01,128.17769,37.905309,4321.9597584,63.246,43.288,250.802
5.0267,128.17766,37.905293,4324.1180472,63.344,43.384,251.072
5.0434,128.177631,37.905277,4326.2815176,63.443,43.479,251.343
5.0601,128.177602,37.905261,4328.4501696,63.543,43.574,251.614
5.0767,128.177572,37.905245,4330.6233936,63.643,43.669,251.885
5.0935,128.177543,37.90523,4332.802104,63.744,43.764,252.157
5.1102,128.177514,37.905214,4334.985386400001,63.845,43.858,252.43
5.1269,128.177484,37.905199,4337.1738504,63.948,43.951,252.703
5.1436,128.177455,37.905184,4339.3668864,64.051,44.044,252.976
5.1602,128.177425,37.905169,4341.565104,64.154,44.137,253.25
5.1769,128.177396,37.905154,4343.7678936,64.258,44.23,253.525
5.1937,128.177366,37.905139,4345.9758648,64.363,44.322,253.8
5.2104,128.177337,37.905124,4348.1881032,64.469,44.414,254.076
5.2271,128.177307,37.905109,4350.4055232,64.575,44.505,254.352
5.2438,128.177277,37.905095,4352.6275152,64.682,44.596,254.628
5.2604,128.177248,37.905081,4354.8540792,64.79,44.686,254.905
5.2772,128.177218,37.905066,4357.0855200000005,64.898,44.776,255.183
5.2939,128.177189,37.905052,4359.321532800001,65.007,44.866,255.461
5.3106,128.177159,37.905038,4361.5621176,65.117,44.955,255.74
5.3273,128.177129,37.905025,4363.8072744,65.227,45.044,256.019
5.3439,128.177099,37.905011,4366.0570032000005,65.338,45.133,256.299
5.3606,128.17707,37.904997,4368.3109992,65.45,45.221,256.579
5.3774,128.17704,37.904984,4370.569872,65.562,45.308,256.86
5.3941,128.17701,37.90497,4372.833012,65.675,45.395,257.142
5.4108,128.176981,37.904957,4375.1004192,65.789,45.482,257.423
5.4275,128.176951,37.904944,4377.372398400001,65.903,45.568,257.706
5.4441,128.176921,37.904931,4379.6489496,66.018,45.654,257.989
5.4609,128.176891,37.904918,4381.929768,66.134,45.74,258.272
5.4776,128.176861,37.904905,4384.214548800001,66.251,45.825,258.556
5.4943,128.176832,37.904893,4386.5039016,66.368,45.909,258.841
5.511,128.176802,37.90488,4388.7975215999995,66.486,45.993,259.126
5.5277,128.176772,37.904868,4391.0954088,66.605,46.077,259.412
5.5443,128.176742,37.904856,4393.3975632,66.724,46.16,259.698
5.5611,128.176712,37.904844,4395.7036800000005,66.844,46.242,259.984
5.5778,128.176683,37.904832,4398.014064,66.965,46.324,260.272
5.5945,128.176653,37.90482,4400.3284104,67.086,46.406,260.559
5.6112,128.176623,37.904808,4402.647024,67.208,46.487,260.848
5.6278,128.176593,37.904796,4404.9696,67.331,46.568,261.137
5.6445,128.176563,37.904785,4407.2961384,67.455,46.648,261.426
5.6613,128.176533,37.904773,4409.626944000001,67.579,46.728,261.716
5.678,128.176503,37.904762,4411.9614072,67.704,46.807,262.006
5.6947,128.176473,37.904751,4414.2998328,67.83,46.886,262.297
5.7114,128.176444,37.90474,4416.6425256,67.957,46.965,262.589
5.728,128.176414,37.904729,4418.988876,68.084,47.042,262.881
5.7448,128.176384,37.904718,4421.338884,68.212,47.12,263.173
5.7615,128.176354,37.904707,4423.6928544,68.34,47.197,263.466
5.7782,128.176324,37.904697,4426.050787200001,68.47,47.273,263.76
5.7949,128.176294,37.904687,4428.412377600001,68.6,47.349,264.054
5.8115,128.176264,37.904676,4430.777625600001,68.73,47.424,264.349
5.8282,128.176234,37.904666,4433.146836,68.862,47.499,264.644
5.845,128.176205,37.904656,4435.5193992,68.994,47.573,264.939
5.8617,128.176175,37.904646,4437.8959248,69.127,47.647,265.236
5.8784,128.176145,37.904636,4440.2758032,69.26,47.72,265.532
5.8951,128.176115,37.904627,4442.6593392,69.395,47.793,265.83
5.9117,128.176085,37.904617,4445.0465328,69.53,47.865,266.127
5.9285,128.176055,37.904608,4447.437384,69.665,47.937,266.426
5.9452,128.176026,37.904598,4449.831588,69.802,48.008,266.724
5.9619,128.175996,37.904589,4452.2291448,69.939,48.079,267.024
5.9786,128.175966,37.90458,4454.6303592,70.076,48.149,267.323
5.9952,128.175936,37.904571,4457.0349264,70.215,48.219,267.624
6.0119,128.175906,37.904562,4459.4431512,70.354,48.288,267.924
6.0287,128.175876,37.904553,4461.854424,70.494,48.356,268.226
6.0454,128.175847,37.904545,4464.2690496000005,70.634,48.424,268.528
6.0621,128.175817,37.904536,4466.687028,70.775,48.492,268.83
6.0788,128.175787,37.904528,4469.1083592,70.917,48.559,269.133
6.0954,128.175757,37.90452,4471.5330432,71.059,48.625,269.436
6.1121,128.175728,37.904512,4473.9607752,71.202,48.691,269.74
6.1289,128.175698,37.904504,4476.391860000001,71.346,48.756,270.044
6.1456,128.175668,37.904496,4478.8259928,71.491,48.821,270.349
6.1623,128.175638,37.904488,4481.2631736,71.636,48.885,270.655
6.179,128.175609,37.90448,4483.7037072,71.781,48.949,270.96
6.1956,128.175579,37.904473,4486.146984,71.927,49.012,271.267
6.2124,128.175549,37.904465,4488.5936136,72.074,49.074,271.574
6.2291,128.17552,37.904458,4491.0429864,72.221,49.136,271.881
6.2458,128.17549,37.904451,4493.495712000001,72.369,49.197,272.189
6.2625,128.175461,37.904444,4495.9511808,72.518,49.258,272.498
6.2791,128.175431,37.904437,4498.4093928,72.667,49.317,272.806
6.2958,128.175401,37.90443,4500.8706528,72.817,49.377,273.116
6.3126,128.175372,37.904424,4503.3349608,72.967,49.435,273.426
6.3293,128.175342,37.904417,4505.802012,73.118,49.494,273.736
6.346,128.175313,37.904411,4508.2718064,73.27,49.551,274.047
6.3627,128.175283,37.904404,4510.744344000001,73.422,49.608,274.358
6.3793,128.175254,37.904398,4513.2199296,73.574,49.664,274.67
6.3961,128.175224,37.904392,4515.6979536,73.728,49.72,274.982
6.4128,128.175195,37.904386,4518.1787208000005,73.882,49.775,275.295
6.4295,128.175166,37.90438,4520.6622312,74.036,49.829,275.608
6.4462,128.175136,37.904374,4523.1484848,74.191,49.883,275.921
6.4628,128.175107,37.904369,4525.6371768,74.347,49.936,276.235
6.4795,128.175078,37.904363,4528.128307200001,74.503,49.988,276.55
6.4963,128.175048,37.904358,4530.6221808,74.66,50.04,276.864
6.513,128.175019,37.904353,4533.1184928,74.817,50.091,277.18
6.5297,128.17499,37.904348,4535.617548,74.975,50.141,277.495
6.5464,128.174961,37.904343,4538.1187368,75.133,50.191,277.811
6.5631,128.174931,37.904338,4540.622668800001,75.293,50.24,278.128
6.5798,128.174902,37.904333,4543.1287344,75.452,50.288,278.445
6.5965,128.174873,37.904328,4545.637238400001,75.613,50.336,278.762
6.6132,128.174844,37.904324,4548.1481808,75.773,50.383,279.08
6.6299,128.174815,37.904319,4550.6615616,75.935,50.43,279.398
6.6466,128.174786,37.904315,4553.177076000001,76.097,50.476,279.716
6.6633,128.174757,37.904311,4555.694724,76.26,50.521,280.035
6.68,128.174728,37.904307,4558.2148104,76.423,50.565,280.354
6.6967,128.174699,37.904303,4560.737030400001,76.586,50.609,280.673
6.7134,128.17467,37.904299,4563.261384,76.751,50.652,280.993
6.7301,128.174641,37.904295,4565.7878712,76.915,50.695,281.313
6.7468,128.174612,37.904291,4568.316492000001,77.081,50.737,281.634
6.7635,128.174583,37.904288,4570.847246400001,77.247,50.778,281.955
6.7802,128.174554,37.904284,4573.3801344,77.413,50.818,282.276
6.7969,128.174526,37.904281,4575.9148512,77.58,50.858,282.597
6.8136,128.174497,37.904278,4578.4517016,77.747,50.898,282.919
6.8303,128.174468,37.904275,4580.9903808,77.915,50.936,283.241
6.847,128.174439,37.904272,4583.531193600001,78.084,50.974,283.563
6.8637,128.174411,37.904269,4586.073835200001,78.253,51.011,283.886
6.8804,128.174382,37.904266,4588.618305600001,78.422,51.048,284.209
6.8971,128.174354,37.904264,4591.1649096,78.592,51.084,284.532
6.9138,128.174325,37.904261,4593.7130376,78.762,51.119,284.856
6.9305,128.174297,37.904259,4596.2629944,78.933,51.153,285.179
6.9472,128.174268,37.904257,4598.814780000001,79.104,51.187,285.503
6.9639,128.17424,37.904255,4601.3683944,79.276,51.22,285.828
6.9806,128.174211,37.904253,4603.9235328,79.448,51.253,286.152
6.9973,128.174183,37.904251,4606.480500000001,79.621,51.284,286.477
7.014,128.174155,37.904249,4609.039296,79.794,51.316,286.802
7.0307,128.174126,37.904247,4611.599311200001,79.967,51.346,287.127
7.0474,128.174098,37.904246,4614.1611552,80.141,51.376,287.453
7.0641,128.17407,37.904244,4616.724828,80.316,51.405,287.778
7.0808,128.174042,37.904243,4619.28972,80.49,51.433,288.104
7.0975,128.174014,37.904242,4621.856136,80.665,51.461,288.43
7.1142,128.173986,37.90424,4624.424076,80.841,51.488,288.756
7.1309,128.173958,37.904239,4626.99354,81.016,51.514,289.083
7.1476,128.17393,37.904238,4629.564528000001,81.193,51.54,289.409
7.1643,128.173902,37.904238,4632.136735200001,81.369,51.565,289.736
7.181,128.173874,37.904237,4634.7101616,81.546,51.589,290.063
7.1977,128.173846,37.904236,4637.2854168,81.723,51.613,290.39
7.2144,128.173818,37.904236,4639.8615864,81.9,51.636,290.717
7.2311,128.173791,37.904236,4642.4392800000005,82.078,51.658,291.044
7.2478,128.173763,37.904235,4645.017888,82.256,51.679,291.371
7.2645,128.173735,37.904235,4647.59802,82.435,51.7,291.699
7.2812,128.173708,37.904235,4650.179371200001,82.613,51.721,292.027
7.2979,128.17368,37.904235,4652.761941600001,82.792,51.74,292.354
7.3146,128.173653,37.904235,4655.3454264,82.971,51.759,292.682
7.3313,128.173625,37.904236,4657.930435200001,83.151,51.777,293.01
7.348,128.173598,37.904236,4660.5160536,83.33,51.794,293.338
7.3647,128.17357,37.904237,4663.103196,83.51,51.811,293.666
7.3814,128.173543,37.904237,4665.690948,83.69,51.827,293.994
7.3981,128.173516,37.904238,4668.2799192,83.87,51.843,294.322
7.4148,128.173489,37.904239,4670.869804800001,84.051,51.857,294.65
7.4315,128.173462,37.90424,4673.4609096,84.232,51.871,294.979
7.4482,128.173434,37.904241,4676.052624,84.412,51.885,295.307
7.4649,128.173407,37.904242,4678.645557600001,84.593,51.897,295.635
7.4816,128.17338,37.904243,4681.2391008,84.775,51.909,295.963
7.4983,128.173353,37.904245,4683.8335584,84.956,51.92,296.292
7.515,128.173327,37.904246,4686.4289304,85.137,51.931,296.62
7.5317,128.1733,37.904248,4689.024912000001,85.319,51.941,296.948
7.5484,128.173273,37.904249,4691.621808,85.501,51.95,297.277
7.5651,128.173246,37.904251,4694.2193136000005,85.682,51.958,297.605
7.5818,128.173219,37.904253,4696.8174288,85.864,51.966,297.933
7.5985,128.173193,37.904255,4699.4164584,86.046,51.973,298.261
7.6152,128.173166,37.904257,4702.016097600001,86.228,51.98,298.589
7.6319,128.17314,37.904259,4704.6163464,86.41,51.986,298.917
7.6486,128.173113,37.904262,4707.2172048,86.592,51.991,299.245
7.6653,128.173087,37.904264,4709.8186728,86.774,51.995,299.573
7.682,128.17306,37.904267,4712.4207504000005,86.957,51.999,299.901
7.6987,128.173034,37.904269,4715.023132800001,87.139,52.002,300.228
7.7154,128.173008,37.904272,4717.6261248,87.321,52.004,300.556
7.7321,128.172982,37.904275,4720.2297264,87.503,52.006,300.883
7.7488,128.172956,37.904278,4722.8336328000005,87.685,52.007,301.21
7.7655,128.172929,37.904281,4725.437844,87.868,52.007,301.538
7.7822,128.172903,37.904284,4728.0426648,88.05,52.007,301.865
7.7989,128.172877,37.904287,4730.6477904,88.232,52.006,302.192
7.8156,128.172852,37.904291,4733.252916,88.414,52.004,302.518
7.8323,128.172826,37.904294,4735.8586512,88.596,52.002,302.845
7.849,128.1728,37.904298,4738.464691200001,88.778,51.999,303.171
7.8657,128.172774,37.904301,4741.071036,88.959,51.995,303.497
7.8824,128.172749,37.904305,4743.6773808,89.141,51.991,303.823
7.8991,128.172723,37.904309,4746.2840304,89.323,51.986,304.149
7.9158,128.172697,37.904313,4748.8909848,89.504,51.98,304.475
7.9325,128.172672,37.904317,4751.4979392000005,89.685,51.974,304.8
7.9492,128.172647,37.904321,4754.1051984000005,89.867,51.967,305.125
7.9659,128.172621,37.904326,4756.712152800001,90.048,51.959,305.45
7.9826,128.172596,37.90433,4759.319716800001,90.229,51.951,305.775
7.9993,128.172571,37.904334,4761.926976000001,90.409,51.942,306.1
8.016,128.172545,37.904339,4764.534235200001,90.59,51.932,306.424
8.0327,128.17252,37.904344,4767.1414944,90.77,51.922,306.748
8.0494,128.172495,37.904348,4769.7490584,90.951,51.911,307.072
8.0661,128.17247,37.904353,4772.3563176,91.131,51.899,307.395
8.0828,128.172445,37.904358,4774.963272,91.311,51.887,307.718
8.0994,128.172421,37.904363,4777.5705312,91.49,51.874,308.041
8.1161,128.172396,37.904368,4780.1774856,91.67,51.86,308.364
8.1329,128.172371,37.904374,4782.7841352000005,91.849,51.846,308.686
8.1496,128.172346,37.904379,4785.390784800001,92.028,51.831,309.008
8.1663,128.172322,37.904385,4787.9971296,92.207,51.815,309.33
8.183,128.172297,37.90439,4790.6031696,92.385,51.799,309.652
8.1997,128.172273,37.904396,4793.208904800001,92.563,51.782,309.973
8.2164,128.172249,37.904401,4795.81464,92.741,51.764,310.294
8.2331,128.172224,37.904407,4798.419765600001,92.919,51.746,310.614
8.2498,128.1722,37.904413,4801.024891200001,93.096,51.728,310.935
8.2665,128.172176,37.904419,4803.6294072,93.273,51.708,311.254
8.2831,128.172152,37.904425,4806.2336184000005,93.45,51.688,311.574
8.2998,128.172128,37.904432,4808.83722,93.626,51.667,311.893
8.3166,128.172104,37.904438,4811.4405168,93.802,51.646,312.212
8.3333,128.17208,37.904444,4814.0435088,93.978,51.624,312.53
8.35,128.172056,37.904451,4816.6455864,94.154,51.601,312.848
8.3667,128.172032,37.904458,4819.247664,94.329,51.578,313.166
8.3834,128.172008,37.904464,4821.8488272,94.504,51.554,313.483
8.4001,128.171985,37.904471,4824.4496856,94.678,51.53,313.8
8.4168,128.171961,37.904478,4827.0496296,94.852,51.505,314.116
8.4335,128.171938,37.904485,4829.649268800001,95.026,51.479,314.433
8.4502,128.171914,37.904492,4832.248298400001,95.199,51.453,314.748
8.4668,128.171891,37.904499,4834.8464136,95.372,51.426,315.063
8.4835,128.171868,37.904506,4837.443919200001,95.544,51.398,315.378
8.5003,128.171844,37.904514,4840.0408152,95.716,51.37,315.692
8.517,128.171821,37.904521,4842.6367968,95.888,51.341,316.006
8.5337,128.171798,37.904529,4845.2321688,96.059,51.312,316.319
8.5504,128.171775,37.904536,4847.8269312,96.229,51.282,316.632
8.5671,128.171752,37.904544,4850.4204744,96.4,51.251,316.945
8.5838,128.17173,37.904552,4853.013408,96.569,51.22,317.257
8.6005,128.171707,37.90456,4855.605732,96.739,51.188,317.568
8.6172,128.171684,37.904568,4858.196836800001,96.908,51.156,317.879
8.6339,128.171661,37.904576,4860.7870272,97.076,51.123,318.19
8.6505,128.171639,37.904584,4863.376608,97.244,51.089,318.5
8.6672,128.171616,37.904592,4865.9649696,97.411,51.055,318.809
8.684,128.171594,37.904601,4868.5524168,97.578,51.02,319.118
8.7007,128.171572,37.904609,4871.1386448,97.745,50.985,319.427
8.7174,128.171549,37.904617,4873.7242632,97.911,50.949,319.735
8.7341,128.171527,37.904626,4876.308662400001,98.076,50.913,320.042
8.7508,128.171505,37.904635,4878.8918424,98.241,50.876,320.349
8.7675,128.171483,37.904644,4881.474108,98.405,50.838,320.656
8.7842,128.171461,37.904652,4884.0551544,98.569,50.8,320.962
8.8009,128.171439,37.904661,4886.6352864,98.732,50.761,321.267
8.8176,128.171418,37.90467,4889.2141992,98.895,50.722,321.572
8.8342,128.171396,37.90468,4891.7918928,99.057,50.682,321.876
8.8509,128.171374,37.904689,4894.368062400001,99.219,50.641,322.18
8.8676,128.171353,37.904698,4896.9433176,99.38,50.6,322.483
8.8844,128.171331,37.904708,4899.5173536,99.54,50.559,322.785
8.9011,128.17131,37.904717,4902.0901704,99.7,50.517,323.087
8.9178,128.171288,37.904727,4904.6614632,99.859,50.474,323.389
8.9345,128.171267,37.904736,4907.2315368,100.018,50.431,323.689
8.9512,128.171246,37.904746,4909.8003912,100.176,50.387,323.99
8.9679,128.171225,37.904756,4912.3677216,100.334,50.343,324.289
8.9846,128.171204,37.904766,4914.9335280000005,100.491,50.298,324.588
9.0013,128.171183,37.904776,4917.4981152,100.647,50.253,324.887
9.0179,128.171162,37.904786,4920.0614832,100.803,50.207,325.185
9.0346,128.171141,37.904796,4922.6230224,100.958,50.16,325.482
9.0513,128.171121,37.904806,4925.1833424,101.112,50.113,325.779
9.0681,128.1711,37.904816,4927.7421384,101.266,50.066,326.075
9.0848,128.171079,37.904827,4930.2994104,101.419,50.018,326.37
9.1015,128.171059,37.904837,4932.8551584,101.572,49.969,326.665
9.1182,128.171039,37.904848,4935.4090776,101.724,49.92,326.96
9.1349,128.171018,37.904859,4937.9617776000005,101.875,49.871,327.253
9.1516,128.170998,37.904869,4940.5126488000005,102.026,49.821,327.546
9.1683,128.170978,37.90488,4943.061996,102.176,49.77,327.839
9.185,128.170958,37.904891,4945.6095144,102.326,49.719,328.13
9.2016,128.170938,37.904902,4948.1555088000005,102.474,49.667,328.422
9.2183,128.170918,37.904913,4950.699979200001,102.622,49.615,328.712
9.235,128.170898,37.904924,4953.242620800001,102.77,49.563,329.002
9.2518,128.170879,37.904935,4955.7834336000005,102.917,49.51,329.291
9.2685,128.170859,37.904947,4958.3224176,103.063,49.456,329.58
9.2852,128.170839,37.904958,4960.8598776,103.208,49.402,329.868
9.3019,128.17082,37.904969,4963.3955088,103.353,49.348,330.155
9.3186,128.170801,37.904981,4965.9293112000005,103.497,49.293,330.442
9.3353,128.170781,37.904993,4968.460980000001,103.641,49.237,330.728
9.352,128.170762,37.905004,4970.9911248,103.783,49.181,331.014
9.3687,128.170743,37.905016,4973.519440800001,103.926,49.125,331.298
9.3854,128.170724,37.905028,4976.045623200001,104.067,49.068,331.583
9.402,128.170705,37.90504,4978.5699768,104.208,49.011,331.866
9.4187,128.170686,37.905052,4981.0925016,104.348,48.953,332.149
9.4355,128.170667,37.905064,4983.6128928,104.487,48.894,332.431
9.4522,128.170649,37.905076,4986.1314552,104.626,48.836,332.713
9.4689,128.17063,37.905088,4988.647884,104.764,48.777,332.993
9.4856,128.170611,37.905101,4991.162484,104.901,48.717,333.274
9.5023,128.170593,37.905113,4993.6746456,105.038,48.657,333.553
9.519,128.170575,37.905125,4996.1852832,105.173,48.596,333.832
9.5357,128.170556,37.905138,4998.6934824,105.309,48.535,334.111
9.5524,128.170538,37.90515,5001.199548,105.443,48.474,334.388
9.5691,128.17052,37.905163,5003.7037848,105.577,48.412,334.665
9.5857,128.170502,37.905176,5006.205583200001,105.71,48.35,334.941
9.6024,128.170484,37.905189,5008.7055528,105.842,48.287,335.217
9.6192,128.170466,37.905202,5011.203084000001,105.974,48.224,335.492
9.6359,128.170448,37.905215,5013.6984816,106.105,48.16,335.766
9.6526,128.170431,37.905228,5016.1917456,106.235,48.096,336.04
9.6693,128.170413,37.905241,5018.6825712,106.365,48.032,336.313
9.686,128.170396,37.905254,5021.1712632,106.493,47.967,336.585
9.7027,128.170378,37.905267,5023.6578216,106.622,47.902,336.857
9.7194,128.170361,37.90528,5026.141941600001,106.749,47.836,337.128
9.7361,128.170344,37.905294,5028.6236232,106.876,47.77,337.398
9.7528,128.170326,37.905307,5031.103171199999,107.002,47.704,337.668
9.7694,128.170309,37.905321,5033.5805856,107.127,47.637,337.937
9.7861,128.170292,37.905335,5036.055256800001,107.251,47.57,338.205
9.8029,128.170275,37.905348,5038.5274896,107.375,47.502,338.473
9.8196,128.170259,37.905362,5040.9975888,107.498,47.434,338.74
9.8363,128.170242,37.905376,5043.4652496,107.62,47.365,339.007
9.853,128.170225,37.90539,5045.930472,107.742,47.297,339.272
9.8697,128.170209,37.905404,5048.3929512,107.863,47.227,339.537
9.8864,128.170192,37.905418,5050.853296800001,107.983,47.158,339.802
9.9031,128.170176,37.905432,5053.3108992,108.102,47.088,340.066
9.9198,128.17016,37.905446,5055.7660632,108.221,47.017,340.329
9.9365,128.170143,37.90546,5058.2187888,108.339,46.947,340.591
9.9531,128.170127,37.905474,5060.6687712,108.456,46.876,340.853
9.9698,128.170111,37.905489,5063.116315200001,108.572,46.804,341.114
9.9865,128.170095,37.905503,5065.5614208,108.688,46.732,341.375
10.0033,128.17008,37.905518,5068.003783200001,108.803,46.66,341.634
10.02,128.170064,37.905532,5070.443402399999,108.917,46.588,341.894
10.0367,128.170048,37.905547,5072.880278400001,109.031,46.515,342.152
10.0534,128.170033,37.905562,5075.314716,109.144,46.441,342.41
10.0701,128.170017,37.905576,5077.746715200001,109.256,46.368,342.667
10.0868,128.170002,37.905591,5080.1756663999995,109.367,46.294,342.924
10.1035,128.169987,37.905606,5082.6018744,109.478,46.22,343.18
10.1202,128.169971,37.905621,5085.025644,109.588,46.145,343.435
10.1368,128.169956,37.905636,5087.446365600001,109.697,46.07,343.69
10.1535,128.169941,37.905651,5089.8646488,109.805,45.995,343.944
10.1702,128.169926,37.905666,5092.2798840000005,109.913,45.919,344.197
10.187,128.169912,37.905682,5094.692376,110.02,45.843,344.45
10.2037,128.169897,37.905697,5097.102124800001,110.126,45.767,344.702
10.2204,128.169882,37.905712,5099.5091304,110.232,45.69,344.953
10.2371,128.169868,37.905728,5101.913088,110.337,45.613,345.204
10.2538,128.169853,37.905743,5104.3143024,110.441,45.536,345.454
10.2705,128.169839,37.905759,5106.7127736,110.544,45.458,345.704
10.2872,128.169825,37.905774,5109.108196800001,110.646,45.38,345.953
10.3039,128.16981,37.90579,5111.500572,110.748,45.302,346.201
10.3205,128.169796,37.905806,5113.890204,110.849,45.223,346.449
10.3372,128.169782,37.905821,5116.276788000001,110.95,45.144,346.696
10.3539,128.169768,37.905837,5118.660324,111.049,45.065,346.942
10.3707,128.169755,37.905853,5121.0411168,111.148,44.986,347.188
10.3874,128.169741,37.905869,5123.4188616,111.246,44.906,347.433
10.4041,128.169727,37.905885,5125.7935584,111.344,44.826,347.678
10.4208,128.169714,37.905901,5128.1652072,111.441,44.746,347.921
10.4375,128.1697,37.905917,5130.533808,111.537,44.665,348.165
10.4542,128.169687,37.905934,5132.899360800001,111.632,44.584,348.408
10.4709,128.169674,37.90595,5135.2618656,111.727,44.503,348.65
10.4876,128.16966,37.905966,5137.6213224,111.821,44.421,348.891
10.5042,128.169647,37.905983,5139.977731200001,111.914,44.339,349.133
10.5209,128.169634,37.905999,5142.3307872000005,112.007,44.257,349.373
10.5376,128.169622,37.906015,5144.6807952,112.099,44.174,349.613
10.5544,128.169609,37.906032,5147.027755200001,112.191,44.092,349.853
10.5711,128.169596,37.906049,5149.3716672,112.282,44.009,350.092
10.5878,128.169583,37.906065,5151.7122264,112.372,43.925,350.33
10.6045,128.169571,37.906082,5154.0494328,112.462,43.842,350.568
10.6212,128.169559,37.906099,5156.3835912,112.551,43.758,350.805
10.6379,128.169546,37.906116,5158.714396800001,112.639,43.673,351.042
10.6546,128.169534,37.906132,5161.0421544,112.727,43.589,351.279
10.6713,128.169522,37.906149,5163.366559200001,112.814,43.504,351.514
10.6879,128.16951,37.906166,5165.687916,112.901,43.419,351.75
10.7046,128.169498,37.906183,5168.005615200001,112.987,43.334,351.984
10.7213,128.169486,37.906201,5170.3202664,113.072,43.248,352.219
10.7381,128.169474,37.906218,5172.631564800001,113.157,43.162,352.452
10.7548,128.169463,37.906235,5174.9395104000005,113.241,43.076,352.685
10.7715,128.169451,37.906252,5177.2441032,113.325,42.99,352.918
10.7882,128.16944,37.906269,5179.5453431999995,113.407,42.903,353.15
10.8049,128.169428,37.906287,5181.8432304,113.49,42.816,353.382
10.8216,128.169417,37.906304,5184.137460000001,113.571,42.729,353.613
10.8383,128.169406,37.906322,5186.4286416,113.652,42.642,353.843
10.855,128.169395,37.906339,5188.716165600001,113.733,42.554,354.074
10.8717,128.169384,37.906357,5191.000336800001,113.812,42.466,354.303
10.8883,128.169373,37.906374,5193.2811552,113.892,42.378,354.532
10.905,128.169362,37.906392,5195.5586207999995,113.97,42.29,354.761
10.9218,128.169351,37.90641,5197.8324288,114.048,42.201,354.989
10.9385,128.169341,37.906428,5200.102579200001,114.125,42.112,355.216
10.9552,128.16933,37.906445,5202.3693768,114.202,42.023,355.443
10.9719,128.16932,37.906463,5204.6328216,114.278,41.934,355.67
10.9886,128.16931,37.906481,5206.8926088,114.353,41.844,355.896
11.0053,128.169299,37.906499,5209.148738400001,114.428,41.755,356.121
11.022,128.169289,37.906517,5211.401515200001,114.502,41.664,356.346
11.0387,128.169279,37.906535,5213.6506344,114.575,41.574,356.57
11.0554,128.169269,37.906554,5215.896096,114.648,41.484,356.794
11.072,128.169259,37.906572,5218.1382048000005,114.72,41.393,357.018
11.0887,128.16925,37.90659,5220.3763512000005,114.791,41.302,357.241
11.1054,128.16924,37.906608,5222.6111448,114.862,41.211,357.463
11.1222,128.169231,37.906626,5224.841976,114.932,41.12,357.685
11.1389,128.169221,37.906645,5227.0694544,115.002,41.028,357.907
11.1556,128.169212,37.906663,5229.2932752,115.071,40.936,358.127
11.1723,128.169202,37.906682,5231.5131336,115.139,40.845,358.348
11.189,128.169193,37.9067,5233.7296392,115.207,40.752,358.568
11.2057,128.169184,37.906719,5235.9421824,115.274,40.66,358.787
11.2224,128.169175,37.906737,5238.151068,115.34,40.567,359.006
11.2391,128.169166,37.906756,5240.356296000001,115.406,40.475,359.225
11.2557,128.169158,37.906775,5242.5575616,115.471,40.382,359.443
11.2724,128.169149,37.906793,5244.755474400001,115.535,40.289,359.66
11.2891,128.16914,37.906812,5246.949424800001,115.599,40.195,359.878
11.3059,128.169132,37.906831,5249.1394128,115.662,40.102,0.094
11.3226,128.169124,37.90685,5251.3257432,115.725,40.008,0.31
11.3393,128.169115,37.906869,5253.508111200001,115.786,39.914,0.526
11.356,128.169107,37.906888,5255.6868216,115.848,39.82,0.741
11.3727,128.169099,37.906907,5257.8618744000005,115.908,39.726,0.956
11.3894,128.169091,37.906926,5260.032964800001,115.968,39.632,1.17
11.4061,128.169083,37.906945,5262.200092800001,116.027,39.537,1.384
11.4228,128.169075,37.906964,5264.3632584,116.086,39.442,1.597
11.4394,128.169068,37.906983,5266.522766399999,116.144,39.347,1.81
11.4561,128.16906,37.907002,5268.678312,116.201,39.252,2.022
11.4728,128.169053,37.907022,5270.8298952000005,116.258,39.157,2.234
11.4896,128.169045,37.907041,5272.977516,116.314,39.062,2.446
11.5063,128.169038,37.90706,5275.121174400001,116.369,38.966,2.657
11.523,128.169031,37.90708,5277.2608704,116.424,38.87,2.868
11.5397,128.169024,37.907099,5279.3969088,116.478,38.774,3.078
11.5564,128.169016,37.907118,5281.528679999999,116.531,38.678,3.287
11.5731,128.16901,37.907138,5283.6567936,116.584,38.582,3.497
11.5898,128.169003,37.907157,5285.78064,116.636,38.486,3.706
11.6065,128.168996,37.907177,5287.900524000001,116.687,38.389,3.914
11.6231,128.168989,37.907197,5290.0164456,116.738,38.293,4.122
11.6398,128.168983,37.907216,5292.128404800001,116.789,38.196,4.329
11.6565,128.168976,37.907236,5294.2360968,116.838,38.099,4.537
11.6733,128.16897,37.907256,5296.3398264,116.887,38.002,4.743
11.69,128.168964,37.907275,5298.4395936,116.936,37.905,4.949
11.7067,128.168958,37.907295,5300.5353984,116.983,37.807,5.155
11.7234,128.168952,37.907315,5302.626936000001,117.031,37.71,5.361
11.7401,128.168946,37.907335,5304.714511200001,117.077,37.612,5.566
11.7568,128.16894,37.907355,5306.797819200001,117.123,37.514,5.77
11.7735,128.168934,37.907375,5308.8771648,117.168,37.416,5.974
11.7902,128.168929,37.907395,5310.952243199999,117.213,37.318,6.178
11.8068,128.168923,37.907415,5313.0233592,117.257,37.22,6.382
11.8235,128.168918,37.907435,5315.090208,117.3,37.122,6.585
11.8402,128.168912,37.907455,5317.1527896,117.343,37.024,6.787
11.857,128.168907,37.907475,5319.2114088,117.385,36.925,6.989
11.8737,128.168902,37.907495,5321.265760800001,117.426,36.827,7.191
11.8904,128.168897,37.907515,5323.3158456,117.467,36.728,7.392
11.9071,128.168892,37.907536,5325.361968,117.508,36.629,7.593
11.9238,128.168887,37.907556,5327.4038232,117.547,36.53,7.794
11.9405,128.168882,37.907576,5329.4414112,117.586,36.431,7.994
11.9572,128.168878,37.907596,5331.474732000001,117.625,36.332,8.194
11.9739,128.168873,37.907617,5333.5037856,117.663,36.233,8.393
11.9905,128.168869,37.907637,5335.528572,117.7,36.133,8.592
12.0072,128.168864,37.907658,5337.549396,117.736,36.034,8.791
12.0239,128.16886,37.907678,5339.565648,117.772,35.934,8.989
12.0407,128.168856,37.907698,5341.5776328,117.808,35.834,9.187
12.0574,128.168852,37.907719,5343.585350400001,117.843,35.735,9.385
12.0741,128.168848,37.90774,5345.5888008,117.877,35.635,9.582
12.0908,128.168844,37.90776,5347.587984000001,117.91,35.535,9.779
12.1075,128.16884,37.907781,5349.5829,117.943,35.435,9.975
12.1242,128.168837,37.907801,5351.5735488,117.976,35.334,10.171
12.1409,128.168833,37.907822,5353.5596256,118.008,35.234,10.367
12.1576,128.16883,37.907843,5355.5414352,118.039,35.134,10.562
12.1743,128.168826,37.907863,5357.518977600001,118.07,35.033,10.757
12.1909,128.168823,37.907884,5359.4922528,118.1,34.933,10.952
12.2076,128.16882,37.907905,5361.460956000001,118.129,34.832,11.146
12.2243,128.168817,37.907926,5363.425392,118.158,34.732,11.34
12.2411,128.168814,37.907947,5365.3852560000005,118.186,34.631,11.534
12.2578,128.168811,37.907967,5367.3408528,118.214,34.53,11.727
12.2745,128.168808,37.907988,5369.2921824000005,118.241,34.429,11.92
12.2912,128.168805,37.908009,5371.23894,118.268,34.328,12.113
12.3079,128.168803,37.90803,5373.1811256,118.294,34.227,12.305
12.3246,128.1688,37.908051,5375.1193488,118.319,34.126,12.497
12.3413,128.168798,37.908072,5377.0526952,118.344,34.025,12.689
12.358,128.168796,37.908093,5378.981774400001,118.368,33.924,12.88
12.3746,128.168793,37.908114,5380.9062816000005,118.392,33.822,13.071
12.3913,128.168791,37.908135,5382.8265216,118.415,33.721,13.262
12.408,128.168789,37.908156,5384.7418848,118.438,33.619,13.452
12.4248,128.168788,37.908178,5386.6532856,118.46,33.518,13.642
12.4415,128.168786,37.908199,5388.5598096,118.481,33.416,13.832
12.4582,128.168784,37.90822,5390.4620663999995,118.502,33.315,14.021
12.4749,128.168782,37.908241,5392.359751200001,118.522,33.213,14.21
12.4916,128.168781,37.908262,5394.252864,118.542,33.111,14.399
12.5083,128.16878,37.908284,5396.141404800001,118.561,33.009,14.587
12.525,128.168778,37.908305,5398.0253736,118.58,32.908,14.776
12.5417,128.168777,37.908326,5399.905075199999,118.598,32.806,14.964
12.5583,128.168776,37.908347,5401.7799,118.615,32.704,15.151
12.575,128.168775,37.908369,5403.6504576,118.632,32.602,15.338
12.5917,128.168774,37.90839,5405.516138400001,118.649,32.5,15.525
12.6085,128.168773,37.908412,5407.377552000001,118.664,32.398,15.712
12.6252,128.168773,37.908433,5409.2343936,118.68,32.296,15.899
12.6419,128.168772,37.908454,5411.0863584,118.695,32.194,16.085
12.6586,128.168771,37.908476,5412.934056000001,118.709,32.091,16.271
12.6753,128.168771,37.908497,5414.7768768000005,118.722,31.989,16.456
12.692,128.168771,37.908519,5416.6151256,118.736,31.887,16.641
12.7087,128.168771,37.90854,5418.4488024,118.748,31.785,16.826
12.7254,128.16877,37.908562,5420.277907199999,118.76,31.682,17.011
12.742,128.16877,37.908583,5422.10244,118.772,31.58,17.196
12.7587,128.168771,37.908605,5423.9224008,118.783,31.477,17.38
12.7754,128.168771,37.908627,5425.7374848,118.793,31.375,17.564
12.7922,128.168771,37.908648,5427.547996800001,118.803,31.273,17.747
12.8089,128.168771,37.90867,5429.3539368,118.812,31.17,17.931
12.8256,128.168772,37.908692,5431.1553048000005,118.821,31.068,18.114
12.8423,128.168772,37.908713,5432.951796,118.83,30.965,18.297
12.859,128.168773,37.908735,5434.7437152,118.837,30.863,18.479
12.8757,128.168774,37.908757,5436.5307576,118.845,30.76,18.662
12.8924,128.168775,37.908778,5438.313228000001,118.851,30.658,18.844
12.9091,128.168776,37.9088,5440.0911264,118.858,30.555,19.026
12.9257,128.168777,37.908822,5441.864148,118.863,30.452,19.207
12.9424,128.168778,37.908844,5443.632597600001,118.868,30.35,19.389
12.9591,128.168779,37.908865,5445.396170400001,118.873,30.247,19.57
12.9759,128.168781,37.908887,5447.1551712,118.877,30.145,19.751
12.9926,128.168782,37.908909,5448.9096,118.881,30.042,19.931
13.0093,128.168784,37.908931,5450.6588472,118.884,29.939,20.112
13.026,128.168785,37.908953,5452.403827200001,118.887,29.837,20.292
13.0427,128.168787,37.908975,5454.1436256,118.889,29.734,20.472
13.0594,128.168789,37.908996,5455.878852000001,118.89,29.632,20.652
13.0761,128.168791,37.909018,5457.609506400001,118.891,29.529,20.831
13.0928,128.168793,37.90904,5459.335284000001,118.892,29.426,21.01
13.1095,128.168795,37.909062,5461.0561848,118.892,29.324,21.189
13.1262,128.168797,37.909084,5462.7725136,118.891,29.221,21.368
13.1429,128.1688,37.909106,5464.4839656,118.89,29.118,21.547
13.1596,128.168802,37.909128,5466.1905408,118.889,29.016,21.725
13.1763,128.168805,37.90915,5467.8922391999995,118.887,28.913,21.904
13.193,128.168807,37.909172,5469.589365600001,118.884,28.811,22.081
13.2097,128.16881,37.909194,5471.2816152000005,118.881,28.708,22.259
13.2264,128.168813,37.909216,5472.9689880000005,118.878,28.606,22.437
13.2431,128.168816,37.909238,5474.6517888,118.874,28.503,22.614
13.2598,128.168819,37.90926,5476.329408,118.869,28.401,22.791
13.2765,128.168822,37.909282,5478.0024552,118.864,28.298,22.968
13.2932,128.168825,37.909304,5479.6706256,118.858,28.196,23.145
13.3099,128.168829,37.909326,5481.3339192,118.852,28.093,23.321
13.3266,128.168832,37.909348,5482.9926408,118.846,27.991,23.498
13.3433,128.168835,37.90937,5484.6461808,118.839,27.888,23.674
13.36,128.168839,37.909392,5486.294844,118.831,27.786,23.85
13.3767,128.168843,37.909414,5487.9389352,118.823,27.683,24.026
13.3934,128.168847,37.909437,5489.5781496,118.815,27.581,24.201
13.4101,128.168851,37.909459,5491.2121824000005,118.806,27.479,24.377
13.4268,128.168855,37.909481,5492.841643199999,118.796,27.376,24.552
13.4435,128.168859,37.909503,5494.4662272000005,118.786,27.274,24.727
13.4602,128.168863,37.909525,5496.0859344,118.776,27.172,24.902
13.4769,128.168867,37.909547,5497.700460000001,118.765,27.07,25.076
13.4936,128.168872,37.909569,5499.3104136,118.753,26.968,25.251
13.5103,128.168876,37.909592,5500.9154904,118.741,26.865,25.425
13.527,128.168881,37.909614,5502.5153856,118.729,26.763,25.599
13.5437,128.168885,37.909636,5504.1107088,118.716,26.661,25.773
13.5604,128.16889,37.909658,5505.7011552,118.702,26.559,25.947
13.5771,128.168895,37.90968,5507.28642,118.688,26.457,26.12
13.5938,128.1689,37.909703,5508.866808,118.674,26.355,26.294
13.6105,128.168905,37.909725,5510.442624,118.659,26.254,26.467
13.6272,128.16891,37.909747,5512.0132584,118.644,26.152,26.64
13.6439,128.168915,37.909769,5513.579016,118.628,26.05,26.813
13.6606,128.168921,37.909791,5515.1398968,118.612,25.948,26.986
13.6773,128.168926,37.909814,5516.6955960000005,118.595,25.847,27.159
13.694,128.168932,37.909836,5518.246723200001,118.577,25.745,27.331
13.7107,128.168937,37.909858,5519.792668800001,118.56,25.643,27.503
13.7274,128.168943,37.90988,5521.333737600001,118.541,25.542,27.676
13.7441,128.168949,37.909903,5522.8699295999995,118.523,25.44,27.848
13.7608,128.168955,37.909925,5524.4012448,118.504,25.339,28.02
13.7775,128.168961,37.909947,5525.927378400001,118.484,25.238,28.191
13.7942,128.168967,37.909969,5527.44894,118.464,25.136,28.363
13.8109,128.168973,37.909992,5528.965320000001,118.443,25.035,28.534
13.8276,128.16898,37.910014,5530.476518400001,118.422,24.934,28.706
13.8443,128.168986,37.910036,5531.9831448,118.401,24.833,28.877
13.861,128.168993,37.910058,5533.4845896,118.379,24.732,29.048
13.8777,128.168999,37.910081,5534.9811576,118.356,24.631,29.219
13.8944,128.169006,37.910103,5536.4728488,118.333,24.53,29.389
13.9111,128.169013,37.910125,5537.9593584,118.31,24.429,29.56
13.9278,128.16902,37.910147,5539.4409912,118.286,24.328,29.731
13.9445,128.169027,37.91017,5540.917747200001,118.261,24.228,29.901
13.9612,128.169034,37.910192,5542.3893216,118.237,24.127,30.071
13.9779,128.169041,37.910214,5543.8560192,118.211,24.027,30.241
13.9946,128.169048,37.910236,5545.31784,118.186,23.926,30.411
14.0113,128.169056,37.910259,5546.7744792,118.159,23.826,30.581
14.028,128.169063,37.910281,5548.2262416,118.133,23.725,30.751
14.0447,128.169071,37.910303,5549.673127200001,118.106,23.625,30.92
14.0614,128.169078,37.910326,5551.1148312000005,118.078,23.525,31.09
14.0781,128.169086,37.910348,5552.5516584,118.05,23.425,31.259
14.0948,128.169094,37.91037,5553.9836088,118.021,23.325,31.429
14.1115,128.169102,37.910392,5555.4103776,117.992,23.225,31.598
14.1282,128.16911,37.910415,5556.831964800001,117.963,23.125,31.767
14.1449,128.169118,37.910437,5558.248979999999,117.933,23.026,31.936
14.1616,128.169126,37.910459,5559.6608136,117.903,22.926,32.104
14.1783,128.169134,37.910481,5561.067465600001,117.872,22.826,32.273
14.195,128.169143,37.910504,5562.4692408,117.841,22.727,32.442
14.2117,128.169151,37.910526,5563.866139199999,117.809,22.628,32.61
14.2284,128.16916,37.910548,5565.257856000001,117.777,22.528,32.779
14.2451,128.169169,37.91057,5566.644696,117.744,22.429,32.947
14.2618,128.169177,37.910592,5568.0263544,117.711,22.33,33.115
14.2785,128.169186,37.910615,5569.403136,117.678,22.231,33.283
14.2952,128.169195,37.910637,5570.774736,117.644,22.132,33.451
14.3119,128.169204,37.910659,5572.1414592,117.61,22.034,33.619
14.3286,128.169214,37.910681,5573.5033056,117.575,21.935,33.787
14.3453,128.169223,37.910703,5574.859970400001,117.539,21.836,33.955
14.362,128.169232,37.910726,5576.2114536,117.504,21.738,34.122
14.3787,128.169242,37.910748,5577.55806,117.468,21.64,34.29
14.3954,128.169251,37.91077,5578.8997896,117.431,21.541,34.457
14.4121,128.169261,37.910792,5580.2363376,117.394,21.443,34.625
14.4288,128.169271,37.910814,5581.5680088,117.356,21.345,34.792
14.4455,128.16928,37.910836,5582.8944984,117.318,21.247,34.959
14.4622,128.16929,37.910859,5584.2158064000005,117.28,21.15,35.126
14.4789,128.1693,37.910881,5585.5325424,117.241,21.052,35.293
14.4956,128.16931,37.910903,5586.843792000001,117.202,20.954,35.46
14.5123,128.169321,37.910925,5588.1501648,117.162,20.857,35.627
14.529,128.169331,37.910947,5589.4516608,117.122,20.76,35.794
14.5457,128.169341,37.910969,5590.7479752,117.082,20.662,35.96
14.5624,128.169352,37.910991,5592.0394128,117.041,20.565,36.127
14.5791,128.169362,37.911013,5593.3256688,116.999,20.468,36.293
14.5958,128.169373,37.911035,5594.607048,116.957,20.372,36.46
14.6125,128.169384,37.911058,5595.8832456,116.915,20.275,36.626
14.6292,128.169394,37.91108,5597.1545664,116.872,20.178,36.793
14.6459,128.169405,37.911102,5598.4207056000005,116.829,20.082,36.959
14.6626,128.169416,37.911124,5599.681968,116.785,19.985,37.125
14.6793,128.169428,37.911146,5600.9380488,116.741,19.889,37.291
14.696,128.169439,37.911168,5602.1892528,116.697,19.793,37.457
14.7127,128.16945,37.91119,5603.4352751999995,116.652,19.697,37.623
14.7294,128.169461,37.911212,5604.6764207999995,116.607,19.601,37.789
14.7461,128.169473,37.911234,5605.9123848,116.561,19.506,37.955
14.7628,128.169484,37.911256,5607.143472,116.515,19.41,38.121
14.7795,128.169496,37.911278,5608.3693776,116.468,19.315,38.287
14.7962,128.169508,37.911299,5609.590406400001,116.421,19.22,38.453
14.8129,128.16952,37.911321,5610.8062536,116.374,19.124,38.618
14.8296,128.169532,37.911343,5612.017224,116.326,19.029,38.784
14.8463,128.169544,37.911365,5613.2230128,116.277,18.935,38.949
14.863,128.169556,37.911387,5614.4239248,116.229,18.84,39.115
14.8797,128.169568,37.911409,5615.6196552,116.179,18.745,39.28
14.8964,128.16958,37.911431,5616.8105088,116.13,18.651,39.446
14.9131,128.169593,37.911453,5617.9961808,116.08,18.557,39.611
14.9298,128.169605,37.911474,5619.176976,116.029,18.463,39.776
14.9465,128.169618,37.911496,5620.3528944,115.979,18.369,39.942
14.9632,128.16963,37.911518,5621.5236312,115.927,18.275,40.107
14.9799,128.169643,37.91154,5622.6891864,115.876,18.181,40.272
14.9966,128.169656,37.911562,5623.8498648,115.823,18.088,40.437
15.0133,128.169669,37.911583,5625.005666399999,115.771,17.994,40.602
15.03,128.169682,37.911605,5626.156286400001,115.718,17.901,40.767
15.0467,128.169695,37.911627,5627.3020295999995,115.665,17.808,40.932
15.0634,128.169708,37.911648,5628.442591200001,115.611,17.715,41.097
15.0801,128.169721,37.91167,5629.578276,115.557,17.623,41.262
15.0968,128.169735,37.911692,5630.708779200001,115.502,17.53,41.427
15.1135,128.169748,37.911713,5631.8344056000005,115.447,17.438,41.592
15.1302,128.169762,37.911735,5632.9551552,115.392,17.345,41.756
15.1469,128.169775,37.911757,5634.0707232,115.336,17.253,41.921
15.1636,128.169789,37.911778,5635.1811096,115.28,17.161,42.086
15.1803,128.169803,37.9118,5636.286924000001,115.223,17.07,42.251
15.197,128.169817,37.911821,5637.387556800001,115.166,16.978,42.415
15.2137,128.169831,37.911843,5638.483008,115.108,16.887,42.58
15.2304,128.169845,37.911864,5639.5735824,115.051,16.795,42.744
15.2471,128.169859,37.911886,5640.65928,114.992,16.704,42.909
15.2638,128.169873,37.911907,5641.740100800001,114.934,16.613,43.074
15.2805,128.169888,37.911929,5642.81574,114.875,16.523,43.238
15.2972,128.169902,37.91195,5643.886197600001,114.815,16.432,43.403
15.3139,128.169917,37.911972,5644.952083200001,114.755,16.342,43.567
15.3306,128.169931,37.911993,5646.0127872,114.695,16.252,43.731
15.3473,128.169946,37.912014,5647.0686144,114.634,16.162,43.896
15.364,128.169961,37.912036,5648.11926,114.573,16.072,44.06
15.3807,128.169976,37.912057,5649.165028800001,114.512,15.982,44.225
15.3974,128.169991,37.912078,5650.2059208,114.45,15.893,44.389
15.4141,128.170006,37.9121,5651.2416312000005,114.388,15.803,44.553
15.4308,128.170021,37.912121,5652.272769600001,114.325,15.714,44.718
15.4475,128.170036,37.912142,5653.2987264,114.262,15.625,44.882
15.4642,128.170051,37.912163,5654.319501600001,114.198,15.537,45.046
15.4809,128.170067,37.912185,5655.335704800001,114.134,15.448,45.21
15.4976,128.170082,37.912206,5656.3467264,114.07,15.36,45.375
15.5143,128.170098,37.912227,5657.3528712,114.006,15.271,45.539
15.531,128.170113,37.912248,5658.3538344,113.941,15.183,45.703
15.5477,128.170129,37.912269,5659.3502256,113.875,15.096,45.867
