Time,Longitude,Latitude,Altitude,Roll (deg),Pitch (deg),Yaw (deg)
0.0,128.181313,37.914631,4000.0467624000003,0.0,-0.003,0.0
0.0167,128.181313,37.914669,4000.05804,0.0,-0.013,0.0
0.0334,128.181313,37.914706,4000.0665744000003,0.011,-0.014,0.002
0.0501,128.181313,37.914744,4000.0744992,0.034,0.003,0.007
0.0668,128.181313,37.914781,4000.0815096,0.069,0.055,0.014
0.0834,128.181313,37.914819,4000.0882152,0.115,0.153,0.022
0.1002,128.181313,37.914856,4000.0952256000005,0.171,0.307,0.03
0.1169,128.181313,37.914894,4000.1028456000004,0.237,0.526,0.038
0.1336,128.181313,37.914932,4000.1116848,0.313,0.818,0.047
0.1503,128.181313,37.914969,4000.1226576000004,0.398,1.187,0.057
0.1669,128.181313,37.915007,4000.135764,0.491,1.623,0.067
0.1837,128.181313,37.915044,4000.1513088,0.594,2.115,0.079
0.2004,128.181313,37.915082,4000.1705112,0.706,2.654,0.093
0.2171,128.181313,37.915119,4000.1930664,0.828,3.226,0.108
0.2338,128.181313,37.915157,4000.2198888000003,0.961,3.818,0.126
0.2505,128.181313,37.915195,4000.251588,1.105,4.416,0.145
0.2672,128.181313,37.915232,4000.2881640000005,1.261,5.009,0.167
0.2839,128.181313,37.91527,4000.3299216,1.43,5.583,0.19
0.3006,128.181313,37.915308,4000.3771656000004,1.615,6.132,0.216
0.3172,128.181313,37.915345,4000.4308104,1.817,6.658,0.243
0.3339,128.181313,37.915383,4000.490856,2.037,7.164,0.273
0.3507,128.181313,37.915421,4000.5576072000003,2.277,7.651,0.305
0.3674,128.181313,37.915459,4000.631064,2.537,8.123,0.339
0.3841,128.181313,37.915496,4000.711836,2.822,8.58,0.375
0.4008,128.181313,37.915534,4000.7999232,3.131,9.025,0.414
0.4175,128.181313,37.915572,4000.8956304000003,3.467,9.457,0.457
0.4342,128.181313,37.91561,4000.9986528000004,3.833,9.877,0.502
0.4509,128.181313,37.915647,4001.1096000000002,4.231,10.287,0.551
0.4676,128.181313,37.915685,4001.2278624000005,4.664,10.686,0.604
0.4843,128.181313,37.915723,4001.3540496,5.135,11.075,0.662
0.501,128.181313,37.915761,4001.4878568000004,5.646,11.454,0.723
0.5176,128.181313,37.915799,4001.629284,6.201,11.824,0.79
0.5344,128.181313,37.915836,4001.7810744,6.736,12.186,0.853
0.5511,128.181313,37.915874,4001.9432280000005,7.251,12.54,0.913
0.5678,128.181314,37.915912,4002.1163544,7.748,12.887,0.972
0.5845,128.181314,37.91595,4002.3019776,8.229,13.228,1.032
0.6012,128.181314,37.915987,4002.5004024000004,8.699,13.562,1.096
0.6179,128.181314,37.916025,4002.7104096000003,9.161,13.889,1.165
0.6345,128.181314,37.916063,4002.9326088000003,9.621,14.211,1.238
0.6513,128.181315,37.916101,4003.1666952,10.081,14.528,1.316
0.6679,128.181315,37.916139,4003.4126688000006,10.545,14.84,1.398
0.6847,128.181315,37.916176,4003.6705296,11.017,15.147,1.486
0.7014,128.181316,37.916214,4003.9402776,11.499,15.449,1.578
0.7181,128.181316,37.916252,4004.2219128,11.994,15.747,1.675
0.7348,128.181316,37.916289,4004.5151304000005,12.503,16.042,1.776
0.7514,128.181317,37.916327,4004.8202352000003,13.028,16.332,1.881
0.7682,128.181317,37.916365,4005.1369224,13.57,16.618,1.991
0.7848,128.181318,37.916403,4005.4654968,14.13,16.9,2.105
0.8016,128.181318,37.91644,4005.8059584000002,14.711,17.177,2.223
0.8183,128.181319,37.916478,4006.1576976,15.311,17.451,2.346
0.835,128.181319,37.916516,4006.521324,15.933,17.721,2.473
0.8517,128.18132,37.916553,4006.8965328000004,16.577,17.987,2.604
0.8684,128.181321,37.916591,4007.283324,17.244,18.249,2.74
0.8851,128.181322,37.916629,4007.6813928,17.935,18.506,2.881
0.9018,128.181322,37.916666,4008.0907392000004,18.65,18.759,3.027
0.9185,128.181323,37.916704,4008.5113632000002,19.391,19.008,3.178
0.9352,128.181324,37.916741,4008.9435696,20.157,19.253,3.334
0.9519,128.181325,37.916779,4009.386444,20.95,19.493,3.496
0.9686,128.181326,37.916816,4009.8402912,21.771,19.728,3.662
0.9853,128.181327,37.916854,4010.3051112000003,22.621,19.959,3.835
1.002,128.181328,37.916892,4010.7805992,23.499,20.185,4.013
1.0187,128.181329,37.916929,4011.2664504000004,24.408,20.406,4.196
1.0353,128.18133,37.916967,4011.7626648,25.348,20.622,4.385
1.0521,128.181331,37.917004,4012.2692424,26.32,20.832,4.58
1.0688,128.181333,37.917041,4012.7858784000005,27.324,21.038,4.782
1.0855,128.181334,37.917079,4013.3119632000003,28.361,21.237,4.989
1.1022,128.181335,37.917116,4013.8481064000002,29.432,21.431,5.203
1.1189,128.181337,37.917154,4014.3933936000003,30.537,21.619,5.423
1.1356,128.181338,37.917191,4014.9481296000004,31.679,21.8,5.649
1.1522,128.18134,37.917229,4015.5117048,32.855,21.975,5.883
1.169,128.181342,37.917266,4016.0847288,34.065,22.144,6.122
1.1857,128.181343,37.917303,4016.6665920000005,35.307,22.305,6.368
1.2024,128.181345,37.917341,4017.2575992,36.578,22.46,6.62
1.2191,128.181347,37.917378,4017.8574456,37.877,22.607,6.877
1.2358,128.181349,37.917415,4018.4661312,39.202,22.747,7.141
1.2525,128.181351,37.917453,4019.0833512,40.551,22.88,7.41
1.2691,128.181353,37.91749,4019.7088008000005,41.923,23.004,7.686
1.2859,128.181355,37.917527,4020.3430896000004,43.315,23.119,7.969
1.3026,128.181358,37.917564,4020.9853032000005,44.727,23.224,8.259
1.3193,128.18136,37.917602,4021.6357464000002,46.157,23.318,8.557
1.3359,128.181362,37.917639,4022.2941144000006,47.604,23.401,8.864
1.3527,128.181365,37.917676,4022.9601024000003,49.066,23.471,9.179
1.3694,128.181367,37.917713,4023.6340152000002,50.542,23.528,9.503
1.386,128.18137,37.91775,4024.3149384000003,52.031,23.571,9.835
1.4028,128.181373,37.917788,4025.0034816,53.532,23.599,10.177
1.4195,128.181376,37.917825,4025.6987304000004,55.045,23.611,10.527
1.4362,128.181379,37.917862,4026.4006848000004,56.568,23.607,10.886
1.4528,128.181382,37.917899,4027.1093448,58.101,23.584,11.254
1.4696,128.181385,37.917936,4027.8244056000003,59.644,23.543,11.629
1.4863,128.181389,37.917973,4028.5455624000006,61.196,23.483,12.012
1.5029,128.181392,37.91801,4029.2722056000002,62.757,23.403,12.402
1.5197,128.181396,37.918047,4030.0049448,64.326,23.302,12.798
1.5364,128.181399,37.918084,4030.7428656,65.903,23.179,13.199
1.5531,128.181403,37.918121,4031.4856632,67.489,23.034,13.605
1.5697,128.181407,37.918158,4032.2333376,69.082,22.867,14.015
1.5865,128.181411,37.918195,4032.985584,70.683,22.677,14.427
1.6032,128.181415,37.918232,4033.7420976000003,72.292,22.463,14.84
1.6198,128.181419,37.918269,4034.5025736000002,73.908,22.226,15.254
1.6366,128.181423,37.918306,4035.2667072000004,75.533,21.965,15.667
1.6533,128.181428,37.918343,4036.0341936000004,77.166,21.68,16.078
1.67,128.181432,37.91838,4036.8044232,78.806,21.372,16.485
1.6867,128.181437,37.918417,4037.5777008000005,80.455,21.039,16.888
1.7034,128.181442,37.918454,4038.3531120000002,82.112,20.683,17.285
1.7201,128.181447,37.918491,4039.130352,83.778,20.304,17.675
1.7368,128.181452,37.918528,4039.9094208,85.453,19.902,18.057
1.7535,128.181457,37.918564,4040.6897088,87.137,19.478,18.429
1.7702,128.181462,37.918601,4041.4709112,88.831,19.033,18.79
1.7869,128.181468,37.918638,4042.2530280000005,90.534,18.566,19.139
1.8036,128.181473,37.918675,4043.03484,92.247,18.08,19.476
1.8203,128.181479,37.918712,4043.8169568000003,93.971,17.574,19.798
1.837,128.181485,37.918749,4044.5981592000003,95.706,17.05,20.106
1.8537,128.181491,37.918785,4045.3784472,97.452,16.508,20.398
1.8704,128.181497,37.918822,4046.157516,99.21,15.951,20.673
1.8871,128.181503,37.918859,4046.9344512,100.979,15.378,20.931
1.9038,128.181509,37.918896,4047.7095576000006,102.762,14.792,21.171
1.9205,128.181515,37.918933,4048.4822256,104.557,14.194,21.392
1.9372,128.181522,37.918969,4049.2515408000004,106.366,13.584,21.594
1.9539,128.181529,37.919006,4050.017808,108.188,12.964,21.777
1.9706,128.181536,37.919043,4050.779808,110.025,12.335,21.939
1.9873,128.181542,37.91908,4051.5381504,111.876,11.699,22.082
2.004,128.18155,37.919116,4052.2913112,113.743,11.058,22.204
2.0207,128.181557,37.919153,4053.0399,115.625,10.411,22.306
2.0374,128.181564,37.91919,4053.7826976,117.522,9.762,22.387
2.0541,128.181571,37.919227,4054.5197040000003,119.436,9.11,22.447
2.0707,128.181579,37.919263,4055.2503096000005,121.366,8.458,22.487
2.0875,128.181587,37.9193,4055.9742096000004,123.313,7.806,22.507
2.1042,128.181594,37.919337,4056.6901848,125.27,7.157,22.506
2.1208,128.181602,37.919374,4057.3976256000005,127.227,6.513,22.488
2.1376,128.18161,37.91941,4058.0956176,129.174,5.875,22.452
2.1543,128.181619,37.919447,4058.7832464000003,131.102,5.247,22.401
2.171,128.181627,37.919484,4059.4595976,133.002,4.629,22.336
2.1877,128.181635,37.91952,4060.1237568,134.869,4.024,22.258
2.2044,128.181644,37.919557,4060.7751144000003,136.694,3.432,22.169
2.2211,128.181653,37.919594,4061.412756,138.474,2.854,22.071
2.2378,128.181662,37.919631,4062.0354624000006,140.204,2.291,21.965
2.2544,128.181671,37.919667,4062.642624,141.879,1.744,21.854
2.2712,128.18168,37.919704,4063.2330216,143.497,1.212,21.739
2.2879,128.181689,37.919741,4063.8069600000003,145.055,0.695,21.621
2.3045,128.181699,37.919777,4064.3635248,146.552,0.194,21.503
2.3213,128.181708,37.919814,4064.9024112,147.987,-0.291,21.386
2.338,128.181718,37.919851,4065.4227048000002,149.36,-0.763,21.27
2.3546,128.181728,37.919887,4065.9247104,150.671,-1.222,21.158
2.3714,128.181737,37.919924,4066.4078184000005,151.919,-1.667,21.051
2.3881,128.181747,37.91996,4066.8720288,153.107,-2.099,20.949
2.4048,128.181758,37.919997,4067.3170368,154.236,-2.52,20.853
2.4215,128.181768,37.920033,4067.7422328000002,155.306,-2.93,20.765
2.4382,128.181778,37.92007,4068.1482264,156.32,-3.329,20.684
2.4549,128.181789,37.920107,4068.5347128,157.28,-3.719,20.612
2.4716,128.181799,37.920143,4068.9010824,158.188,-4.1,20.548
2.4882,128.18181,37.92018,4069.2479448,159.045,-4.473,20.493
2.505,128.18182,37.920216,4069.5753000000004,159.855,-4.839,20.448
2.5217,128.181831,37.920253,4069.8825384,160.618,-5.197,20.413
2.5383,128.181842,37.920289,4070.1717936000005,161.396,-5.551,20.38
2.5551,128.181853,37.920326,4070.4430656,162.183,-5.901,20.349
2.5718,128.181864,37.920362,4070.6966592000003,162.972,-6.248,20.323
2.5884,128.181875,37.920399,4070.933184,163.755,-6.59,20.302
2.6052,128.181886,37.920435,4071.1514208000003,164.524,-6.93,20.287
2.6219,128.181897,37.920472,4071.3504552000004,165.276,-7.266,20.278
2.6386,128.181908,37.920508,4071.5308968,166.003,-7.598,20.276
2.6553,128.18192,37.920545,4071.6918312000003,166.702,-7.927,20.28
2.6719,128.181931,37.920581,4071.8332584,167.364,-8.254,20.287
2.6887,128.181942,37.920618,4071.9548736000006,167.986,-8.58,20.296
2.7054,128.181954,37.920654,4072.0569816,168.564,-8.904,20.304
2.722,128.181965,37.920691,4072.1392776000002,169.097,-9.227,20.31
2.7388,128.181977,37.920727,4072.2020664,169.586,-9.549,20.313
2.7555,128.181988,37.920763,4072.2447384,170.034,-9.872,20.314
2.7721,128.182,37.9208,4072.268208,170.441,-10.194,20.311
2.7889,128.182012,37.920836,4072.2718656,170.812,-10.516,20.307
2.8056,128.182023,37.920873,4072.2563208,171.151,-10.837,20.301
2.8222,128.182035,37.920909,4072.220964,171.458,-11.158,20.292
2.839,128.182047,37.920945,4072.1664048000002,171.738,-11.48,20.282
2.8557,128.182059,37.920982,4072.0926432,171.991,-11.8,20.269
2.8724,128.18207,37.921018,4071.9996792,172.22,-12.121,20.255
2.8891,128.182082,37.921054,4071.887208,172.428,-12.441,20.238
2.9057,128.182094,37.921091,4071.7558392000005,172.616,-12.761,20.22
2.9225,128.182106,37.921127,4071.6052680000003,172.788,-13.08,20.2
2.9392,128.182118,37.921163,4071.4354944,172.943,-13.399,20.179
2.9558,128.18213,37.921199,4071.2468232,173.085,-13.717,20.157
2.9726,128.182142,37.921236,4071.0389496000003,173.214,-14.035,20.133
2.9893,128.182154,37.921272,4070.8118736000006,173.332,-14.352,20.109
3.0059,128.182167,37.921308,4070.5659,173.44,-14.668,20.084
3.0227,128.182179,37.921344,4070.300724,173.539,-14.983,20.058
3.0394,128.182191,37.92138,4070.0166504000003,173.63,-15.298,20.032
3.056,128.182203,37.921417,4069.7133744000002,173.714,-15.611,20.006
3.0728,128.182215,37.921453,4069.3912008,173.791,-15.924,19.98
3.0895,128.182228,37.921489,4069.0498248000004,173.863,-16.236,19.953
3.1062,128.18224,37.921525,4068.6892464000002,173.929,-16.548,19.926
3.1229,128.182252,37.921561,4068.3097704,173.991,-16.858,19.9
3.1395,128.182264,37.921597,4067.9110920000003,174.048,-17.168,19.873
3.1563,128.182277,37.921633,4067.4932112,174.101,-17.476,19.847
3.173,128.182289,37.921669,4067.056128,174.15,-17.784,19.821
3.1896,128.182301,37.921705,4066.6001472000003,174.196,-18.091,19.795
3.2064,128.182314,37.921741,4066.1246592,174.239,-18.398,19.77
3.2231,128.182326,37.921777,4065.6302736000002,174.279,-18.703,19.744
3.2397,128.182339,37.921813,4065.1163808,174.316,-19.008,19.72
3.2565,128.182351,37.921849,4064.5835904,174.351,-19.312,19.695
3.2732,128.182364,37.921885,4064.0312928000003,174.383,-19.615,19.671
3.2899,128.182376,37.92192,4063.4597928000003,174.414,-19.917,19.648
3.3066,128.182389,37.921956,4062.8690904,174.442,-20.219,19.624
3.3233,128.182401,37.921992,4062.2591856,174.469,-20.52,19.602
3.34,128.182414,37.922028,4061.6297736000006,174.493,-20.82,19.58
3.3567,128.182426,37.922064,4060.9811592,174.516,-21.12,19.558
3.3734,128.182439,37.922099,4060.3133424000002,174.538,-21.419,19.537
3.3901,128.182451,37.922135,4059.6263232,174.558,-21.717,19.516
3.4068,128.182464,37.92217,4058.9197968,174.577,-22.015,19.496
3.4235,128.182477,37.922206,4058.1937632,174.595,-22.312,19.477
3.4402,128.182489,37.922242,4057.448832,174.611,-22.608,19.458
3.4569,128.182502,37.922277,4056.6840888,174.626,-22.904,19.439
3.4736,128.182514,37.922313,4055.9004480000003,174.641,-23.199,19.421
3.4903,128.182527,37.922348,4055.0969952,174.654,-23.494,19.404
3.507,128.18254,37.922383,4054.2746448000003,174.667,-23.789,19.387
3.5237,128.182552,37.922419,4053.4324824000005,174.678,-24.082,19.37
3.5404,128.182565,37.922454,4052.5714224000003,174.689,-24.376,19.355
3.5571,128.182578,37.922489,4051.6908552000004,174.699,-24.668,19.339
3.5738,128.182591,37.922525,4050.7907808,174.708,-24.961,19.325
3.5905,128.182603,37.92256,4049.8711992,174.717,-25.253,19.311
3.6072,128.182616,37.922595,4048.9327200000002,174.725,-25.544,19.297
3.6239,128.182629,37.92263,4047.9744288,174.732,-25.835,19.284
3.6406,128.182641,37.922665,4046.9969352000003,174.739,-26.126,19.271
3.6573,128.182654,37.9227,4046.0002392,174.746,-26.416,19.259
3.674,128.182667,37.922735,4044.9840360000003,174.752,-26.706,19.248
3.6907,128.18268,37.92277,4043.9486304000006,174.757,-26.995,19.237
3.7074,128.182692,37.922805,4042.8937176,174.762,-27.284,19.227
3.7241,128.182705,37.92284,4041.8196024000003,174.767,-27.573,19.217
3.7408,128.182718,37.922875,4040.72598,174.771,-27.861,19.207
3.7575,128.182731,37.92291,4039.6131552,174.775,-28.149,19.199
3.7742,128.182743,37.922944,4038.4811280000004,174.779,-28.437,19.19
3.7909,128.182756,37.922979,4037.3295936000004,174.783,-28.725,19.183
3.8076,128.182769,37.923014,4036.1588568,174.786,-29.012,19.175
3.8243,128.182782,37.923048,4034.9689176,174.788,-29.299,19.169
3.841,128.182795,37.923083,4033.7597760000003,174.791,-29.585,19.162
3.8577,128.182807,37.923117,4032.5311272000004,174.793,-29.871,19.157
3.8744,128.18282,37.923151,4031.2832760000006,174.795,-30.157,19.151
3.8911,128.182833,37.923186,4030.0162224,174.797,-30.443,19.146
3.9078,128.182846,37.92322,4028.7299664,174.799,-30.729,19.142
3.9245,128.182858,37.923254,4027.4242032000006,174.8,-31.014,19.138
3.9412,128.182871,37.923289,4026.0995424,174.802,-31.299,19.135
3.9579,128.182884,37.923323,4024.7556792,174.803,-31.584,19.132
3.9746,128.182897,37.923357,4023.3926136,174.803,-31.869,19.13
3.9913,128.18291,37.923391,4022.0103456,174.804,-32.153,19.128
4.008,128.182922,37.923425,4020.6088752,174.805,-32.437,19.126
4.0247,128.182935,37.923459,4019.1885072000005,174.805,-32.721,19.125
4.0414,128.182948,37.923493,4017.7486320000003,174.805,-33.005,19.125
4.058,128.182961,37.923526,4016.2901640000005,174.805,-33.289,19.125
4.0748,128.182973,37.92356,4014.8121888,174.805,-33.572,19.125
4.0915,128.182986,37.923594,4013.315316,174.805,-33.856,19.126
4.1082,128.182999,37.923627,4011.7995456000003,174.805,-34.139,19.127
4.1249,128.183012,37.923661,4010.2645728,174.804,-34.422,19.129
4.1415,128.183024,37.923694,4008.7107024,174.804,-34.705,19.131
4.1583,128.183037,37.923728,4007.1379344,174.803,-34.988,19.133
4.175,128.18305,37.923761,4005.5459640000004,174.802,-35.27,19.136
4.1917,128.183063,37.923794,4003.935096,174.801,-35.553,19.14
4.2084,128.183075,37.923828,4002.3056352000003,174.8,-35.835,19.143
4.2251,128.183088,37.923861,4000.656972,174.799,-36.117,19.148
4.2417,128.183101,37.923894,3998.9894112,174.797,-36.399,19.152
4.2585,128.183113,37.923927,3997.3032576000005,174.795,-36.681,19.157
4.2752,128.183126,37.92396,3995.5982064,174.794,-36.963,19.163
4.2919,128.183139,37.923993,3993.8742576000004,174.792,-37.245,19.168
4.3086,128.183151,37.924025,3992.1317160000003,174.79,-37.527,19.175
4.3252,128.183164,37.924058,3990.3702768000003,174.787,-37.808,19.181
4.342,128.183177,37.924091,3988.5902448,174.785,-38.09,19.188
4.3587,128.183189,37.924123,3986.7913152,174.782,-38.371,19.196
4.3754,128.183202,37.924156,3984.9740976000003,174.78,-38.653,19.204
4.3921,128.183215,37.924188,3983.1379824000005,174.777,-38.934,19.212
4.4088,128.183227,37.924221,3981.2832744,174.774,-39.215,19.22
4.4254,128.18324,37.924253,3979.4099736000003,174.771,-39.496,19.229
4.4422,128.183252,37.924285,3977.5180800000003,174.767,-39.777,19.239
4.4589,128.183265,37.924317,3975.6078984000005,174.764,-40.058,19.249
4.4756,128.183277,37.924349,3973.679124,174.76,-40.339,19.259
4.4923,128.18329,37.924381,3971.7317568000003,174.756,-40.62,19.27
4.5089,128.183303,37.924413,3969.7661016,174.752,-40.9,19.281
4.5256,128.183315,37.924445,3967.7818536,174.747,-41.181,19.293
4.5424,128.183328,37.924476,3965.7793176,174.743,-41.462,19.305
4.5591,128.18334,37.924508,3963.7584936000003,174.738,-41.742,19.318
4.5758,128.183353,37.92454,3961.7193816000004,174.733,-42.023,19.331
4.5925,128.183365,37.924571,3959.6619816,174.728,-42.303,19.344
4.6091,128.183377,37.924603,3957.5862936000003,174.722,-42.583,19.358
4.6259,128.18339,37.924634,3955.4926224,174.716,-42.864,19.372
4.6426,128.183402,37.924665,3953.3803584,174.71,-43.144,19.387
4.6593,128.183415,37.924696,3951.2504160000003,174.704,-43.424,19.402
4.676,128.183427,37.924727,3949.1021856,174.697,-43.705,19.417
4.6927,128.183439,37.924758,3946.9356672,174.69,-43.985,19.433
4.7093,128.183452,37.924789,3944.7514704,174.683,-44.265,19.45
4.7261,128.183464,37.92482,3942.5489856,174.675,-44.545,19.467
4.7428,128.183476,37.924851,3940.3285176,174.667,-44.825,19.484
4.7595,128.183489,37.924881,3938.0903712000004,174.659,-45.105,19.502
4.7762,128.183501,37.924912,3935.8342416000005,174.65,-45.385,19.52
4.7928,128.183513,37.924942,3933.5601288,174.641,-45.665,19.539
4.8096,128.183525,37.924972,3931.2683376,174.632,-45.945,19.558
4.8263,128.183538,37.925003,3928.958868,174.622,-46.225,19.578
4.843,128.18355,37.925033,3926.6314152,174.612,-46.505,19.598
4.8597,128.183562,37.925063,3924.2865888,174.602,-46.785,19.618
4.8764,128.183574,37.925093,3921.9237792,174.591,-47.064,19.639
4.893,128.183586,37.925123,3919.5432912,174.58,-47.344,19.66
4.9098,128.183598,37.925152,3917.1454296,174.568,-47.624,19.682
4.9265,128.18361,37.925182,3914.7301944,174.556,-47.904,19.705
4.9432,128.183622,37.925212,3912.2972808,174.544,-48.184,19.727
4.9599,128.183634,37.925241,3909.8466888000003,174.531,-48.463,19.751
4.9765,128.183646,37.92527,3907.3790280000003,174.518,-48.743,19.774
4.9932,128.183658,37.9253,3904.8939936,174.504,-49.023,19.799
5.01,128.18367,37.925329,3902.3912808,174.49,-49.302,19.823
5.0267,128.183682,37.925358,3899.8714992,174.475,-49.582,19.849
5.0434,128.183694,37.925387,3897.3346488000007,174.46,-49.862,19.874
5.0601,128.183706,37.925416,3894.7804248,174.445,-50.141,19.901
5.0767,128.183718,37.925445,3892.2088272,174.429,-50.421,19.927
5.0935,128.18373,37.925473,3889.6204656,174.412,-50.701,19.955
5.1102,128.183742,37.925502,3887.0150352000005,174.395,-50.98,19.982
5.1269,128.183753,37.92553,3884.3925360000003,174.378,-51.26,20.011
5.1436,128.183765,37.925559,3881.7529680000002,174.36,-51.54,20.04
5.1602,128.183777,37.925587,3879.096636,174.341,-51.819,20.069
5.1769,128.183789,37.925615,3876.4232352000004,174.322,-52.099,20.099
5.1937,128.1838,37.925643,3873.7330704,174.303,-52.379,20.13
5.2104,128.183812,37.925671,3871.0261416000003,174.283,-52.658,20.161
5.2271,128.183824,37.925699,3868.3024488000005,174.262,-52.938,20.193
5.2438,128.183835,37.925726,3865.5622968,174.241,-53.218,20.225
5.2604,128.183847,37.925754,3862.8053808,174.219,-53.497,20.258
5.2772,128.183858,37.925781,3860.0317008,174.196,-53.777,20.291
5.2939,128.18387,37.925809,3857.2418664,174.173,-54.057,20.325
5.3106,128.183881,37.925836,3854.435268,174.149,-54.336,20.36
5.3273,128.183893,37.925863,3851.6122104,174.125,-54.616,20.395
5.3439,128.183904,37.92589,3848.7729984000002,174.1,-54.895,20.432
5.3606,128.183916,37.925917,3845.9173272000003,174.074,-55.175,20.468
5.3774,128.183927,37.925944,3843.0455016,174.048,-55.455,20.506
5.3941,128.183938,37.92597,3840.1572168000002,174.021,-55.734,20.544
5.4108,128.18395,37.925997,3837.2527776,173.993,-56.014,20.583
5.4275,128.183961,37.926023,3834.3324888,173.964,-56.294,20.622
5.4441,128.183972,37.92605,3831.3960456000004,173.935,-56.573,20.662
5.4609,128.183983,37.926076,3828.4434480000004,173.905,-56.853,20.703
5.4776,128.183994,37.926102,3825.4750008000005,173.874,-57.133,20.745
5.4943,128.184006,37.926128,3822.4907040000003,173.843,-57.412,20.788
5.511,128.184017,37.926154,3819.4905576000006,173.81,-57.692,20.831
5.5277,128.184028,37.92618,3816.4745616000005,173.777,-57.972,20.875
5.5443,128.184039,37.926205,3813.4430208000003,173.743,-58.251,20.92
5.5611,128.18405,37.926231,3810.3956304000003,173.708,-58.531,20.966
5.5778,128.184061,37.926256,3807.3326952,173.672,-58.81,21.013
5.5945,128.184072,37.926281,3804.2542152,173.635,-59.09,21.06
5.6112,128.184083,37.926306,3801.1598856,173.597,-59.37,21.109
5.6278,128.184093,37.926331,3798.0506208,173.559,-59.649,21.158
5.6445,128.184104,37.926356,3794.9258112,173.519,-59.929,21.209
5.6613,128.184115,37.926381,3791.7854568000002,173.478,-60.209,21.26
5.678,128.184126,37.926405,3788.6301672,173.437,-60.488,21.313
5.6947,128.184136,37.92643,3785.4593328000005,173.394,-60.768,21.366
5.7114,128.184147,37.926454,3782.2735632,173.35,-61.047,21.421
5.728,128.184158,37.926478,3779.0728584,173.305,-61.327,21.476
5.7448,128.184168,37.926503,3775.8569136,173.259,-61.607,21.533
5.7615,128.184179,37.926526,3772.6260336,173.211,-61.886,21.591
5.7782,128.184189,37.92655,3769.3802184,173.163,-62.166,21.65
5.7949,128.1842,37.926574,3766.1197728,173.113,-62.445,21.71
5.8115,128.18421,37.926598,3762.8443920000004,173.062,-62.725,21.772
5.8282,128.184221,37.926621,3759.5543807999998,173.009,-63.005,21.835
5.845,128.184231,37.926644,3756.2497392000005,172.955,-63.284,21.899
5.8617,128.184242,37.926667,3752.9304672,172.9,-63.564,21.965
5.8784,128.184252,37.92669,3749.5965648,172.843,-63.843,22.032
5.8951,128.184262,37.926713,3746.2483368000003,172.785,-64.123,22.1
5.9117,128.184272,37.926736,3742.8854784000005,172.725,-64.402,22.17
5.9285,128.184282,37.926759,3739.5085992,172.664,-64.682,22.241
5.9452,128.184293,37.926781,3736.1173943999997,172.601,-64.961,22.315
5.9619,128.184303,37.926803,3732.7118640000003,172.537,-65.241,22.389
5.9786,128.184313,37.926826,3729.2926176,172.47,-65.52,22.466
5.9952,128.184323,37.926848,3725.8587408000003,172.402,-65.8,22.544
6.0119,128.184333,37.92687,3722.4114528000005,172.332,-66.079,22.624
6.0287,128.184343,37.926891,3718.9498392000005,172.26,-66.359,22.706
6.0454,128.184352,37.926913,3715.4745096,172.186,-66.638,22.79
6.0621,128.184362,37.926934,3711.9854640000003,172.11,-66.917,22.876
6.0788,128.184372,37.926956,3708.4823976000002,172.032,-67.197,22.964
6.0954,128.184382,37.926977,3704.96592,171.952,-67.476,23.054
6.1121,128.184392,37.926998,3701.4360312,171.869,-67.755,23.146
6.1289,128.184401,37.927019,3697.8924263999997,171.784,-68.035,23.241
6.1456,128.184411,37.92704,3694.3354104,171.697,-68.314,23.338
6.1623,128.18442,37.92706,3690.7649832,171.607,-68.593,23.437
6.179,128.18443,37.927081,3687.1814496,171.515,-68.872,23.539
6.1956,128.184439,37.927101,3683.5845048,171.419,-69.151,23.644
6.2124,128.184449,37.927121,3679.9744536,171.321,-69.43,23.752
6.2291,128.184458,37.927141,3676.3516008000006,171.22,-69.709,23.862
6.2458,128.184468,37.927161,3672.7156416000003,171.116,-69.988,23.976
6.2625,128.184477,37.927181,3669.0665760000006,171.009,-70.267,24.093
6.2791,128.184486,37.927201,3665.4047088,170.898,-70.546,24.213
6.2958,128.184495,37.92722,3661.73004,170.784,-70.825,24.336
6.3126,128.184504,37.927239,3658.0428744,170.666,-71.104,24.464
6.3293,128.184514,37.927258,3654.3429072000004,170.544,-71.383,24.595
6.346,128.184523,37.927277,3650.6304432,170.419,-71.661,24.729
6.3627,128.184532,37.927296,3646.9054824000004,170.289,-71.939,24.868
6.3793,128.184541,37.927315,3643.1683296,170.156,-72.217,25.011
6.3961,128.18455,37.927333,3639.41868,170.018,-72.493,25.158
6.4128,128.184558,37.927352,3635.6568384,169.876,-72.77,25.309
6.4295,128.184567,37.92737,3631.8828048,169.729,-73.045,25.465
6.4462,128.184576,37.927388,3628.0965792,169.578,-73.32,25.625
6.4628,128.184585,37.927406,3624.2984664000005,169.421,-73.595,25.79
6.4795,128.184593,37.927424,3620.4884664,169.259,-73.869,25.961
6.4963,128.184602,37.927441,3616.666884,169.092,-74.142,26.137
6.513,128.184611,37.927459,3612.8331096,168.919,-74.414,26.319
6.5297,128.184619,37.927476,3608.9877528,168.74,-74.686,26.507
6.5464,128.184628,37.927493,3605.1308136000002,168.555,-74.957,26.701
6.5631,128.184636,37.92751,3601.2625967999998,168.363,-75.227,26.901
6.5798,128.184644,37.927527,3597.3824928,168.164,-75.497,27.109
6.5965,128.184653,37.927544,3593.4914160000003,167.957,-75.766,27.324
6.6132,128.184661,37.92756,3589.5887568000003,167.743,-76.035,27.547
6.6299,128.184669,37.927576,3585.6751248,167.52,-76.303,27.778
6.6466,128.184677,37.927593,3581.75052,167.289,-76.57,28.017
6.6633,128.184685,37.927609,3577.8146376,167.048,-76.836,28.266
6.68,128.184693,37.927624,3573.8677824,166.798,-77.102,28.525
6.6967,128.184701,37.92764,3569.9102592000004,166.538,-77.367,28.794
6.7134,128.184709,37.927656,3565.9417632,166.266,-77.632,29.074
6.7301,128.184717,37.927671,3561.9625992,165.983,-77.895,29.365
6.7468,128.184725,37.927686,3557.9730720000002,165.688,-78.158,29.668
6.7635,128.184733,37.927701,3553.9728768,165.379,-78.421,29.985
6.7802,128.184741,37.927716,3549.9620136000003,165.056,-78.682,30.316
6.7969,128.184748,37.927731,3545.9410920000005,164.719,-78.943,30.661
6.8136,128.184756,37.927745,3541.9098072,164.365,-79.203,31.023
6.8303,128.184763,37.927759,3537.868464,163.994,-79.462,31.402
6.847,128.184771,37.927774,3533.8167576000005,163.605,-79.72,31.799
6.8637,128.184778,37.927788,3529.7552976,163.197,-79.978,32.216
6.8804,128.184786,37.927802,3525.6837792,162.767,-80.234,32.653
6.8971,128.184793,37.927815,3521.6025072,162.314,-80.49,33.114
6.9138,128.184801,37.927829,3517.5114816,161.837,-80.745,33.599
6.9305,128.184808,37.927842,3513.4110072000003,161.333,-80.998,34.111
6.9472,128.184815,37.927855,3509.3007792000003,160.8,-81.251,34.651
6.9639,128.184822,37.927868,3505.1811024000003,160.237,-81.502,35.222
6.9806,128.184829,37.927881,3501.0519768,159.639,-81.752,35.827
6.9973,128.184836,37.927894,3496.9134024,159.005,-82.001,36.469
7.014,128.184843,37.927906,3492.7659888000003,158.331,-82.248,37.151
7.0307,128.18485,37.927919,3488.6091264,157.613,-82.494,37.877
7.0474,128.184857,37.927931,3484.4434248000002,156.846,-82.739,38.651
7.0641,128.184864,37.927943,3480.2685792,156.027,-82.982,39.477
7.0808,128.18487,37.927955,3476.0851992,155.151,-83.223,40.361
7.0975,128.184877,37.927966,3471.8926752,154.211,-83.462,41.309
7.1142,128.184884,37.927978,3467.6919216,153.2,-83.699,42.327
7.1309,128.18489,37.927989,3463.4823288,152.112,-83.933,43.422
7.1476,128.184897,37.928,3459.2642016,150.938,-84.165,44.604
7.1643,128.184903,37.928011,3455.0378448,149.669,-84.394,45.88
7.181,128.18491,37.928022,3450.8032584000002,148.293,-84.62,47.263
7.1977,128.184916,37.928033,3446.5604424,146.799,-84.842,48.764
7.2144,128.184922,37.928043,3442.3093968,145.173,-85.06,50.397
7.2311,128.184928,37.928053,3438.0504264,143.4,-85.273,52.177
7.2478,128.184934,37.928064,3433.7835312,141.464,-85.481,54.121
7.2645,128.184941,37.928073,3429.5087112,139.345,-85.684,56.247
7.2812,128.184947,37.928083,3425.2262712,137.022,-85.88,58.577
7.2979,128.184953,37.928093,3420.9362112000003,134.475,-86.068,61.131
7.3146,128.184958,37.928102,3416.6385312,131.682,-86.247,63.931
7.3313,128.184964,37.928111,3412.333536,128.619,-86.416,67.001
7.348,128.18497,37.92812,3408.0209208,125.266,-86.574,70.361
7.3647,128.184976,37.928129,3403.7012952,121.606,-86.719,74.028
7.3814,128.184982,37.928138,3399.3743544000004,117.63,-86.849,78.011
7.3981,128.184987,37.928147,3395.0404032000006,113.338,-86.963,82.309
7.4148,128.184993,37.928155,3390.6991368000004,108.745,-87.058,86.909
7.4315,128.184998,37.928163,3386.3514695999997,103.883,-87.133,91.778
7.4482,128.185004,37.928171,3381.9967920000004,98.804,-87.187,96.864
7.4649,128.185009,37.928179,3377.6354088000003,93.575,-87.217,102.099
7.4816,128.185014,37.928187,3373.26732,88.282,-87.224,107.399
7.4983,128.18502,37.928194,3368.8928304000005,83.012,-87.207,112.676
7.515,128.185025,37.928201,3364.51194,77.853,-87.167,117.841
7.5317,128.18503,37.928209,3360.1246488000006,72.882,-87.105,122.819
7.5484,128.185035,37.928215,3355.7312616000004,68.159,-87.022,127.549
7.5651,128.18504,37.928222,3351.3314736,63.724,-86.92,131.99
7.5818,128.185045,37.928229,3346.9258944,59.599,-86.802,136.121
7.5985,128.18505,37.928235,3342.5142192000003,55.793,-86.667,139.934
7.6152,128.185055,37.928241,3338.0967528,52.299,-86.52,143.435
7.6319,128.185059,37.928248,3333.6734952,49.103,-86.36,146.637
7.6486,128.185064,37.928253,3329.2444464000005,46.186,-86.191,149.56
7.6653,128.185069,37.928259,3324.8099112,43.527,-86.012,152.226
7.682,128.185073,37.928265,3320.3701944,41.102,-85.826,154.657
7.6987,128.185078,37.92827,3315.9246864,38.89,-85.634,156.875
7.7154,128.185082,37.928275,3311.4739968,36.869,-85.435,158.902
7.7321,128.185087,37.92828,3307.0184304000004,35.019,-85.232,160.758
7.7488,128.185091,37.928285,3302.5573776,33.323,-85.024,162.46
7.7655,128.185095,37.92829,3298.091448,31.762,-84.813,164.026
7.7822,128.185099,37.928294,3293.6206416000005,30.324,-84.598,165.469
7.7989,128.185103,37.928298,3289.1449584,28.996,-84.381,166.803
7.8156,128.185107,37.928302,3284.6643984,27.766,-84.161,168.037
7.8323,128.185111,37.928306,3280.1795712000003,26.625,-83.939,169.183
7.849,128.185115,37.92831,3275.6898671999998,25.563,-83.715,170.249
7.8657,128.185119,37.928313,3271.195896,24.572,-83.489,171.244
7.8824,128.185123,37.928317,3266.6976576,23.646,-83.262,172.174
7.8991,128.185127,37.92832,3262.1951520000002,22.777,-83.033,173.046
7.9158,128.185131,37.928323,3257.6883792,21.961,-82.804,173.865
7.9325,128.185134,37.928326,3253.1776440000003,21.191,-82.573,174.637
7.9492,128.185138,37.928328,3248.6629464000002,20.466,-82.342,175.364
7.9659,128.185141,37.928331,3244.1442864,19.78,-82.11,176.053
7.9826,128.185145,37.928333,3239.6219688,19.129,-81.877,176.705
7.9993,128.185148,37.928335,3235.0956888,18.512,-81.644,177.323
8.016,128.185151,37.928337,3230.566056,17.926,-81.41,177.911
8.0327,128.185155,37.928339,3226.0330704000003,17.368,-81.175,178.47
8.0494,128.185158,37.928341,3221.4964272,16.836,-80.941,179.002
8.0661,128.185161,37.928342,3216.956736,16.33,-80.705,179.51
8.0828,128.185164,37.928343,3212.4136920000005,15.848,-80.47,179.993
8.0994,128.185167,37.928344,3207.8672952,15.388,-80.234,180.454
8.1161,128.18517,37.928345,3203.3181552000005,14.949,-79.997,180.894
8.1329,128.185173,37.928346,3198.7659672,14.532,-79.761,181.313
8.1496,128.185175,37.928346,3194.211036,14.134,-79.524,181.713
8.1663,128.185178,37.928346,3189.6533616,13.756,-79.286,182.093
8.183,128.185181,37.928347,3185.0932488000003,13.396,-79.049,182.456
8.1997,128.185183,37.928346,3180.530088,13.054,-78.811,182.801
8.2164,128.185186,37.928346,3175.9647936,12.729,-78.573,183.13
8.2331,128.185188,37.928346,3171.3970608,12.42,-78.334,183.442
8.2498,128.185191,37.928345,3166.8271944,12.127,-78.096,183.739
8.2665,128.185193,37.928344,3162.2551943999997,11.85,-77.857,184.021
8.2831,128.185195,37.928343,3157.6810608,11.589,-77.618,184.288
8.2998,128.185198,37.928342,3153.1047936000004,11.341,-77.378,184.541
8.3166,128.1852,37.928341,3148.5266976000003,11.107,-77.139,184.781
8.3333,128.185202,37.928339,3143.9467728,10.886,-76.899,185.007
8.35,128.185204,37.928338,3139.365324,10.678,-76.659,185.222
8.3667,128.185206,37.928336,3134.7823512,10.482,-76.419,185.424
8.3834,128.185208,37.928334,3130.1975496,10.298,-76.179,185.615
8.4001,128.185209,37.928331,3125.6115288,10.124,-75.939,185.795
8.4168,128.185211,37.928329,3121.0242888000002,9.96,-75.698,185.966
8.4335,128.185213,37.928326,3116.4355248,9.805,-75.458,186.127
8.4502,128.185214,37.928324,3111.8458464000005,9.659,-75.217,186.279
8.4668,128.185216,37.928321,3107.2552536,9.521,-74.977,186.423
8.4835,128.185217,37.928318,3102.6634416,9.391,-74.736,186.559
8.5003,128.185219,37.928314,3098.07102,9.268,-74.495,186.687
8.517,128.18522,37.928311,3093.477684,9.151,-74.255,186.809
8.5337,128.185221,37.928307,3088.8837384000003,9.04,-74.014,186.925
8.5504,128.185223,37.928303,3084.2891832,8.932,-73.774,187.037
8.5671,128.185224,37.928299,3079.6943232000003,8.828,-73.533,187.144
8.5838,128.185225,37.928295,3075.0988536,8.726,-73.293,187.248
8.6005,128.185226,37.92829,3070.503384,8.626,-73.053,187.35
8.6172,128.185227,37.928286,3065.9073048,8.526,-72.813,187.45
8.6339,128.185228,37.928281,3061.3115304000003,8.425,-72.573,187.549
8.6505,128.185228,37.928276,3056.7154511999997,8.324,-72.333,187.649
8.6672,128.185229,37.928271,3052.1196768,8.221,-72.094,187.749
8.684,128.18523,37.928266,3047.5239024,8.115,-71.855,187.85
8.7007,128.18523,37.92826,3042.9281280000005,8.007,-71.617,187.953
8.7174,128.185231,37.928254,3038.3329632,7.896,-71.379,188.058
8.7341,128.185232,37.928249,3033.7384079999997,7.784,-71.141,188.163
8.7508,128.185232,37.928242,3029.1441576,7.67,-70.903,188.27
8.7675,128.185232,37.928236,3024.550212,7.557,-70.666,188.377
8.7842,128.185233,37.92823,3019.9574856,7.445,-70.429,188.483
8.8009,128.185233,37.928223,3015.365064,7.336,-70.192,188.588
8.8176,128.185233,37.928217,3010.7738616,7.231,-69.956,188.691
8.8342,128.185233,37.92821,3006.1835736000003,7.129,-69.719,188.791
8.8509,128.185233,37.928202,3001.5942,7.032,-69.483,188.888
8.8676,128.185233,37.928195,2997.0063504000004,6.94,-69.246,188.982
8.8844,128.185233,37.928188,2992.4194152,6.852,-69.01,189.073
8.9011,128.185233,37.92818,2987.834004,6.767,-68.774,189.161
8.9178,128.185232,37.928172,2983.2498120000005,6.684,-68.538,189.247
8.9345,128.185232,37.928164,2978.6674488000003,6.603,-68.303,189.331
8.9512,128.185232,37.928156,2974.0863048,6.524,-68.067,189.414
8.9679,128.185231,37.928148,2969.5072944,6.447,-67.832,189.495
8.9846,128.185231,37.928139,2964.929808,6.371,-67.597,189.574
9.0013,128.18523,37.92813,2960.3544552000003,6.298,-67.362,189.651
9.0179,128.18523,37.928121,2955.7809312,6.227,-67.127,189.726
9.0346,128.185229,37.928112,2951.2095408,6.158,-66.892,189.8
9.0513,128.185228,37.928103,2946.640284,6.09,-66.657,189.872
9.0681,128.185227,37.928094,2942.0731608,6.026,-66.424,189.941
9.0848,128.185226,37.928084,2937.5084760000004,5.964,-66.196,190.008
9.1015,128.185226,37.928074,2932.9459248000003,5.907,-65.98,190.07
9.1182,128.185224,37.928064,2928.3858120000004,5.854,-65.778,190.128
9.1349,128.185223,37.928054,2923.8278328000006,5.806,-65.591,190.181
9.1516,128.185222,37.928044,2919.2722920000006,5.763,-65.418,190.229
9.1683,128.185221,37.928033,2914.7188848000005,5.723,-65.259,190.274
9.185,128.18522,37.928023,2910.1682208,5.688,-65.112,190.315
9.2016,128.185218,37.928012,2905.6199952,5.656,-64.976,190.353
9.2183,128.185217,37.928001,2901.0739032000006,5.627,-64.851,190.388
9.235,128.185216,37.92799,2896.5302496,5.6,-64.734,190.421
9.2518,128.185214,37.927978,2891.9890344,5.578,-64.624,190.451
9.2685,128.185212,37.927967,2887.4502576000004,5.558,-64.52,190.478
9.2852,128.185211,37.927955,2882.9139192000002,5.54,-64.421,190.504
9.3019,128.185209,37.927944,2878.3800192000003,5.524,-64.327,190.528
9.3186,128.185207,37.927932,2873.8485576000003,5.508,-64.236,190.551
9.3353,128.185206,37.92792,2869.3192296,5.493,-64.15,190.574
9.352,128.185204,37.927907,2864.79234,5.479,-64.066,190.596
9.3687,128.185202,37.927895,2860.267584,5.466,-63.985,190.618
9.3854,128.1852,37.927882,2855.7452664,5.454,-63.906,190.64
9.402,128.185198,37.92787,2851.2247776000004,5.444,-63.831,190.661
9.4187,128.185196,37.927857,2846.7070320000003,5.436,-63.757,190.682
9.4355,128.185193,37.927844,2842.1911152,5.43,-63.684,190.7
9.4522,128.185191,37.927831,2837.677332,5.425,-63.613,190.718
9.4689,128.185189,37.927817,2833.1656824,5.421,-63.544,190.735
9.4856,128.185187,37.927804,2828.6561664,5.418,-63.476,190.753
9.5023,128.185184,37.92779,2824.1484792,5.415,-63.411,190.77
9.519,128.185182,37.927777,2819.6429256,5.414,-63.348,190.788
9.5357,128.185179,37.927763,2815.1395056000006,5.415,-63.285,190.805
9.5524,128.185177,37.927749,2810.6376096000004,5.417,-63.224,190.82
9.5691,128.185174,37.927735,2806.1378472,5.42,-63.164,190.835
9.5857,128.185172,37.927721,2801.6396088,5.425,-63.105,190.85
9.6024,128.185169,37.927706,2797.1431992,5.431,-63.048,190.865
9.6192,128.185166,37.927692,2792.6483136,5.438,-62.993,190.881
9.6359,128.185164,37.927677,2788.1552568,5.447,-62.939,190.896
9.6526,128.185161,37.927663,2783.6640288,5.457,-62.885,190.91
9.6693,128.185158,37.927648,2779.17402,5.469,-62.833,190.923
9.686,128.185155,37.927633,2774.6855352000002,5.483,-62.782,190.936
9.7027,128.185152,37.927618,2770.1985744,5.498,-62.732,190.95
9.7194,128.185149,37.927602,2765.7128328000003,5.515,-62.684,190.965
9.7361,128.185146,37.927587,2761.22892,5.534,-62.637,190.978
9.7528,128.185143,37.927572,2756.7459215999997,5.553,-62.59,190.991
9.7694,128.18514,37.927556,2752.2641424,5.574,-62.545,191.002
9.7861,128.185137,37.927541,2747.7838872,5.596,-62.501,191.015
9.8029,128.185134,37.927525,2743.3042416000003,5.619,-62.458,191.027
9.8196,128.18513,37.927509,2738.8264248,5.641,-62.415,191.039
9.8363,128.185127,37.927493,2734.3492176,5.664,-62.373,191.05
9.853,128.185124,37.927477,2729.8732296000003,5.687,-62.332,191.06
9.8697,128.18512,37.927461,2725.3981559999997,5.71,-62.292,191.072
9.8864,128.185117,37.927444,2720.9236920000003,5.736,-62.272,191.077
9.9031,128.185113,37.927428,2716.4498375999997,5.764,-62.274,191.077
9.9198,128.18511,37.927411,2711.976288,5.794,-62.288,191.075
9.9365,128.185106,37.927395,2707.503348,5.826,-62.308,191.073
9.9531,128.185103,37.927378,2703.0307128,5.859,-62.328,191.073
9.9698,128.185099,37.927361,2698.558992,5.89,-62.343,191.073
9.9865,128.185096,37.927344,2694.0872712000005,5.92,-62.351,191.073
10.0033,128.185092,37.927327,2689.6161600000005,5.947,-62.353,191.074
10.02,128.185088,37.92731,2685.144744,5.972,-62.35,191.076
10.0367,128.185084,37.927293,2680.6742424,5.994,-62.341,191.079
10.0534,128.185081,37.927276,2676.2037408,6.012,-62.328,191.082
10.0701,128.185077,37.927259,2671.7332392000003,6.027,-62.312,191.086
10.0868,128.185073,37.927241,2667.2621280000003,6.044,-62.313,191.088
10.1035,128.185069,37.927224,2662.7913215999997,6.064,-62.338,191.084
10.1202,128.185065,37.927206,2658.3196008000004,6.086,-62.381,191.075
10.1368,128.185061,37.927188,2653.8478800000003,6.109,-62.429,191.065
10.1535,128.185057,37.927171,2649.3755496,6.131,-62.476,191.057
10.1702,128.185053,37.927153,2644.9029144,6.15,-62.516,191.049
10.187,128.185049,37.927135,2640.4299744,6.166,-62.548,191.043
10.2037,128.185045,37.927117,2635.95612,6.18,-62.57,191.038
10.2204,128.185041,37.927099,2631.481656,6.191,-62.585,191.037
10.2371,128.185037,37.927081,2627.0068872,6.199,-62.593,191.036
10.2538,128.185033,37.927063,2622.5308992,6.205,-62.594,191.037
10.2705,128.185028,37.927044,2618.0543016,6.21,-62.592,191.039
10.2872,128.185024,37.927026,2613.5767896,6.213,-62.585,191.042
10.3039,128.18502,37.927008,2609.098668,6.214,-62.576,191.046
10.3205,128.185016,37.926989,2604.6193272,6.215,-62.565,191.05
10.3372,128.185011,37.926971,2600.139072,6.216,-62.552,191.055
10.3539,128.185007,37.926952,2595.6575976,6.216,-62.538,191.059
10.3707,128.185003,37.926933,2591.1755136,6.215,-62.522,191.063
10.3874,128.184998,37.926915,2586.6919056000006,6.214,-62.506,191.067
10.4041,128.184994,37.926896,2582.2073832,6.212,-62.49,191.072
10.4208,128.18499,37.926877,2577.7216416,6.209,-62.473,191.078
10.4375,128.184985,37.926858,2573.2346807999998,6.206,-62.457,191.083
10.4542,128.184981,37.926839,2568.7465008000004,6.204,-62.44,191.088
10.4709,128.184976,37.92682,2564.2571016,6.201,-62.425,191.094
10.4876,128.184972,37.926801,2559.7664832,6.199,-62.409,191.1
10.5042,128.184967,37.926782,2555.2743408,6.198,-62.394,191.105
10.5209,128.184963,37.926763,2550.7806744,6.197,-62.378,191.111
10.5376,128.184958,37.926744,2546.2860936,6.196,-62.363,191.115
10.5544,128.184953,37.926724,2541.7899888,6.195,-62.348,191.12
10.5711,128.184949,37.926705,2537.2920552000005,6.194,-62.333,191.124
10.5878,128.184944,37.926685,2532.7932072000003,6.193,-62.318,191.128
10.6045,128.18494,37.926666,2528.2925304000005,6.191,-62.302,191.132
10.6212,128.184935,37.926646,2523.7906344000003,6.189,-62.288,191.136
10.6379,128.18493,37.926627,2519.2869096000004,6.186,-62.273,191.14
10.6546,128.184925,37.926607,2514.7816608,6.184,-62.258,191.143
10.6713,128.184921,37.926587,2510.274888,6.181,-62.243,191.147
10.6879,128.184916,37.926568,2505.7665912,6.177,-62.229,191.152
10.7046,128.184911,37.926548,2501.2564656,6.173,-62.216,191.156
10.7213,128.184906,37.926528,2496.7448160000004,6.17,-62.202,191.161
10.7381,128.184901,37.926508,2492.2313376,6.168,-62.189,191.165
10.7548,128.184897,37.926488,2487.7160304,6.166,-62.176,191.169
10.7715,128.184892,37.926468,2483.1991992000003,6.164,-62.163,191.173
10.7882,128.184887,37.926448,2478.6802344000002,6.163,-62.15,191.177
10.8049,128.184882,37.926428,2474.1597456,6.161,-62.137,191.18
10.8216,128.184877,37.926408,2469.637428,6.159,-62.124,191.183
10.8383,128.184872,37.926388,2465.1132816,6.157,-62.112,191.187
10.855,128.184867,37.926368,2460.5873064,6.155,-62.099,191.19
10.8717,128.184862,37.926347,2456.0591976,6.153,-62.087,191.193
10.8883,128.184857,37.926327,2451.5292600000002,6.151,-62.075,191.197
10.905,128.184852,37.926306,2446.9974936000003,6.149,-62.064,191.2
10.9218,128.184847,37.926286,2442.4635936000004,6.147,-62.052,191.203
10.9385,128.184842,37.926266,2437.92756,6.145,-62.041,191.206
10.9552,128.184837,37.926245,2433.3900024,6.144,-62.03,191.209
10.9719,128.184832,37.926224,2428.8500064,6.142,-62.018,191.212
10.9886,128.184827,37.926204,2424.3081816,6.14,-62.007,191.215
11.0053,128.184822,37.926183,2419.7639184,6.138,-61.997,191.218
11.022,128.184817,37.926163,2415.2178264000004,6.137,-61.986,191.22
11.0387,128.184811,37.926142,2410.6696008,6.135,-61.975,191.223
11.0554,128.184806,37.926121,2406.1192416,6.134,-61.965,191.226
11.072,128.184801,37.9261,2401.5667488,6.133,-61.955,191.229
11.0887,128.184796,37.926079,2397.0121224,6.131,-61.944,191.232
11.1054,128.184791,37.926058,2392.4550576,6.13,-61.934,191.235
11.1222,128.184785,37.926037,2387.8958592000004,6.129,-61.924,191.237
11.1389,128.18478,37.926016,2383.3345272,6.127,-61.914,191.24
11.1556,128.184775,37.925995,2378.7707568,6.126,-61.904,191.243
11.1723,128.18477,37.925974,2374.2048528,6.126,-61.895,191.245
11.189,128.184764,37.925953,2369.6368152,6.125,-61.885,191.248
11.2057,128.184759,37.925932,2365.0660344000003,6.124,-61.876,191.251
11.2224,128.184754,37.925911,2360.49312,6.123,-61.867,191.253
11.2391,128.184748,37.92589,2355.9180720000004,6.122,-61.858,191.257
11.2557,128.184743,37.925868,2351.3402808,6.122,-61.849,191.259
11.2724,128.184738,37.925847,2346.7603560000002,6.122,-61.84,191.262
11.2891,128.184732,37.925826,2342.1779928,6.121,-61.831,191.265
11.3059,128.184727,37.925804,2337.5931912,6.121,-61.823,191.267
11.3226,128.184721,37.925783,2333.0056464,6.121,-61.814,191.27
11.3393,128.184716,37.925761,2328.4159680000002,6.121,-61.806,191.273
11.356,128.18471,37.92574,2323.8238512000003,6.12,-61.798,191.275
11.3727,128.184705,37.925718,2319.2289912,6.121,-61.79,191.278
11.3894,128.1847,37.925697,2314.6319976,6.121,-61.782,191.281
11.4061,128.184694,37.925675,2310.0322608,6.121,-61.774,191.284
11.4228,128.184689,37.925654,2305.4297808,6.122,-61.767,191.286
11.4394,128.184683,37.925632,2300.8251672,6.122,-61.76,191.287
11.4561,128.184678,37.92561,2296.2178104,6.124,-61.753,191.288
11.4728,128.184672,37.925588,2291.6077104,6.124,-61.745,191.29
11.4896,128.184666,37.925567,2286.9954768,6.123,-61.738,191.291
11.5063,128.184661,37.925545,2282.3801952,6.121,-61.731,191.293
11.523,128.184655,37.925523,2277.7624752,6.12,-61.723,191.296
11.5397,128.18465,37.925501,2273.142012,6.118,-61.716,191.298
11.5564,128.184644,37.925479,2268.5191104,6.117,-61.71,191.3
11.5731,128.184639,37.925457,2263.8934656,6.116,-61.703,191.303
11.5898,128.184633,37.925435,2259.2650776,6.116,-61.696,191.306
11.6065,128.184627,37.925413,2254.6339464000002,6.116,-61.689,191.308
11.6231,128.184622,37.925391,2250.0000720000003,6.116,-61.682,191.31
11.6398,128.184616,37.925369,2245.3637592,6.116,-61.676,191.313
11.6565,128.18461,37.925347,2240.7243984,6.117,-61.67,191.315
11.6733,128.184605,37.925325,2236.082904,6.117,-61.665,191.316
11.69,128.184599,37.925303,2231.4383616,6.117,-61.659,191.316
11.7067,128.184593,37.92528,2226.791076,6.116,-61.654,191.317
11.7234,128.184587,37.925258,2222.1410472,6.113,-61.648,191.319
11.7401,128.184582,37.925236,2217.4882752000003,6.11,-61.643,191.32
11.7568,128.184576,37.925214,2212.8330648,6.104,-61.638,191.32
11.7735,128.18457,37.925191,2208.1748064,6.099,-61.633,191.32
11.7902,128.184564,37.925169,2203.5138048000003,6.093,-61.628,191.321
11.8068,128.184559,37.925147,2198.85006,6.085,-61.623,191.322
11.8235,128.184553,37.925124,2194.1835720000004,6.077,-61.618,191.324
11.8402,128.184547,37.925102,2189.514036,6.071,-61.613,191.326
11.857,128.184541,37.925079,2184.8420616000003,6.065,-61.607,191.329
11.8737,128.184535,37.925057,2180.1667344,6.06,-61.602,191.33
11.8904,128.18453,37.925034,2175.4892736,6.052,-61.597,191.33
11.9071,128.184524,37.925012,2170.8087648,6.044,-61.592,191.329
11.9238,128.184518,37.924989,2166.125208,6.036,-61.588,191.33
11.9405,128.184512,37.924966,2161.4392128000004,6.023,-61.584,191.331
11.9572,128.184506,37.924944,2156.7498648,6.012,-61.579,191.332
11.9739,128.1845,37.924921,2152.0577736,6.003,-61.575,191.336
11.9905,128.184494,37.924898,2147.3629392000003,5.994,-61.57,191.338
12.0072,128.184489,37.924876,2142.6650568,5.988,-61.565,191.34
12.0239,128.184483,37.924853,2137.9650408,5.978,-61.561,191.339
12.0407,128.184477,37.92483,2133.2613672,5.967,-61.557,191.338
12.0574,128.184471,37.924807,2128.5549504,5.957,-61.553,191.339
12.0741,128.184465,37.924784,2123.8460952,5.94,-61.549,191.34
12.0908,128.184459,37.924761,2119.1338872,5.924,-61.545,191.341
12.1075,128.184453,37.924739,2114.4198504,5.899,-61.541,191.34
12.1242,128.184447,37.924716,2109.7021560000003,5.872,-61.537,191.339
12.1409,128.184441,37.924693,2104.9814136,5.849,-61.532,191.34
12.1576,128.184435,37.92467,2100.2582328,5.819,-61.528,191.341
12.1743,128.184429,37.924647,2095.5316992000003,5.793,-61.524,191.343
12.1909,128.184423,37.924624,2090.8021176,5.773,-61.52,191.347
12.2076,128.184417,37.924601,2086.0697928,5.752,-61.515,191.35
12.2243,128.184411,37.924577,2081.33442,5.736,-61.511,191.352
12.2411,128.184405,37.924554,2076.5972184,5.707,-61.507,191.35
12.2578,128.184399,37.924531,2071.8563592,5.676,-61.503,191.347
12.2745,128.184393,37.924508,2067.1118424,5.647,-61.5,191.347
12.2912,128.184387,37.924485,2062.3658016000004,5.608,-61.497,191.349
12.3079,128.184381,37.924462,2057.6157984,5.572,-61.495,191.352
12.3246,128.184375,37.924438,2052.8642712,5.521,-61.492,191.351
12.3413,128.184368,37.924415,2048.1087816,5.469,-61.489,191.349
12.358,128.184362,37.924392,2043.3496344000002,5.426,-61.486,191.35
12.3746,128.184356,37.924369,2038.589268,5.368,-61.482,191.352
12.3913,128.18435,37.924345,2033.8246344000001,5.315,-61.479,191.354
12.408,128.184344,37.924322,2029.0584767999999,5.234,-61.475,191.35
12.4248,128.184338,37.924298,2024.2886616,5.148,-61.471,191.345
12.4415,128.184332,37.924275,2019.5151888,5.073,-61.468,191.347
12.4582,128.184326,37.924252,2014.7404968,4.975,-61.465,191.349
12.4749,128.18432,37.924228,2009.960928,4.888,-61.462,191.353
12.4916,128.184313,37.924205,2005.1801400000002,4.768,-61.459,191.351
12.5083,128.184307,37.924181,2000.3966088,4.64,-61.455,191.345
12.525,128.184301,37.924158,1995.6088104,4.527,-61.451,191.346
12.5417,128.184295,37.924134,1990.8197928,4.384,-61.448,191.347
12.5583,128.184289,37.92411,1986.0265080000001,4.247,-61.444,191.35
12.575,128.184282,37.924087,1981.2292608,4.146,-61.44,191.357
12.5917,128.184276,37.924063,1976.4286608,4.078,-61.437,191.368
12.6085,128.18427,37.92404,1971.6250128000001,4.039,-61.433,191.378
12.6252,128.184264,37.924016,1966.818012,4.026,-61.428,191.384
12.6419,128.184258,37.923992,1962.0076584000003,4.031,-61.423,191.385
12.6586,128.184251,37.923969,1957.1945616,4.048,-61.418,191.382
12.6753,128.184245,37.923945,1952.3784168,4.067,-61.413,191.379
12.692,128.184239,37.923921,1947.559224,4.081,-61.407,191.378
12.7087,128.184233,37.923897,1942.7369832000002,4.092,-61.402,191.379
12.7254,128.184226,37.923874,1937.9116944000002,4.101,-61.397,191.381
12.742,128.18422,37.92385,1933.0833576,4.112,-61.391,191.382
12.7587,128.184214,37.923826,1928.2522776,4.125,-61.385,191.382
12.7754,128.184208,37.923802,1923.4178448000002,4.142,-61.379,191.381
12.7922,128.184201,37.923778,1918.5803640000001,4.159,-61.373,191.38
12.8089,128.184195,37.923754,1913.74014,4.173,-61.366,191.38
12.8256,128.184189,37.92373,1908.896868,4.186,-61.359,191.381
12.8423,128.184182,37.923706,1904.0505480000002,4.199,-61.353,191.382
12.859,128.184176,37.923682,1899.2011800000002,4.214,-61.346,191.382
12.8757,128.18417,37.923658,1894.3490688,4.231,-61.339,191.382
12.8924,128.184163,37.923634,1889.4936048000002,4.245,-61.331,191.383
12.9091,128.184157,37.92361,1884.6353976,4.26,-61.324,191.384
12.9257,128.184151,37.923586,1879.7741424,4.274,-61.317,191.385
12.9424,128.184144,37.923562,1874.9098392000003,4.291,-61.31,191.385
12.9591,128.184138,37.923538,1870.0427928,4.309,-61.303,191.385
12.9759,128.184132,37.923514,1865.1726984,4.324,-61.296,191.386
12.9926,128.184125,37.92349,1860.2995560000002,4.34,-61.289,191.387
13.0093,128.184119,37.923466,1855.4233656000001,4.355,-61.282,191.388
13.026,128.184113,37.923442,1850.5444320000001,4.373,-61.275,191.388
13.0427,128.184106,37.923417,1845.6624504000001,4.392,-61.267,191.389
13.0594,128.1841,37.923393,1840.7774208,4.414,-61.26,191.388
13.0761,128.184094,37.923369,1835.889648,4.436,-61.253,191.387
13.0928,128.184087,37.923345,1830.9988272,4.454,-61.246,191.388
13.1095,128.184081,37.92332,1826.1052632,4.472,-61.238,191.389
13.1262,128.184074,37.923296,1821.2086512,4.49,-61.231,191.39
13.1429,128.184068,37.923272,1816.3089912000003,4.512,-61.224,191.39
13.1596,128.184061,37.923247,1811.4062832000002,4.534,-61.217,191.39
13.1763,128.184055,37.923223,1806.5008320000002,4.56,-61.209,191.389
13.193,128.184049,37.923198,1801.5923328000001,4.586,-61.202,191.388
13.2097,128.184042,37.923174,1796.6813952,4.607,-61.195,191.389
13.2264,128.184036,37.92315,1791.7671048000002,4.628,-61.188,191.39
13.2431,128.184029,37.923125,1786.8500712,4.649,-61.18,191.391
13.2598,128.184023,37.923101,1781.9299896,4.673,-61.173,191.391
13.2765,128.184016,37.923076,1777.0071648,4.699,-61.166,191.391
13.2932,128.18401,37.923052,1772.0815968000002,4.721,-61.158,191.392
13.3099,128.184003,37.923027,1767.1526760000002,4.743,-61.151,191.393
13.3266,128.183997,37.923002,1762.2213168,4.764,-61.144,191.394
13.3433,128.18399,37.922978,1757.2869096000002,4.789,-61.136,191.395
13.36,128.183984,37.922953,1752.3497592,4.815,-61.129,191.395
13.3767,128.183977,37.922929,1747.4095608,4.844,-61.122,191.395
13.3934,128.183971,37.922904,1742.4666192,4.873,-61.114,191.395
13.4101,128.183964,37.922879,1737.5206296000001,4.897,-61.107,191.396
13.4268,128.183958,37.922854,1732.5718968,4.922,-61.099,191.397
13.4435,128.183951,37.92283,1727.6204208000001,4.945,-61.092,191.399
13.4602,128.183945,37.922805,1722.6658968000002,4.973,-61.084,191.399
13.4769,128.183938,37.92278,1717.7086296,5.001,-61.077,191.4
13.4936,128.183932,37.922755,1712.7486192000001,5.034,-61.07,191.399
13.5103,128.183925,37.922731,1707.7855608,5.067,-61.062,191.399
13.527,128.183918,37.922706,1702.8200640000002,5.094,-61.055,191.4
13.5437,128.183912,37.922681,1697.8512144,5.121,-61.047,191.401
13.5604,128.183905,37.922656,1692.8799264000002,5.147,-61.04,191.403
13.5771,128.183899,37.922631,1687.9055904,5.177,-61.032,191.404
13.5938,128.183892,37.922606,1682.928816,5.207,-61.025,191.404
13.6105,128.183885,37.922581,1677.9486888000001,5.243,-61.017,191.404
13.6272,128.183879,37.922556,1672.9661232000003,5.278,-61.01,191.404
13.6439,128.183872,37.922531,1667.9805096000002,5.308,-61.002,191.405
13.6606,128.183866,37.922506,1662.9924576,5.337,-60.995,191.406
13.6773,128.183859,37.922481,1658.0013576,5.365,-60.987,191.408
13.694,128.183852,37.922456,1653.0075144,5.397,-60.98,191.409
13.7107,128.183846,37.922431,1648.010928,5.429,-60.972,191.41
13.7274,128.183839,37.922406,1643.0112936000003,5.467,-60.964,191.41
13.7441,128.183832,37.922381,1638.0092208,5.503,-60.957,191.41
13.7608,128.183826,37.922355,1633.0044048000002,5.534,-60.949,191.412
13.7775,128.183819,37.92233,1627.9965408,5.565,-60.942,191.413
13.7942,128.183812,37.922305,1622.9862384,5.594,-60.934,191.415
13.8109,128.183806,37.92228,1617.9728880000002,5.627,-60.926,191.417
13.8276,128.183799,37.922255,1612.9567944,5.661,-60.919,191.418
13.8443,128.183792,37.922229,1607.9379576,5.7,-60.911,191.418
13.861,128.183785,37.922204,1602.9163776000003,5.738,-60.904,191.418
13.8777,128.183779,37.922179,1597.8920544,5.782,-60.896,191.418
13.8944,128.183772,37.922153,1592.8649880000003,5.826,-60.888,191.419
13.9111,128.183765,37.922128,1587.8351784000001,5.862,-60.881,191.42
13.9278,128.183758,37.922103,1582.8026256,5.897,-60.873,191.422
13.9445,128.183752,37.922077,1577.7676344000001,5.93,-60.865,191.424
13.9612,128.183745,37.922052,1572.7295952,5.967,-60.858,191.425
13.9779,128.183738,37.922026,1567.6891176000001,6.004,-60.85,191.426
13.9946,128.183731,37.922001,1562.645592,6.048,-60.842,191.427
14.0113,128.183725,37.921975,1557.599628,6.09,-60.835,191.427
14.028,128.183718,37.92195,1552.5503112000001,6.138,-60.827,191.427
14.0447,128.183711,37.921924,1547.4988607999999,6.186,-60.819,191.428
14.0614,128.183704,37.921899,1542.4449720000002,6.224,-60.811,191.429
14.0781,128.183697,37.921873,1537.3880352,6.263,-60.804,191.431
14.0948,128.183691,37.921848,1532.3286600000001,6.297,-60.796,191.433
14.1115,128.183684,37.921822,1527.2662368000001,6.336,-60.788,191.435
14.1282,128.183677,37.921796,1522.2013752,6.374,-60.781,191.437
14.1449,128.18367,37.921771,1517.1334656,6.418,-60.773,191.438
14.1616,128.183663,37.921745,1512.0634224,6.462,-60.765,191.439
14.1783,128.183656,37.921719,1506.9900264,6.512,-60.757,191.44
14.195,128.18365,37.921694,1501.9144968,6.562,-60.75,191.441
14.2117,128.183643,37.921668,1496.8365288000002,6.602,-60.742,191.442
14.2284,128.183636,37.921642,1491.7555128000001,6.642,-60.734,191.444
14.2451,128.183629,37.921616,1486.6720584000002,6.677,-60.726,191.447
14.2618,128.183622,37.921591,1481.5858607999999,6.717,-60.718,191.449
14.2785,128.183615,37.921565,1476.4972248,6.755,-60.711,191.451
14.2952,128.183608,37.921539,1471.4055408000002,6.799,-60.703,191.452
14.3119,128.183601,37.921513,1466.3114184,6.842,-60.695,191.453
14.3286,128.183594,37.921487,1461.2145528,6.892,-60.687,191.454
14.3453,128.183588,37.921461,1456.1152488,6.94,-60.679,191.455
14.362,128.183581,37.921435,1451.0128968000001,6.993,-60.671,191.456
14.3787,128.183574,37.921409,1445.9084112,7.043,-60.664,191.457
14.3954,128.183567,37.921383,1440.8014872,7.08,-60.656,191.459
14.4121,128.18356,37.921357,1435.69182,7.116,-60.648,191.461
14.4288,128.183553,37.921331,1430.5797144,7.148,-60.64,191.464
14.4455,128.183546,37.921305,1425.4645607999998,7.183,-60.632,191.467
14.4622,128.183539,37.921279,1420.3475784,7.217,-60.624,191.469
14.4789,128.183532,37.921253,1415.2272432,7.256,-60.616,191.471
14.4956,128.183525,37.921227,1410.1047744000002,7.295,-60.608,191.473
14.5123,128.183518,37.921201,1404.9792576,7.341,-60.6,191.474
14.529,128.183511,37.921175,1399.8516072000002,7.385,-60.592,191.476
14.5457,128.183504,37.921148,1394.7209088,7.435,-60.584,191.477
14.5624,128.183497,37.921122,1389.5880768,7.481,-60.576,191.478
14.5791,128.18349,37.921096,1384.4531112,7.515,-60.568,191.481
14.5958,128.183483,37.92107,1379.3150976,7.546,-60.56,191.484
14.6125,128.183476,37.921044,1374.1749504000002,7.572,-60.552,191.487
14.6292,128.183469,37.921017,1369.03206,7.603,-60.544,191.491
14.6459,128.183462,37.920991,1363.8867312000002,7.633,-60.536,191.494
14.6626,128.183454,37.920965,1358.7386592,7.67,-60.528,191.496
14.6793,128.183447,37.920938,1353.5881488,7.706,-60.52,191.498
14.696,128.18344,37.920912,1348.4348952,7.747,-60.512,191.5
14.7127,128.183433,37.920885,1343.279508,7.786,-60.504,191.502
14.7294,128.183426,37.920859,1338.1210728,7.829,-60.496,191.504
14.7461,128.183419,37.920833,1332.9608088,7.871,-60.488,191.506
14.7628,128.183412,37.920806,1327.797192,7.919,-60.48,191.507
14.7795,128.183405,37.92078,1322.6317464,7.964,-60.471,191.509
14.7962,128.183398,37.920753,1317.4641672,7.997,-60.463,191.511
14.8129,128.18339,37.920727,1312.2935400000001,8.029,-60.455,191.514
14.8296,128.183383,37.9207,1307.121084,8.052,-60.447,191.518
14.8463,128.183376,37.920674,1301.9452752000002,8.08,-60.439,191.522
14.863,128.183369,37.920647,1296.7679424000003,8.105,-60.431,191.526
14.8797,128.183362,37.92062,1291.5872568,8.138,-60.423,191.529
14.8964,128.183355,37.920594,1286.4047424000003,8.168,-60.415,191.531
14.9131,128.183347,37.920567,1281.2194848,8.206,-60.406,191.534
14.9298,128.18334,37.92054,1276.0317888000002,8.24,-60.398,191.536
14.9465,128.183333,37.920514,1270.8416544,8.281,-60.39,191.539
14.9632,128.183326,37.920487,1265.6490816,8.318,-60.382,191.541
14.9799,128.183319,37.92046,1260.4537656,8.361,-60.373,191.543
14.9966,128.183311,37.920433,1255.2566208,8.401,-60.365,191.545
15.0133,128.183304,37.920407,1250.0564279999999,8.446,-60.357,191.547
15.03,128.183297,37.92038,1244.8541016000001,8.488,-60.349,191.549
15.0467,128.18329,37.920353,1239.649032,8.535,-60.34,191.551
15.0634,128.183282,37.920326,1234.4421336,8.578,-60.332,191.553
15.0801,128.183275,37.920299,1229.2331016,8.606,-60.324,191.556
15.0968,128.183268,37.920272,1224.0210216,8.631,-60.315,191.56
15.1135,128.18326,37.920246,1218.8074176,8.648,-60.307,191.564
15.1302,128.183253,37.920219,1213.5907656000002,8.67,-60.299,191.569
15.1469,128.183246,37.920192,1208.3722848,8.689,-60.291,191.573
15.1636,128.183239,37.920165,1203.150756,8.717,-60.283,191.577
15.1803,128.183231,37.920138,1197.9270936,8.743,-60.274,191.58
15.197,128.183224,37.920111,1192.7009928,8.777,-60.266,191.583
15.2137,128.183217,37.920084,1187.4727584,8.808,-60.257,191.586
15.2304,128.183209,37.920057,1182.2417808,8.846,-60.249,191.589
15.2471,128.183202,37.920029,1177.0086696,8.881,-60.241,191.592
15.2638,128.183194,37.920002,1171.7728152,8.921,-60.232,191.594
15.2805,128.183187,37.919975,1166.5351320000002,8.957,-60.224,191.597
15.2972,128.18318,37.919948,1161.2947056,8.996,-60.215,191.599
15.3139,128.183172,37.919921,1156.0524504,9.03,-60.207,191.602
15.3306,128.183165,37.919894,1150.807452,9.069,-60.199,191.605
15.3473,128.183158,37.919867,1145.56032,9.104,-60.19,191.608
15.364,128.18315,37.919839,1140.3104448000001,9.146,-60.182,191.61
15.3807,128.183143,37.919812,1135.0587408000001,9.184,-60.173,191.613
15.3974,128.183135,37.919785,1129.8042936,9.229,-60.165,191.615
