Time,Longitude,Latitude,Altitude,Roll (deg),Pitch (deg),Yaw (deg)
0.0,128.181881,37.968463,7002.830292000001,0.0,-0.003,179.999
0.0167,128.181881,37.968418,7002.8116992000005,0.0,-0.012,180.0
0.0334,128.181881,37.968374,7002.792496800001,0.0,-0.026,180.0
0.0501,128.181881,37.968329,7002.7720752,0.0,-0.042,180.0
0.0668,128.181881,37.968284,7002.751044,0.0,-0.06,180.0
0.0834,128.181881,37.968239,7002.7287936,0.0,-0.08,180.0
0.1002,128.181881,37.968194,7002.705933600001,0.0,-0.1,180.0
0.1169,128.181881,37.968149,7002.682159200001,0.0,-0.12,180.0
0.1336,128.181881,37.968104,7002.657165600001,0.0,-0.14,180.0
0.1503,128.181881,37.968059,7002.6315624,0.0,-0.161,180.0
0.1669,128.181881,37.968014,7002.60474,0.0,-0.181,180.0
0.1837,128.181881,37.967969,7002.577308,0.0,-0.201,180.0
0.2004,128.181881,37.967924,7002.548656800001,0.0,-0.221,180.0
0.2171,128.181881,37.967879,7002.5187864,0.0,-0.24,180.0
0.2338,128.181881,37.967834,7002.4883064000005,0.0,-0.26,180.0
0.2505,128.181881,37.967788,7002.4566072,0.0,-0.279,180.0
0.2672,128.181881,37.967743,7002.423993599999,0.0,-0.297,180.0
0.2839,128.181881,37.967698,7002.3904656,0.0,-0.316,180.0
0.3006,128.181881,37.967653,7002.3557184,0.0,-0.334,180.0
0.3172,128.181881,37.967608,7002.320056800001,0.0,-0.352,180.0
0.3339,128.181881,37.967563,7002.2834808,0.0,-0.37,180.0
0.3507,128.181881,37.967518,7002.2456856,0.0,-0.387,180.0
0.3674,128.181881,37.967473,7002.2066712,0.0,-0.405,180.0
0.3841,128.181881,37.967428,7002.166742400001,0.001,-0.422,180.0
0.4008,128.181881,37.967382,7002.1258992,0.001,-0.439,180.0
0.4175,128.181881,37.967337,7002.0838368,0.001,-0.456,180.0
0.4342,128.181881,37.967292,7002.0405552,0.001,-0.472,180.0
0.4509,128.181881,37.967247,7001.9963592,0.001,-0.489,180.0
0.4676,128.181881,37.967202,7001.9512488,0.001,-0.505,180.0
0.4843,128.181881,37.967157,7001.9046144,0.002,-0.521,180.0
0.501,128.181881,37.967111,7001.857370400001,0.002,-0.537,180.0
0.5176,128.181881,37.967066,7001.8086023999995,0.002,-0.553,180.0
0.5344,128.181881,37.967021,7001.758920000001,0.002,-0.568,180.0
0.5511,128.181881,37.966976,7001.708018400001,0.003,-0.584,180.0
0.5678,128.181881,37.966931,7001.6562023999995,0.003,-0.599,180.0
0.5845,128.181881,37.966885,7001.6031672,0.003,-0.615,180.0
0.6012,128.181881,37.96684,7001.5489128,0.004,-0.63,180.0
0.6179,128.181881,37.966795,7001.493744,0.004,-0.645,180.0
0.6345,128.181881,37.96675,7001.437356,0.005,-0.66,180.0
0.6513,128.181881,37.966704,7001.3797488,0.005,-0.675,180.0
0.6679,128.181881,37.966659,7001.3212272,0.006,-0.69,180.0
0.6847,128.181881,37.966614,7001.261486400001,0.006,-0.705,180.0
0.7014,128.181881,37.966568,7001.2005264,0.007,-0.719,180.001
0.7181,128.181881,37.966523,7001.138347200001,0.008,-0.734,180.001
0.7348,128.181881,37.966478,7001.0752536,0.009,-0.748,180.001
0.7514,128.181881,37.966432,7001.010636,0.01,-0.763,180.001
0.7682,128.181881,37.966387,7000.9454088,0.011,-0.777,180.001
0.7848,128.181881,37.966342,7000.8786576,0.012,-0.792,180.001
0.8016,128.181881,37.966296,7000.810992000001,0.013,-0.806,180.001
0.8183,128.181881,37.966251,7000.7418024,0.014,-0.82,180.001
0.835,128.181881,37.966206,7000.6716983999995,0.015,-0.834,180.001
0.8517,128.181881,37.96616,7000.60068,0.017,-0.848,180.001
0.8684,128.181881,37.966115,7000.5281376,0.019,-0.862,180.001
0.8851,128.181881,37.966069,7000.4546808000005,0.02,-0.876,180.002
0.9018,128.181881,37.966024,7000.3800048,0.022,-0.89,180.002
0.9185,128.181881,37.965979,7000.304109600001,0.024,-0.904,180.002
0.9352,128.181881,37.965933,7000.226995200001,0.027,-0.918,180.002
0.9519,128.181881,37.965888,7000.1489664,0.029,-0.932,180.002
0.9686,128.181881,37.965842,7000.0694136,0.032,-0.946,180.002
0.9853,128.181881,37.965797,6999.988946400001,0.035,-0.959,180.003
1.002,128.181881,37.965751,6999.907260000001,0.038,-0.973,180.003
1.0187,128.181881,37.965706,6999.824354400001,0.041,-0.987,180.003
1.0353,128.181881,37.96566,6999.7405344,0.045,-1.0,180.003
1.0521,128.181881,37.965615,6999.6551904,0.049,-1.014,180.003
1.0688,128.181881,37.965569,6999.568932,0.054,-1.028,180.004
1.0855,128.181881,37.965524,6999.4814544,0.059,-1.041,180.004
1.1022,128.181881,37.965478,6999.3927576,0.064,-1.055,180.004
1.1189,128.181881,37.965433,6999.302841600001,0.07,-1.068,180.005
1.1356,128.181881,37.965387,6999.2117064,0.076,-1.082,180.005
1.1522,128.181881,37.965341,6999.119352000001,0.083,-1.095,180.005
1.169,128.181881,37.965296,6999.0260832,0.09,-1.109,180.006
1.1857,128.181881,37.96525,6998.9312904,0.098,-1.122,180.006
1.2024,128.181881,37.965205,6998.835583200001,0.107,-1.136,180.007
1.2191,128.181881,37.965159,6998.738656800001,0.116,-1.149,180.007
1.2358,128.181881,37.965114,6998.6402064,0.126,-1.162,180.008
1.2525,128.181881,37.965068,6998.540841600001,0.138,-1.176,180.009
1.2691,128.181881,37.965022,6998.4402576,0.15,-1.189,180.009
1.2859,128.181881,37.964977,6998.3384544,0.163,-1.202,180.01
1.3026,128.181881,37.964931,6998.235432,0.177,-1.216,180.011
1.3193,128.181881,37.964885,6998.1311904,0.193,-1.229,180.012
1.3359,128.181881,37.96484,6998.0257296,0.21,-1.243,180.013
1.3527,128.18188,37.964794,6997.9190496,0.228,-1.256,180.014
1.3694,128.18188,37.964748,6997.811150400001,0.248,-1.269,180.015
1.386,128.18188,37.964703,6997.7017272,0.27,-1.283,180.016
1.4028,128.18188,37.964657,6997.5913896,0.294,-1.296,180.017
1.4195,128.18188,37.964611,6997.479832800001,0.319,-1.309,180.018
1.4362,128.18188,37.964565,6997.366752000001,0.347,-1.323,180.02
1.4528,128.18188,37.96452,6997.252452000001,0.378,-1.336,180.022
1.4696,128.18188,37.964474,6997.136932800001,0.411,-1.35,180.023
1.4863,128.18188,37.964428,6997.0201944,0.446,-1.363,180.025
1.5029,128.18188,37.964382,6996.9022368000005,0.485,-1.376,180.027
1.5197,128.18188,37.964337,6996.782755200001,0.528,-1.39,180.03
1.5364,128.18188,37.964291,6996.662054400001,0.574,-1.403,180.032
1.5531,128.18188,37.964245,6996.539829599999,0.624,-1.417,180.035
1.5697,128.18188,37.964199,6996.4163856000005,0.678,-1.431,180.038
1.5865,128.18188,37.964153,6996.2917224,0.737,-1.444,180.041
1.6032,128.18188,37.964108,6996.1655352,0.802,-1.458,180.044
1.6198,128.18188,37.964062,6996.037824000001,0.872,-1.472,180.048
1.6366,128.18188,37.964016,6995.9088936,0.948,-1.486,180.052
1.6533,128.18188,37.96397,6995.7781343999995,1.03,-1.499,180.056
1.67,128.18188,37.963924,6995.646156000001,1.12,-1.513,180.061
1.6867,128.18188,37.963878,6995.5126536,1.217,-1.527,180.066
1.7034,128.18188,37.963832,6995.3776272000005,1.323,-1.542,180.071
1.7201,128.18188,37.963786,6995.2410768,1.439,-1.556,180.077
1.7368,128.18188,37.963741,6995.102697600001,1.564,-1.57,180.084
1.7535,128.18188,37.963695,6994.9627944,1.7,-1.585,180.091
1.7702,128.18188,37.963649,6994.8210624,1.848,-1.6,180.099
1.7869,128.18188,37.963603,6994.677806400001,2.009,-1.615,180.107
1.8036,128.18188,37.963557,6994.5327216000005,2.185,-1.63,180.116
1.8203,128.18188,37.963511,6994.385808,2.376,-1.645,180.125
1.837,128.18188,37.963465,6994.2367608,2.584,-1.661,180.135
1.8537,128.18188,37.963419,6994.0858848,2.811,-1.676,180.145
1.8704,128.18188,37.963373,6993.9328752,3.06,-1.693,180.155
1.8871,128.18188,37.963327,6993.7780368,3.33,-1.709,180.165
1.9038,128.18188,37.963281,6993.620760000001,3.625,-1.726,180.175
1.9205,128.18188,37.963235,6993.4613496,3.946,-1.743,180.186
1.9372,128.18188,37.963189,6993.299500800001,4.296,-1.76,180.197
1.9539,128.18188,37.963142,6993.134908800001,4.677,-1.778,180.208
1.9706,128.18188,37.963096,6992.968183200001,5.092,-1.797,180.22
1.9873,128.18188,37.96305,6992.798409600001,5.544,-1.815,180.232
2.004,128.18188,37.963004,6992.625892800001,6.037,-1.835,180.245
2.0207,128.18188,37.962958,6992.450328000001,6.574,-1.855,180.258
2.0374,128.18188,37.962912,6992.2717152000005,7.158,-1.876,180.271
2.0541,128.18188,37.962866,6992.091273600001,7.713,-1.897,180.28
2.0707,128.18188,37.96282,6991.9086984,8.235,-1.918,180.285
2.0875,128.18188,37.962773,6991.7242944,8.731,-1.939,180.287
2.1042,128.18188,37.962727,6991.538976,9.206,-1.959,180.288
2.1208,128.18188,37.962681,6991.3527432,9.667,-1.98,180.29
2.1376,128.18188,37.962635,6991.1649864,10.118,-2.001,180.293
2.1543,128.18188,37.962589,6990.975400800001,10.566,-2.023,180.297
2.171,128.18188,37.962542,6990.783986400001,11.015,-2.045,180.302
2.1877,128.18188,37.962496,6990.591048,11.469,-2.067,180.308
2.2044,128.18188,37.96245,6990.3962808,11.932,-2.089,180.315
2.2211,128.18188,37.962404,6990.19938,12.406,-2.112,180.322
2.2378,128.18188,37.962357,6990.0006504,12.894,-2.135,180.329
2.2544,128.181879,37.962311,6989.7997872000005,13.396,-2.157,180.337
2.2712,128.181879,37.962265,6989.5967904,13.916,-2.181,180.345
2.2879,128.181879,37.962218,6989.39166,14.453,-2.204,180.354
2.3045,128.181879,37.962172,6989.184091200001,15.01,-2.228,180.362
2.3213,128.181879,37.962126,6988.9746936,15.587,-2.252,180.371
2.338,128.181879,37.962079,6988.7628576,16.185,-2.276,180.379
2.3546,128.181879,37.962033,6988.5485832,16.806,-2.301,180.388
2.3714,128.181879,37.961987,6988.3321752,17.45,-2.326,180.397
2.3881,128.181879,37.96194,6988.113024,18.119,-2.351,180.405
2.4048,128.181879,37.961894,6987.8917392,18.812,-2.377,180.414
2.4215,128.181879,37.961847,6987.667711200001,19.532,-2.404,180.423
2.4382,128.181879,37.961801,6987.4412448,20.28,-2.431,180.431
2.4549,128.181879,37.961754,6987.2120352,21.056,-2.458,180.44
2.4716,128.181879,37.961708,6986.9800824,21.861,-2.486,180.448
2.4882,128.181879,37.961661,6986.745691200001,22.697,-2.515,180.457
2.505,128.181878,37.961615,6986.508556800001,23.564,-2.544,180.465
2.5217,128.181878,37.961568,6986.2683744000005,24.465,-2.574,180.472
2.5383,128.181878,37.961522,6986.0254488,25.4,-2.604,180.48
2.5551,128.181878,37.961475,6985.77978,26.371,-2.635,180.486
2.5718,128.181878,37.961429,6985.5307584,27.378,-2.666,180.492
2.5884,128.181878,37.961382,6985.2789936,28.423,-2.698,180.498
2.6052,128.181878,37.961336,6985.0241808,29.507,-2.731,180.502
2.6219,128.181878,37.961289,6984.766320000001,30.631,-2.764,180.507
2.6386,128.181878,37.961242,6984.505106400001,31.797,-2.797,180.51
2.6553,128.181878,37.961196,6984.240844800001,33.006,-2.832,180.513
2.6719,128.181878,37.961149,6983.9732304,34.258,-2.867,180.514
2.6887,128.181878,37.961102,6983.702568000001,35.556,-2.902,180.515
2.7054,128.181878,37.961056,6983.428248,36.901,-2.939,180.515
2.722,128.181878,37.961009,6983.1505752,38.293,-2.975,180.515
2.7388,128.181878,37.960962,6982.8698544,39.735,-3.013,180.513
2.7555,128.181877,37.960916,6982.585476,41.226,-3.051,180.509
2.7721,128.181877,37.960869,6982.2977448,42.766,-3.089,180.505
2.7889,128.181877,37.960822,6982.006660800001,44.351,-3.128,180.499
2.8056,128.181877,37.960775,6981.712528800001,45.982,-3.166,180.492
2.8222,128.181877,37.960729,6981.415044,47.655,-3.205,180.484
2.839,128.181877,37.960682,6981.1142064000005,49.371,-3.244,180.474
2.8557,128.181877,37.960635,6980.8103208,51.127,-3.283,180.462
2.8724,128.181877,37.960588,6980.5030824000005,52.921,-3.321,180.449
2.8891,128.181877,37.960541,6980.192796,54.753,-3.359,180.435
2.9057,128.181877,37.960494,6979.879156800001,56.621,-3.397,180.419
2.9225,128.181877,37.960447,6979.5624696,58.525,-3.435,180.402
2.9392,128.181877,37.960401,6979.2427344,60.462,-3.472,180.383
2.9558,128.181877,37.960354,6978.9199512000005,62.432,-3.509,180.363
2.9726,128.181877,37.960307,6978.594120000001,64.433,-3.545,180.342
2.9893,128.181878,37.96026,6978.2652408,66.466,-3.58,180.32
3.0059,128.181878,37.960213,6977.9333136000005,68.528,-3.615,180.297
3.0227,128.181878,37.960166,6977.598338400001,70.619,-3.649,180.272
3.0394,128.181878,37.960119,6977.260315200001,72.738,-3.682,180.247
3.056,128.181878,37.960072,6976.9195488000005,74.884,-3.714,180.22
3.0728,128.181878,37.960025,6976.5760392,77.056,-3.745,180.193
3.0895,128.181878,37.959978,6976.2291768000005,79.254,-3.775,180.165
3.1062,128.181878,37.959931,6975.879876,81.476,-3.804,180.136
3.1229,128.181878,37.959884,6975.5275272,83.723,-3.832,180.107
3.1395,128.181878,37.959836,6975.17274,85.992,-3.859,180.077
3.1563,128.181878,37.959789,6974.8149048000005,88.285,-3.884,180.046
3.173,128.181879,37.959742,6974.4543264,90.599,-3.909,180.015
3.1896,128.181879,37.959695,6974.0913096,92.934,-3.932,179.984
3.2064,128.181879,37.959648,6973.725549600001,95.29,-3.954,179.952
3.2231,128.181879,37.959601,6973.3573512,97.665,-3.975,179.922
3.2397,128.181879,37.959553,6972.9864096,100.059,-3.996,179.9
3.2565,128.181879,37.959506,6972.612724800001,102.471,-4.019,179.893
3.2732,128.18188,37.959459,6972.2369064,104.9,-4.046,179.904
3.2899,128.18188,37.959412,6971.8583448,107.345,-4.079,179.936
3.3066,128.18188,37.959365,6971.47704,109.804,-4.119,179.989
3.3233,128.18188,37.959317,6971.093296800001,112.278,-4.168,180.063
3.34,128.18188,37.95927,6970.706810400001,114.764,-4.229,180.158
3.3567,128.18188,37.959223,6970.3178856,117.262,-4.302,180.271
3.3734,128.181881,37.959175,6969.9256080000005,119.764,-4.389,180.401
3.3901,128.181881,37.959128,6969.5299776,122.255,-4.49,180.547
3.4068,128.181881,37.959081,6969.1303848,124.718,-4.606,180.709
3.4235,128.181881,37.959033,6968.726524800001,127.139,-4.738,180.883
3.4402,128.181881,37.958986,6968.318092800001,129.505,-4.887,181.069
3.4569,128.181881,37.958939,6967.9044792,131.804,-5.053,181.264
3.4736,128.181881,37.958891,6967.4850744000005,134.027,-5.237,181.467
3.4903,128.181881,37.958844,6967.059268800001,136.166,-5.439,181.675
3.507,128.181881,37.958796,6966.6264528,138.214,-5.659,181.887
3.5237,128.181881,37.958749,6966.1860168,140.167,-5.897,182.1
3.5404,128.18188,37.958702,6965.737656000001,142.023,-6.151,182.314
3.5571,128.18188,37.958654,6965.280760800001,143.78,-6.422,182.525
3.5738,128.18188,37.958607,6964.8147216,145.44,-6.707,182.734
3.5905,128.181879,37.95856,6964.3395384000005,147.002,-7.006,182.938
3.6072,128.181879,37.958512,6963.853992,148.471,-7.317,183.136
3.6239,128.181878,37.958465,6963.358387200001,149.849,-7.639,183.327
3.6406,128.181878,37.958417,6962.851809600001,151.141,-7.97,183.512
3.6573,128.181877,37.95837,6962.334259200001,152.35,-8.309,183.688
3.674,128.181876,37.958323,6961.8051264000005,153.481,-8.653,183.856
3.6907,128.181875,37.958275,6961.264411200001,154.539,-9.0,184.014
3.7074,128.181875,37.958228,6960.711504,155.53,-9.345,184.16
3.7241,128.181874,37.958181,6960.1461,156.458,-9.684,184.294
3.7408,128.181873,37.958133,6959.5681992,157.328,-10.016,184.416
3.7575,128.181872,37.958086,6958.977496800001,158.145,-10.34,184.527
3.7742,128.181871,37.958039,6958.373688000001,158.913,-10.655,184.626
3.7909,128.18187,37.957991,6957.7564680000005,159.635,-10.961,184.714
3.8076,128.181868,37.957944,6957.125532,160.316,-11.259,184.793
3.8243,128.181867,37.957897,6956.4811848,160.96,-11.548,184.863
3.841,128.181866,37.957849,6955.8231216,161.569,-11.83,184.926
3.8577,128.181865,37.957802,6955.151037600001,162.147,-12.104,184.98
3.8744,128.181863,37.957755,6954.464628000001,162.695,-12.371,185.028
3.8911,128.181862,37.957708,6953.765112,163.294,-12.633,185.066
3.9078,128.18186,37.95766,6953.0521848,163.94,-12.89,185.093
3.9245,128.181859,37.957613,6952.325846400001,164.623,-13.142,185.113
3.9412,128.181857,37.957566,6951.5864016000005,165.332,-13.388,185.127
3.9579,128.181856,37.957519,6950.833240800001,166.056,-13.629,185.138
3.9746,128.181854,37.957471,6950.065449600001,166.786,-13.865,185.147
3.9913,128.181852,37.957424,6949.2836376000005,167.511,-14.097,185.152
4.008,128.181851,37.957377,6948.486585600001,168.224,-14.324,185.155
4.0247,128.181849,37.95733,6947.6749032,168.919,-14.549,185.155
4.0414,128.181847,37.957283,6946.847676,169.589,-14.77,185.152
4.058,128.181845,37.957236,6946.0055136,170.233,-14.988,185.147
4.0748,128.181844,37.957189,6945.1475016,170.846,-15.204,185.139
4.0915,128.181842,37.957142,6944.2742496,171.429,-15.418,185.128
4.1082,128.18184,37.957095,6943.3854528,171.98,-15.631,185.114
4.1249,128.181838,37.957048,6942.480806400001,172.499,-15.842,185.098
4.1415,128.181836,37.957001,6941.560615200001,172.988,-16.052,185.08
4.1583,128.181834,37.956954,6940.624879200001,173.45,-16.26,185.061
4.175,128.181832,37.956907,6939.6732936,173.885,-16.467,185.041
4.1917,128.18183,37.95686,6938.705858400001,174.295,-16.673,185.021
4.2084,128.181828,37.956813,6937.722878400001,174.68,-16.878,184.999
4.2251,128.181826,37.956766,6936.7240488,175.041,-17.082,184.976
4.2417,128.181824,37.956719,6935.709674400001,175.381,-17.285,184.951
4.2585,128.181822,37.956672,6934.679450400001,175.7,-17.487,184.925
4.2752,128.18182,37.956625,6933.6336816,176.0,-17.688,184.898
4.2919,128.181818,37.956579,6932.5720632,176.283,-17.887,184.869
4.3086,128.181816,37.956532,6931.494900000001,176.551,-18.086,184.839
4.3252,128.181813,37.956485,6930.401887200001,176.804,-18.284,184.808
4.342,128.181811,37.956438,6929.2933296,177.044,-18.48,184.777
4.3587,128.181809,37.956392,6928.1689224,177.273,-18.676,184.744
4.3754,128.181807,37.956345,6927.028970400001,177.491,-18.87,184.711
4.3921,128.181805,37.956298,6925.873473600001,177.699,-19.063,184.677
4.4088,128.181803,37.956252,6924.7021272,177.899,-19.255,184.643
4.4254,128.1818,37.956205,6923.5155408,178.09,-19.446,184.608
4.4422,128.181798,37.956159,6922.312800000001,178.275,-19.636,184.572
4.4589,128.181796,37.956112,6921.0948192000005,178.452,-19.826,184.536
4.4756,128.181794,37.956066,6919.8609888,178.624,-20.014,184.5
4.4923,128.181791,37.956019,6918.611918400001,178.79,-20.201,184.464
4.5089,128.181789,37.955973,6917.3466935999995,178.951,-20.388,184.427
4.5256,128.181787,37.955927,6916.0662288,179.107,-20.573,184.39
4.5424,128.181785,37.95588,6914.770219200001,179.26,-20.758,184.354
4.5591,128.181782,37.955834,6913.4583600000005,179.409,-20.942,184.319
4.5758,128.18178,37.955788,6912.130956000001,179.555,-21.126,184.284
4.5925,128.181778,37.955741,6910.788312,179.699,-21.308,184.249
4.6091,128.181776,37.955695,6909.429818400001,179.839,-21.491,184.215
4.6259,128.181773,37.955649,6908.05578,179.977,-21.672,184.182
4.6426,128.181771,37.955603,6906.665892000001,-179.886,-21.853,184.15
4.6593,128.181769,37.955557,6905.260764000001,-179.753,-22.033,184.118
4.676,128.181767,37.95551,6903.840091200001,-179.623,-22.213,184.087
4.6927,128.181764,37.955464,6902.4038736,-179.494,-22.393,184.056
4.7093,128.181762,37.955418,6900.952111200001,-179.368,-22.572,184.026
4.7261,128.18176,37.955372,6899.484804000001,-179.243,-22.751,183.997
4.7428,128.181757,37.955326,6898.001647200001,-179.121,-22.929,183.968
4.7595,128.181755,37.95528,6896.5032504,-179.0,-23.107,183.94
4.7762,128.181753,37.955234,6894.989613600001,-178.881,-23.285,183.912
4.7928,128.181751,37.955189,6893.4601272,-178.764,-23.462,183.885
4.8096,128.181748,37.955143,6891.915096000001,-178.649,-23.639,183.858
4.8263,128.181746,37.955097,6890.354824800001,-178.536,-23.816,183.832
4.843,128.181744,37.955051,6888.7790088,-178.425,-23.993,183.806
4.8597,128.181741,37.955006,6887.187648,-178.315,-24.17,183.781
4.8764,128.181739,37.95496,6885.5807424,-178.207,-24.346,183.756
4.893,128.181737,37.954914,6883.958292,-178.101,-24.522,183.731
4.9098,128.181735,37.954869,6882.3206016,-177.997,-24.698,183.707
4.9265,128.181732,37.954823,6880.6673664,-177.895,-24.874,183.683
4.9432,128.18173,37.954777,6878.9985864,-177.796,-25.049,183.659
4.9599,128.181728,37.954732,6877.3145664,-177.698,-25.225,183.635
4.9765,128.181726,37.954687,6875.615001600001,-177.603,-25.4,183.611
4.9932,128.181723,37.954641,6873.9001968,-177.51,-25.575,183.587
5.01,128.181721,37.954596,6872.169542400001,-177.419,-25.75,183.562
5.0267,128.181719,37.95455,6870.4239528,-177.33,-25.925,183.538
5.0434,128.181717,37.954505,6868.6628184,-177.243,-26.1,183.513
5.0601,128.181714,37.95446,6866.8861392,-177.158,-26.275,183.488
5.0767,128.181712,37.954415,6865.094220000001,-177.074,-26.45,183.463
5.0935,128.18171,37.95437,6863.287060800001,-176.993,-26.624,183.438
5.1102,128.181708,37.954324,6861.464356800001,-176.913,-26.799,183.413
5.1269,128.181706,37.954279,6859.626108,-176.836,-26.973,183.388
5.1436,128.181703,37.954234,6857.772924000001,-176.76,-27.148,183.363
5.1602,128.181701,37.954189,6855.904195200001,-176.686,-27.322,183.337
5.1769,128.181699,37.954144,6854.0202264,-176.614,-27.496,183.312
5.1937,128.181697,37.954099,6852.120712800001,-176.544,-27.67,183.286
5.2104,128.181695,37.954055,6850.2059592000005,-176.475,-27.844,183.261
5.2271,128.181693,37.95401,6848.276270400001,-176.408,-28.018,183.235
5.2438,128.18169,37.953965,6846.3310368,-176.344,-28.192,183.21
5.2604,128.181688,37.95392,6844.3702584,-176.281,-28.366,183.184
5.2772,128.181686,37.953876,6842.3945448,-176.22,-28.54,183.159
5.2939,128.181684,37.953831,6840.403591200001,-176.16,-28.713,183.133
5.3106,128.181682,37.953786,6838.397092800001,-176.103,-28.887,183.107
5.3273,128.18168,37.953742,6836.3756592,-176.047,-29.061,183.082
5.3439,128.181678,37.953697,6834.3389856,-175.994,-29.234,183.056
5.3606,128.181676,37.953653,6832.2867672,-175.942,-29.408,183.03
5.3774,128.181673,37.953608,6830.2196136,-175.892,-29.581,183.005
5.3941,128.181671,37.953564,6828.1372200000005,-175.843,-29.755,182.979
5.4108,128.181669,37.95352,6826.0395864,-175.797,-29.928,182.954
5.4275,128.181667,37.953475,6823.9267128,-175.752,-30.101,182.928
5.4441,128.181665,37.953431,6821.798904,-175.709,-30.275,182.902
5.4609,128.181663,37.953387,6819.655855200001,-175.668,-30.448,182.877
5.4776,128.181661,37.953343,6817.4975664,-175.628,-30.621,182.851
5.4943,128.181659,37.953299,6815.3240376,-175.59,-30.794,182.826
5.511,128.181657,37.953255,6813.1355736000005,-175.554,-30.968,182.8
5.5277,128.181655,37.953211,6810.931869600001,-175.52,-31.141,182.775
5.5443,128.181653,37.953167,6808.7132304,-175.487,-31.314,182.75
5.5611,128.181651,37.953123,6806.479351200001,-175.456,-31.487,182.724
5.5778,128.181649,37.953079,6804.230536800001,-175.426,-31.66,182.699
5.5945,128.181647,37.953036,6801.9664824,-175.398,-31.833,182.674
5.6112,128.181646,37.952992,6799.687492800001,-175.371,-32.006,182.649
5.6278,128.181644,37.952948,6797.393568,-175.346,-32.179,182.624
5.6445,128.181642,37.952905,6795.0844032,-175.323,-32.352,182.599
5.6613,128.18164,37.952861,6792.7603032,-175.3,-32.525,182.574
5.678,128.181638,37.952818,6790.421268,-175.28,-32.698,182.549
5.6947,128.181636,37.952774,6788.0672976000005,-175.26,-32.871,182.525
5.7114,128.181634,37.952731,6785.6980872,-175.242,-33.044,182.5
5.728,128.181632,37.952688,6783.3142464,-175.225,-33.216,182.475
5.7448,128.181631,37.952644,6780.915165600001,-175.21,-33.389,182.451
5.7615,128.181629,37.952601,6778.501149600001,-175.196,-33.562,182.427
5.7782,128.181627,37.952558,6776.0725032,-175.183,-33.735,182.403
5.7949,128.181625,37.952515,6773.6286168,-175.171,-33.908,182.378
5.8115,128.181623,37.952472,6771.1701,-175.16,-34.08,182.355
5.8282,128.181622,37.952429,6768.696648,-175.151,-34.253,182.331
5.845,128.18162,37.952386,6766.208260800001,-175.143,-34.426,182.307
5.8617,128.181618,37.952343,6763.704938400001,-175.135,-34.599,182.283
5.8784,128.181616,37.9523,6761.1869856,-175.129,-34.772,182.26
5.8951,128.181615,37.952258,6758.654097600001,-175.124,-34.944,182.236
5.9117,128.181613,37.952215,6756.106274400001,-175.119,-35.117,182.213
5.9285,128.181611,37.952172,6753.5438208,-175.116,-35.29,182.19
5.9452,128.18161,37.95213,6750.966432,-175.113,-35.463,182.167
5.9619,128.181608,37.952087,6748.3744128,-175.112,-35.635,182.144
5.9786,128.181606,37.952045,6745.7677632,-175.111,-35.808,182.121
5.9952,128.181605,37.952003,6743.1461784,-175.111,-35.981,182.099
6.0119,128.181603,37.95196,6740.5096584,-175.112,-36.154,182.076
6.0287,128.181602,37.951918,6737.8588128,-175.113,-36.326,182.054
6.0454,128.1816,37.951876,6735.193032,-175.115,-36.499,182.032
6.0621,128.181598,37.951834,6732.5126208,-175.118,-36.672,182.01
6.0788,128.181597,37.951792,6729.817579200001,-175.122,-36.845,181.988
6.0954,128.181595,37.95175,6727.1079072,-175.126,-37.017,181.966
6.1121,128.181594,37.951708,6724.3836048,-175.131,-37.19,181.944
6.1289,128.181592,37.951666,6721.644672,-175.137,-37.363,181.923
6.1456,128.181591,37.951624,6718.8911088,-175.143,-37.536,181.902
6.1623,128.181589,37.951582,6716.1229152000005,-175.15,-37.709,181.88
6.179,128.181588,37.951541,6713.3403960000005,-175.157,-37.882,181.859
6.1956,128.181586,37.951499,6710.542941600001,-175.164,-38.054,181.838
6.2124,128.181585,37.951458,6707.7311616,-175.173,-38.227,181.817
6.2291,128.181583,37.951416,6704.904751200001,-175.181,-38.4,181.797
6.2458,128.181582,37.951375,6702.0640152000005,-175.19,-38.573,181.776
6.2625,128.181581,37.951333,6699.2086488,-175.2,-38.746,181.756
6.2791,128.181579,37.951292,6696.338652000001,-175.209,-38.919,181.736
6.2958,128.181578,37.951251,6693.4543296,-175.22,-39.092,181.716
6.3126,128.181576,37.95121,6690.5556816,-175.23,-39.265,181.696
6.3293,128.181575,37.951169,6687.6424032,-175.241,-39.438,181.676
6.346,128.181574,37.951128,6684.7147992,-175.252,-39.611,181.656
6.3627,128.181572,37.951087,6681.7728696,-175.264,-39.784,181.637
6.3793,128.181571,37.951046,6678.816309600001,-175.276,-39.957,181.617
6.3961,128.18157,37.951005,6675.845424000001,-175.288,-40.13,181.598
6.4128,128.181568,37.950964,6672.8605176,-175.3,-40.303,181.579
6.4295,128.181567,37.950924,6669.8609808,-175.313,-40.476,181.56
6.4462,128.181566,37.950883,6666.8471184,-175.326,-40.649,181.541
6.4628,128.181565,37.950843,6663.8189304,-175.339,-40.822,181.522
6.4795,128.181563,37.950802,6660.7767216,-175.352,-40.996,181.504
6.4963,128.181562,37.950762,6657.7201872000005,-175.365,-41.169,181.485
6.513,128.181561,37.950722,6654.6490224,-175.379,-41.342,181.467
6.5297,128.18156,37.950682,6651.564141600001,-175.392,-41.515,181.449
6.5464,128.181558,37.950641,6648.4646304,-175.406,-41.689,181.431
6.5631,128.181557,37.950601,6645.3510983999995,-175.42,-41.862,181.413
6.5798,128.181556,37.950561,6642.2232408,-175.434,-42.035,181.395
6.5965,128.181555,37.950521,6639.0813624,-175.449,-42.209,181.377
6.6132,128.181554,37.950482,6635.9254632,-175.463,-42.382,181.36
6.6299,128.181553,37.950442,6632.755238400001,-175.477,-42.555,181.342
6.6466,128.181552,37.950402,6629.570992800001,-175.492,-42.729,181.325
6.6633,128.181551,37.950363,6626.3727264,-175.506,-42.902,181.308
6.68,128.181549,37.950323,6623.1601344,-175.521,-43.076,181.29
6.6967,128.181548,37.950284,6619.9338264,-175.536,-43.249,181.274
6.7134,128.181547,37.950244,6616.6931928,-175.55,-43.423,181.257
6.7301,128.181546,37.950205,6613.438538400001,-175.565,-43.596,181.24
6.7468,128.181545,37.950166,6610.1698632,-175.58,-43.77,181.223
6.7635,128.181544,37.950127,6606.887472,-175.595,-43.944,181.207
6.7802,128.181543,37.950088,6603.591060000001,-175.61,-44.117,181.19
6.7969,128.181542,37.950049,6600.2803224,-175.624,-44.291,181.174
6.8136,128.181541,37.95001,6596.9561736000005,-175.639,-44.465,181.158
6.8303,128.18154,37.949971,6593.6176992,-175.654,-44.639,181.142
6.847,128.181539,37.949932,6590.2655088,-175.669,-44.813,181.126
6.8637,128.181538,37.949893,6586.8996024,-175.684,-44.986,181.11
6.8804,128.181537,37.949855,6583.5196752,-175.698,-45.16,181.094
6.8971,128.181536,37.949816,6580.1257272,-175.713,-45.334,181.078
6.9138,128.181536,37.949778,6576.718368000001,-175.728,-45.508,181.063
6.9305,128.181535,37.94974,6573.296988000001,-175.743,-45.682,181.047
6.9472,128.181534,37.949701,6569.861587200001,-175.757,-45.856,181.032
6.9639,128.181533,37.949663,6566.4127751999995,-175.772,-46.03,181.017
6.9806,128.181532,37.949625,6562.9502472,-175.786,-46.204,181.002
6.9973,128.181531,37.949587,6559.4740032,-175.801,-46.378,180.986
7.014,128.18153,37.949549,6555.983738400001,-175.815,-46.553,180.971
7.0307,128.18153,37.949512,6552.4800624,-175.83,-46.727,180.956
7.0474,128.181529,37.949474,6548.962670400001,-175.844,-46.901,180.942
7.0641,128.181528,37.949436,6545.4318672,-175.858,-47.075,180.927
7.0808,128.181527,37.949399,6541.887043199999,-175.872,-47.25,180.912
7.0975,128.181526,37.949361,6538.328808,-175.886,-47.424,180.897
7.1142,128.181526,37.949324,6534.7571616,-175.9,-47.598,180.883
7.1309,128.181525,37.949286,6531.1717992,-175.914,-47.773,180.868
7.1476,128.181524,37.949249,6527.5730256,-175.928,-47.947,180.854
7.1643,128.181523,37.949212,6523.9605360000005,-175.942,-48.122,180.84
7.181,128.181523,37.949175,6520.3346352,-175.956,-48.296,180.826
7.1977,128.181522,37.949138,6516.6953232000005,-175.969,-48.471,180.811
7.2144,128.181521,37.949101,6513.042600000001,-175.983,-48.646,180.797
7.2311,128.181521,37.949064,6509.376465600001,-175.996,-48.82,180.783
7.2478,128.18152,37.949028,6505.69692,-176.009,-48.995,180.769
7.2645,128.181519,37.948991,6502.0039632,-176.022,-49.17,180.755
7.2812,128.181519,37.948955,6498.297595200001,-176.035,-49.345,180.741
7.2979,128.181518,37.948918,6494.577816,-176.048,-49.519,180.728
7.3146,128.181517,37.948882,6490.8449304,-176.061,-49.694,180.714
7.3313,128.181517,37.948846,6487.0986336000005,-176.074,-49.869,180.7
7.348,128.181516,37.94881,6483.3392304,-176.087,-50.044,180.687
7.3647,128.181516,37.948774,6479.566416,-176.099,-50.219,180.673
7.3814,128.181515,37.948738,6475.7801904,-176.112,-50.394,180.66
7.3981,128.181514,37.948702,6471.9811632,-176.124,-50.569,180.646
7.4148,128.181514,37.948666,6468.168724800001,-176.136,-50.744,180.633
7.4315,128.181513,37.94863,6464.34318,-176.148,-50.919,180.619
7.4482,128.181513,37.948595,6460.504528800001,-176.16,-51.095,180.606
7.4649,128.181512,37.948559,6456.6527712,-176.172,-51.27,180.593
7.4816,128.181512,37.948524,6452.7879072,-176.183,-51.445,180.58
7.4983,128.181511,37.948489,6448.909936800001,-176.195,-51.621,180.566
7.515,128.181511,37.948453,6445.01886,-176.206,-51.796,180.553
7.5317,128.18151,37.948418,6441.114981600001,-176.218,-51.971,180.54
7.5484,128.18151,37.948383,6437.1979968000005,-176.229,-52.147,180.527
7.5651,128.181509,37.948348,6433.2682104000005,-176.24,-52.322,180.514
7.5818,128.181509,37.948314,6429.3253176,-176.251,-52.498,180.501
7.5985,128.181508,37.948279,6425.3693184,-176.262,-52.673,180.488
7.6152,128.181508,37.948244,6421.4008224,-176.273,-52.849,180.475
7.6319,128.181508,37.94821,6417.419220000001,-176.283,-53.025,180.462
7.6486,128.181507,37.948175,6413.424816,-176.294,-53.2,180.449
7.6653,128.181507,37.948141,6409.417610400001,-176.304,-53.376,180.436
7.682,128.181506,37.948107,6405.3976032,-176.314,-53.552,180.424
7.6987,128.181506,37.948073,6401.3647944,-176.324,-53.728,180.411
7.7154,128.181506,37.948039,6397.3194888,-176.334,-53.904,180.398
7.7321,128.181505,37.948005,6393.2610768,-176.344,-54.08,180.385
7.7488,128.181505,37.947971,6389.190168,-176.354,-54.256,180.372
7.7655,128.181505,37.947937,6385.1067624,-176.363,-54.432,180.36
7.7822,128.181504,37.947904,6381.0105552,-176.373,-54.608,180.347
7.7989,128.181504,37.94787,6376.9015464,-176.382,-54.784,180.334
7.8156,128.181504,37.947837,6372.7803456,-176.391,-54.96,180.322
7.8323,128.181503,37.947804,6368.6463432,-176.4,-55.137,180.309
7.849,128.181503,37.947771,6364.499844,-176.409,-55.313,180.296
7.8657,128.181503,37.947737,6360.340848,-176.418,-55.489,180.284
7.8824,128.181503,37.947705,6356.169355200001,-176.427,-55.666,180.271
7.8991,128.181502,37.947672,6351.9853656000005,-176.435,-55.842,180.258
7.9158,128.181502,37.947639,6347.789184000001,-176.443,-56.018,180.246
7.9325,128.181502,37.947606,6343.580505600001,-176.452,-56.195,180.233
7.9492,128.181502,37.947574,6339.3593304,-176.46,-56.372,180.22
7.9659,128.181501,37.947541,6335.1259632,-176.468,-56.548,180.208
7.9826,128.181501,37.947509,6330.8800992,-176.476,-56.725,180.195
7.9993,128.181501,37.947477,6326.6220432,-176.484,-56.902,180.182
8.016,128.181501,37.947445,6322.3517952,-176.491,-57.078,180.17
8.0327,128.181501,37.947413,6318.0693552,-176.499,-57.255,180.157
8.0494,128.181501,37.947381,6313.7744184,-176.506,-57.432,180.144
8.0661,128.1815,37.947349,6309.4675944,-176.513,-57.609,180.131
8.0828,128.1815,37.947317,6305.148578400001,-176.52,-57.786,180.119
8.0994,128.1815,37.947286,6300.817370400001,-176.527,-57.963,180.106
8.1161,128.1815,37.947254,6296.4742752,-176.534,-58.14,180.093
8.1329,128.1815,37.947223,6292.118988000001,-176.541,-58.317,180.081
8.1496,128.1815,37.947192,6287.7515088,-176.548,-58.494,180.068
8.1663,128.1815,37.94716,6283.3724472,-176.554,-58.672,180.055
8.183,128.1815,37.947129,6278.9811936,-176.56,-58.849,180.042
8.1997,128.1815,37.947099,6274.577748,-176.567,-59.026,180.029
8.2164,128.181499,37.947068,6270.162720000001,-176.573,-59.204,180.016
8.2331,128.181499,37.947037,6265.735804800001,-176.579,-59.381,180.003
8.2498,128.181499,37.947007,6261.2970024,-176.585,-59.559,179.99
8.2665,128.181499,37.946976,6256.8463128,-176.59,-59.736,179.977
8.2831,128.181499,37.946946,6252.384040800001,-176.596,-59.914,179.964
8.2998,128.181499,37.946916,6247.9098816000005,-176.601,-60.091,179.951
8.3166,128.181499,37.946885,6243.4238352,-176.607,-60.269,179.938
8.3333,128.181499,37.946855,6238.9262064,-176.612,-60.447,179.925
8.35,128.181499,37.946826,6234.4169952,-176.617,-60.625,179.912
8.3667,128.181499,37.946796,6229.8962016000005,-176.622,-60.803,179.899
8.3834,128.181499,37.946766,6225.3638255999995,-176.627,-60.98,179.886
8.4001,128.181499,37.946737,6220.8198672,-176.631,-61.158,179.872
8.4168,128.181499,37.946707,6216.2643264,-176.636,-61.337,179.859
8.4335,128.181499,37.946678,6211.6972032,-176.64,-61.515,179.846
8.4502,128.181499,37.946649,6207.118802399999,-176.645,-61.693,179.832
8.4668,128.1815,37.94662,6202.528819200001,-176.649,-61.871,179.819
8.4835,128.1815,37.946591,6197.9272536,-176.653,-62.049,179.805
8.5003,128.1815,37.946562,6193.314715200001,-176.657,-62.227,179.792
8.517,128.1815,37.946533,6188.6905944,-176.661,-62.406,179.778
8.5337,128.1815,37.946505,6184.055196,-176.664,-62.584,179.764
8.5504,128.1815,37.946476,6179.408824800001,-176.668,-62.763,179.75
8.5671,128.1815,37.946448,6174.7508712,-176.671,-62.941,179.737
8.5838,128.1815,37.94642,6170.0819448,-176.675,-63.12,179.723
8.6005,128.1815,37.946392,6165.4017408,-176.678,-63.299,179.709
8.6172,128.181501,37.946364,6160.7102592,-176.681,-63.477,179.695
8.6339,128.181501,37.946336,6156.0078048000005,-176.684,-63.656,179.681
8.6505,128.181501,37.946308,6151.2943776,-176.687,-63.835,179.666
8.6672,128.181501,37.94628,6146.5699776,-176.689,-64.014,179.652
8.684,128.181501,37.946253,6141.8343,-176.692,-64.193,179.638
8.7007,128.181501,37.946226,6137.0879544,-176.694,-64.372,179.623
8.7174,128.181502,37.946198,6132.330636000001,-176.697,-64.551,179.609
8.7341,128.181502,37.946171,6127.562344800001,-176.699,-64.73,179.594
8.7508,128.181502,37.946144,6122.7833856,-176.701,-64.909,179.579
8.7675,128.181502,37.946117,6117.9934536,-176.703,-65.088,179.565
8.7842,128.181502,37.946091,6113.1925488,-176.704,-65.267,179.55
8.8009,128.181503,37.946064,6108.3812808,-176.706,-65.447,179.535
8.8176,128.181503,37.946038,6103.55904,-176.708,-65.626,179.52
8.8342,128.181503,37.946011,6098.7261312,-176.709,-65.806,179.505
8.8509,128.181503,37.945985,6093.8828592,-176.71,-65.985,179.489
8.8676,128.181504,37.945959,6089.0286144,-176.711,-66.165,179.474
8.8844,128.181504,37.945933,6084.164006400001,-176.712,-66.344,179.458
8.9011,128.181504,37.945907,6079.2890352,-176.713,-66.524,179.443
8.9178,128.181504,37.945882,6074.403396000001,-176.714,-66.704,179.427
8.9345,128.181505,37.945856,6069.5073936,-176.715,-66.884,179.411
8.9512,128.181505,37.94583,6064.601028,-176.715,-67.063,179.395
8.9679,128.181505,37.945805,6059.6839944,-176.715,-67.243,179.379
8.9846,128.181506,37.94578,6054.7569023999995,-176.716,-67.423,179.363
9.0013,128.181506,37.945755,6049.8194472000005,-176.716,-67.603,179.347
9.0179,128.181506,37.94573,6044.8719336,-176.716,-67.784,179.33
9.0346,128.181507,37.945705,6039.914056800001,-176.715,-67.964,179.314
9.0513,128.181507,37.945681,6034.9458168,-176.715,-68.144,179.297
9.0681,128.181507,37.945656,6029.967518400001,-176.715,-68.324,179.28
9.0848,128.181508,37.945632,6024.9791616,-176.714,-68.505,179.263
9.1015,128.181508,37.945607,6019.9810512,-176.713,-68.685,179.246
9.1182,128.181508,37.945583,6014.9725776000005,-176.712,-68.866,179.228
9.1349,128.181509,37.945559,6009.9540456,-176.711,-69.046,179.211
9.1516,128.181509,37.945535,6004.92576,-176.71,-69.227,179.193
9.1683,128.18151,37.945512,5999.887720799999,-176.708,-69.407,179.175
9.185,128.18151,37.945488,5994.8396232000005,-176.707,-69.588,179.157
9.2016,128.18151,37.945465,5989.781772,-176.705,-69.769,179.139
9.2183,128.181511,37.945441,5984.7138624,-176.703,-69.95,179.121
9.235,128.181511,37.945418,5979.636504,-176.701,-70.131,179.102
9.2518,128.181512,37.945395,5974.549392000001,-176.699,-70.312,179.083
9.2685,128.181512,37.945372,5969.4528312,-176.697,-70.493,179.065
9.2852,128.181513,37.945349,5964.3465168,-176.695,-70.674,179.045
9.3019,128.181513,37.945327,5959.2304488,-176.692,-70.855,179.026
9.3186,128.181514,37.945304,5954.104932,-176.689,-71.036,179.007
9.3353,128.181514,37.945282,5948.9699664,-176.686,-71.218,178.987
9.352,128.181514,37.94526,5943.825552000001,-176.683,-71.399,178.967
9.3687,128.181515,37.945238,5938.6719936,-176.68,-71.58,178.947
9.3854,128.181515,37.945216,5933.5086816,-176.676,-71.762,178.926
9.402,128.181516,37.945194,5928.3362256,-176.672,-71.944,178.905
9.4187,128.181516,37.945172,5923.1546256,-176.669,-72.125,178.885
9.4355,128.181517,37.945151,5917.9635768,-176.664,-72.307,178.863
9.4522,128.181517,37.945129,5912.763384000001,-176.66,-72.489,178.842
9.4689,128.181518,37.945108,5907.554352000001,-176.656,-72.67,178.82
9.4856,128.181518,37.945087,5902.3358712,-176.651,-72.852,178.798
9.5023,128.181519,37.945066,5897.108551200001,-176.646,-73.034,178.776
9.519,128.181519,37.945045,5891.8720872,-176.641,-73.216,178.754
9.5357,128.18152,37.945025,5886.626784000001,-176.636,-73.398,178.731
9.5524,128.181521,37.945004,5881.3723368,-176.631,-73.58,178.708
9.5691,128.181521,37.944984,5876.1090504,-176.625,-73.762,178.684
9.5857,128.181522,37.944963,5870.8372296,-176.619,-73.944,178.66
9.6024,128.181522,37.944943,5865.5565696,-176.613,-74.127,178.636
9.6192,128.181523,37.944923,5860.2667656,-176.606,-74.309,178.612
9.6359,128.181523,37.944904,5854.968732,-176.6,-74.491,178.587
9.6526,128.181524,37.944884,5849.6618592,-176.593,-74.674,178.562
9.6693,128.181524,37.944864,5844.346452000001,-176.586,-74.856,178.537
9.686,128.181525,37.944845,5839.022510400001,-176.579,-75.038,178.511
9.7027,128.181526,37.944826,5833.6900344,-176.571,-75.221,178.484
9.7194,128.181526,37.944807,5828.349024000001,-176.563,-75.404,178.458
9.7361,128.181527,37.944788,5822.999784000001,-176.555,-75.586,178.431
9.7528,128.181527,37.944769,5817.6420096,-176.546,-75.769,178.403
9.7694,128.181528,37.94475,5812.276005600001,-176.537,-75.952,178.375
9.7861,128.181529,37.944732,5806.901772,-176.528,-76.135,178.347
9.8029,128.181529,37.944714,5801.5193088000005,-176.519,-76.318,178.318
9.8196,128.18153,37.944695,5796.128616,-176.509,-76.501,178.288
9.8363,128.181531,37.944677,5790.7299984,-176.499,-76.684,178.258
9.853,128.181531,37.944659,5785.3231512,-176.488,-76.867,178.228
9.8697,128.181532,37.944642,5779.9080744,-176.478,-77.05,178.197
9.8864,128.181532,37.944624,5774.4853776,-176.466,-77.233,178.165
9.9031,128.181533,37.944607,5769.054451200001,-176.455,-77.416,178.133
9.9198,128.181534,37.944589,5763.6159048,-176.443,-77.6,178.1
9.9365,128.181534,37.944572,5758.169433600001,-176.43,-77.783,178.067
9.9531,128.181535,37.944555,5752.715342400001,-176.417,-77.967,178.033
9.9698,128.181536,37.944538,5747.2533264,-176.404,-78.15,177.998
9.9865,128.181536,37.944522,5741.7836904000005,-176.39,-78.334,177.962
10.0033,128.181537,37.944505,5736.3064343999995,-176.376,-78.518,177.926
10.02,128.181538,37.944489,5730.8215584,-176.361,-78.701,177.889
10.0367,128.181538,37.944473,5725.3293672,-176.346,-78.885,177.851
10.0534,128.181539,37.944457,5719.829556000001,-176.33,-79.069,177.813
10.0701,128.18154,37.944441,5714.3224296,-176.313,-79.253,177.773
10.0868,128.181541,37.944425,5708.807683200001,-176.296,-79.437,177.733
10.1035,128.181541,37.944409,5703.2859264,-176.278,-79.621,177.691
10.1202,128.181542,37.944394,5697.7568544000005,-176.26,-79.805,177.649
10.1368,128.181543,37.944379,5692.2204672,-176.24,-79.989,177.606
10.1535,128.181543,37.944363,5686.6767648000005,-176.22,-80.174,177.561
10.1702,128.181544,37.944348,5681.1263568,-176.2,-80.358,177.515
10.187,128.181545,37.944334,5675.568633600001,-176.178,-80.542,177.469
10.2037,128.181545,37.944319,5670.003900000001,-176.156,-80.727,177.42
10.2204,128.181546,37.944304,5664.432156000001,-176.132,-80.911,177.371
10.2371,128.181547,37.94429,5658.853706400001,-176.108,-81.096,177.32
10.2538,128.181548,37.944276,5653.268246400001,-176.083,-81.281,177.268
10.2705,128.181548,37.944262,5647.6760808,-176.056,-81.465,177.214
10.2872,128.181549,37.944248,5642.0772096,-176.029,-81.65,177.159
10.3039,128.18155,37.944234,5636.4716328,-176.0,-81.835,177.101
10.3205,128.181551,37.944221,5630.859655200001,-175.97,-82.02,177.042
10.3372,128.181551,37.944207,5625.2409720000005,-175.938,-82.205,176.981
10.3539,128.181552,37.944194,5619.6155832,-175.905,-82.39,176.919
10.3707,128.181553,37.944181,5613.983793599999,-175.87,-82.575,176.853
10.3874,128.181554,37.944168,5608.3456032,-175.834,-82.761,176.786
10.4041,128.181554,37.944155,5602.7013168,-175.796,-82.946,176.716
10.4208,128.181555,37.944143,5597.050629599999,-175.756,-83.131,176.643
10.4375,128.181556,37.94413,5591.3935416,-175.714,-83.317,176.568
10.4542,128.181557,37.944118,5585.7303575999995,-175.67,-83.502,176.489
10.4709,128.181557,37.944106,5580.0610776,-175.623,-83.688,176.408
10.4876,128.181558,37.944094,5574.385701600001,-175.573,-83.873,176.322
10.5042,128.181559,37.944082,5568.7042296,-175.521,-84.059,176.233
10.5209,128.18156,37.94407,5563.0169664,-175.465,-84.245,176.14
10.5376,128.18156,37.944059,5557.323912,-175.406,-84.431,176.042
10.5544,128.181561,37.944048,5551.6247616,-175.343,-84.617,175.939
10.5711,128.181562,37.944036,5545.919820000001,-175.275,-84.803,175.83
10.5878,128.181563,37.944025,5540.209392000001,-175.201,-84.989,175.713
10.6045,128.181563,37.944015,5534.4931728,-175.121,-85.175,175.59
10.6212,128.181564,37.944004,5528.7711624,-175.035,-85.361,175.458
10.6379,128.181565,37.943994,5523.043970400001,-174.942,-85.546,175.318
10.6546,128.181566,37.943983,5517.3109872,-174.85,-85.724,175.178
10.6713,128.181567,37.943973,5511.5725176000005,-174.766,-85.89,175.042
10.6879,128.181567,37.943963,5505.828561599999,-174.694,-86.042,174.918
10.7046,128.181568,37.943953,5500.0794240000005,-174.638,-86.178,174.808
10.7213,128.181569,37.943944,5494.3248,-174.599,-86.302,174.712
10.7381,128.18157,37.943934,5488.5649944,-174.575,-86.415,174.629
10.7548,128.18157,37.943925,5482.8000071999995,-174.564,-86.518,174.556
10.7715,128.181571,37.943915,5477.0301432,-174.564,-86.615,174.492
10.7882,128.181572,37.943906,5471.255097600001,-174.572,-86.708,174.435
10.8049,128.181573,37.943898,5465.4751752,-174.585,-86.796,174.382
10.8216,128.181573,37.943889,5459.6900712,-174.604,-86.881,174.332
10.8383,128.181574,37.94388,5453.9000904,-174.626,-86.964,174.286
10.855,128.181575,37.943872,5448.1052328000005,-174.651,-87.046,174.241
10.8717,128.181576,37.943863,5442.3058032,-174.679,-87.125,174.199
10.8883,128.181576,37.943855,5436.501192000001,-174.708,-87.204,174.158
10.905,128.181577,37.943847,5430.692008800001,-174.739,-87.28,174.12
10.9218,128.181578,37.943839,5424.8782536,-174.772,-87.356,174.084
10.9385,128.181579,37.943832,5419.0596216,-174.807,-87.431,174.05
10.9552,128.181579,37.943824,5413.2364176,-174.844,-87.504,174.018
10.9719,128.18158,37.943817,5407.4083368,-174.883,-87.576,173.989
10.9886,128.181581,37.943809,5401.575988799999,-174.923,-87.648,173.962
11.0053,128.181581,37.943802,5395.738764000001,-174.965,-87.718,173.938
11.022,128.181582,37.943795,5389.897272,-175.009,-87.787,173.917
11.0387,128.181583,37.943788,5384.051208,-175.055,-87.855,173.898
11.0554,128.181584,37.943782,5378.200572,-175.103,-87.922,173.883
11.072,128.181584,37.943775,5372.345364000001,-175.153,-87.988,173.871
11.0887,128.181585,37.943769,5366.4858888,-175.206,-88.053,173.862
11.1054,128.181586,37.943762,5360.6218416,-175.264,-88.117,173.86
11.1222,128.181586,37.943756,5354.753222400001,-175.33,-88.181,173.867
11.1389,128.181587,37.94375,5348.880336,-175.4,-88.243,173.881
11.1556,128.181588,37.943744,5343.003182400001,-175.474,-88.304,173.899
11.1723,128.181588,37.943738,5337.121761599999,-175.549,-88.365,173.919
11.189,128.181589,37.943732,5331.2360736,-175.624,-88.424,173.941
11.2057,128.18159,37.943727,5325.346118400001,-175.699,-88.483,173.964
11.2224,128.18159,37.943721,5319.4518960000005,-175.773,-88.54,173.988
11.2391,128.181591,37.943716,5313.553711200001,-175.845,-88.597,174.011
11.2557,128.181592,37.94371,5307.6509544,-175.915,-88.653,174.035
11.2724,128.181592,37.943705,5301.74454,-175.983,-88.708,174.058
11.2891,128.181593,37.9437,5295.8335536,-176.049,-88.762,174.081
11.3059,128.181593,37.943695,5289.9189096,-176.113,-88.815,174.103
11.3226,128.181594,37.943691,5283.9999984,-176.173,-88.867,174.124
11.3393,128.181595,37.943686,5278.077124800001,-176.23,-88.918,174.143
11.356,128.181595,37.943681,5272.1502887999995,-176.282,-88.969,174.159
11.3727,128.181596,37.943677,5266.2194904,-176.329,-89.018,174.171
11.3894,128.181596,37.943672,5260.2847296,-176.37,-89.067,174.179
11.4061,128.181597,37.943668,5254.346006400001,-176.403,-89.115,174.18
11.4228,128.181598,37.943664,5248.4036256,-176.421,-89.162,174.168
11.4394,128.181598,37.94366,5242.456977600001,-176.418,-89.209,174.137
11.4561,128.181599,37.943656,5236.506672,-176.387,-89.254,174.08
11.4728,128.181599,37.943652,5230.552404,-176.319,-89.299,173.988
11.4896,128.1816,37.943648,5224.5944784,-176.207,-89.342,173.853
11.5063,128.1816,37.943644,5218.6325904000005,-176.041,-89.385,173.666
11.523,128.181601,37.943641,5212.66674,-175.812,-89.427,173.417
11.5397,128.181601,37.943637,5206.697232,-175.691,-89.445,173.278
11.5564,128.181602,37.943634,5200.723456800001,-175.745,-89.435,173.314
11.5731,128.181603,37.943631,5194.746328800001,-175.887,-89.408,173.438
11.5898,128.181603,37.943627,5188.765238400001,-176.015,-89.378,173.549
11.6065,128.181604,37.943624,5182.7804904,-176.074,-89.352,173.591
11.6231,128.181604,37.943621,5176.792084799999,-176.048,-89.338,173.548
11.6398,128.181605,37.943618,5170.8000216,-175.941,-89.334,173.423
11.6565,128.181605,37.943615,5164.8046056,-175.762,-89.339,173.228
11.6733,128.181606,37.943613,5158.8052272,-175.526,-89.352,172.976
11.69,128.181606,37.94361,5152.8021912,-175.248,-89.369,172.68
11.7067,128.181606,37.943607,5146.795497600001,-174.942,-89.389,172.357
11.7234,128.181607,37.943605,5140.7851464000005,-174.624,-89.411,172.021
11.7401,128.181607,37.943602,5134.770832800001,-174.31,-89.434,171.685
11.7568,128.181608,37.9436,5128.7531664,-174.013,-89.457,171.366
11.7735,128.181608,37.943597,5122.7318424000005,-173.749,-89.48,171.077
11.7902,128.181609,37.943595,5116.706556000001,-173.821,-89.48,171.121
11.8068,128.181609,37.943593,5110.6776119999995,-174.322,-89.448,171.592
11.8235,128.18161,37.943591,5104.644705600001,-175.015,-89.395,172.252
11.8402,128.18161,37.943589,5098.6084464000005,-175.68,-89.338,172.882
11.857,128.181611,37.943587,5092.5685296,-176.234,-89.289,173.399
11.8737,128.181611,37.943585,5086.52526,-176.67,-89.253,173.802
11.8904,128.181611,37.943583,5080.478028,-177.01,-89.231,174.111
11.9071,128.181612,37.943581,5074.4271384,-177.274,-89.221,174.349
11.9238,128.181612,37.943579,5068.372896000001,-177.479,-89.22,174.531
11.9405,128.181613,37.943577,5062.3146912,-177.634,-89.226,174.668
11.9572,128.181613,37.943576,5056.2528288,-177.744,-89.235,174.764
11.9739,128.181613,37.943574,5050.1873088,-177.812,-89.247,174.821
11.9905,128.181614,37.943572,5044.1181312,-177.838,-89.26,174.839
12.0072,128.181614,37.943571,5038.0449912,-177.821,-89.274,174.815
12.0239,128.181615,37.943569,5031.9684984,-177.759,-89.289,174.75
12.0407,128.181615,37.943568,5025.8880432,-177.654,-89.305,174.641
12.0574,128.181615,37.943567,5019.8042352,-177.505,-89.32,174.491
12.0741,128.181616,37.943565,5013.716464800001,-177.315,-89.336,174.299
12.0908,128.181616,37.943564,5007.6250368,-177.088,-89.351,174.07
12.1075,128.181616,37.943563,5001.5299512,-176.827,-89.367,173.809
12.1242,128.181617,37.943562,4995.431208,-176.541,-89.382,173.521
12.1409,128.181617,37.94356,4989.3288072000005,-176.237,-89.397,173.215
12.1576,128.181617,37.943559,4983.222748800001,-175.927,-89.412,172.902
12.1743,128.181618,37.943558,4977.112728,-175.622,-89.426,172.592
12.1909,128.181618,37.943557,4970.9993544,-175.335,-89.441,172.298
12.2076,128.181618,37.943556,4964.882018400001,-175.079,-89.455,172.033
12.2243,128.181619,37.943555,4958.7613296,-174.868,-89.468,171.811
12.2411,128.181619,37.943554,4952.6366784,-174.714,-89.482,171.643
12.2578,128.181619,37.943554,4946.5086744,-174.626,-89.495,171.539
12.2745,128.18162,37.943553,4940.376708,-174.612,-89.509,171.506
12.2912,128.18162,37.943552,4934.2413888,-174.676,-89.522,171.548
12.3079,128.18162,37.943551,4928.1021072,-174.815,-89.536,171.665
12.3246,128.181621,37.943551,4921.959168,-175.025,-89.549,171.85
12.3413,128.181621,37.94355,4915.8125712,-175.294,-89.562,172.096
12.358,128.181621,37.943549,4909.662316800001,-175.609,-89.576,172.387
12.3746,128.181622,37.943549,4903.5084048,-175.95,-89.589,172.705
12.3913,128.181622,37.943548,4897.350835200001,-176.296,-89.602,173.031
12.408,128.181622,37.943548,4891.189303200001,-176.625,-89.615,173.341
12.4248,128.181623,37.943547,4885.0241136,-176.913,-89.628,173.615
12.4415,128.181623,37.943547,4878.855266400001,-177.139,-89.641,173.827
12.4582,128.181623,37.943547,4872.6827616,-177.28,-89.654,173.959
12.4749,128.181623,37.943546,4866.5062944,-177.317,-89.667,173.989
12.4916,128.181624,37.943546,4860.3264744,-177.235,-89.679,173.902
12.5083,128.181624,37.943546,4854.142692,-177.018,-89.691,173.682
12.525,128.181624,37.943545,4847.955252,-176.658,-89.703,173.32
12.5417,128.181624,37.943545,4841.7641544,-176.148,-89.714,172.81
12.5583,128.181625,37.943545,4835.5690944,-175.492,-89.725,172.153
12.575,128.181625,37.943545,4829.3706816,-174.698,-89.735,171.358
12.5917,128.181625,37.943545,4823.1683064,-173.785,-89.744,170.444
12.6085,128.181625,37.943545,4816.9622736,-172.784,-89.753,169.441
12.6252,128.181626,37.943545,4810.752888,-171.737,-89.762,168.389
12.6419,128.181626,37.943545,4804.53954,-170.698,-89.77,167.341
12.6586,128.181626,37.943545,4798.3228392,-169.728,-89.778,166.358
12.6753,128.181626,37.943545,4792.102176,-168.899,-89.786,165.51
12.692,128.181627,37.943545,4785.87816,-168.283,-89.794,164.868
12.7087,128.181627,37.943545,4779.6504864,-167.944,-89.801,164.496
12.7254,128.181627,37.943545,4773.41946,-167.934,-89.809,164.444
12.742,128.181627,37.943545,4767.1844712,-168.279,-89.817,164.74
12.7587,128.181628,37.943545,4760.9461296,-168.975,-89.826,165.382
12.7754,128.181628,37.943546,4754.7041304,-169.98,-89.834,166.33
12.7922,128.181628,37.943546,4748.458473600001,-171.213,-89.843,167.504
12.8089,128.181628,37.943546,4742.2094640000005,-172.553,-89.851,168.789
12.8256,128.181628,37.943546,4735.956492,-173.855,-89.86,170.041
12.8423,128.181629,37.943547,4729.699862400001,-174.962,-89.869,171.106
12.859,128.181629,37.943547,4723.4395752,-175.719,-89.877,171.829
12.8757,128.181629,37.943547,4717.1756304,-175.985,-89.886,172.069
12.8924,128.181629,37.943548,4710.908028000001,-175.63,-89.894,171.696
12.9091,128.181629,37.943548,4704.636768,-174.536,-89.902,170.591
12.9257,128.18163,37.943549,4698.361850400001,-172.593,-89.91,168.641
12.9424,128.18163,37.943549,4692.083275200001,-169.713,-89.917,165.758
12.9591,128.18163,37.943549,4685.8010424,-165.864,-89.923,161.905
12.9759,128.18163,37.94355,4679.5154568,-161.129,-89.928,157.167
12.9926,128.18163,37.94355,4673.2262136,-155.769,-89.933,151.8
13.0093,128.181631,37.943551,4666.9333128,-150.229,-89.937,146.246
13.026,128.181631,37.943552,4660.637364,-145.073,-89.94,141.063
13.0427,128.181631,37.943552,4654.3377576,-140.872,-89.945,136.816
13.0594,128.181631,37.943553,4648.0347984,-138.177,-89.95,134.05
13.0761,128.181631,37.943553,4641.7284864,-137.688,-89.958,133.461
13.0928,128.181631,37.943554,4635.4188216,-140.711,-89.968,136.355
13.1095,128.181632,37.943555,4629.105804,-151.447,-89.979,146.94
13.1262,128.181632,37.943556,4622.7891288,174.843,-89.988,180.492
13.1429,128.181632,37.943556,4616.468796,116.273,-89.988,238.915
13.1596,128.181632,37.943557,4610.1445008,86.368,-89.983,268.704
13.1763,128.181632,37.943558,4603.8162432,68.18,-89.98,286.813
13.193,128.181632,37.943558,4597.4846328,48.797,-89.979,306.154
13.2097,128.181633,37.943559,4591.1493648,26.023,-89.977,328.907
13.2264,128.181633,37.94356,4584.8104392000005,3.864,-89.972,351.055
13.2431,128.181633,37.943561,4578.467856,-13.254,-89.964,8.17
13.2598,128.181633,37.943562,4572.1216152,-25.083,-89.954,19.997
13.2765,128.181633,37.943562,4565.7720216,-33.079,-89.941,27.995
13.2932,128.181633,37.943563,4559.4187704000005,-38.481,-89.928,33.4
13.3099,128.181633,37.943564,4553.0621664,-42.093,-89.913,37.016
13.3266,128.181633,37.943565,4546.7019048,-44.415,-89.898,39.345
13.3433,128.181634,37.943566,4540.3379856,-45.774,-89.884,40.714
13.36,128.181634,37.943567,4533.970713600001,-46.368,-89.87,41.319
13.3767,128.181634,37.943568,4527.599784,-46.312,-89.857,41.279
13.3934,128.181634,37.943569,4521.2251968,-45.67,-89.845,40.655
13.4101,128.181634,37.94357,4514.847256800001,-44.461,-89.835,39.467
13.4268,128.181634,37.943571,4508.465964,-42.677,-89.827,37.709
13.4435,128.181634,37.943572,4502.0807088,-40.294,-89.82,35.355
13.4602,128.181634,37.943573,4495.692405600001,-37.277,-89.815,32.369
13.4769,128.181634,37.943574,4489.3004448,-33.594,-89.811,28.721
13.4936,128.181635,37.943575,4482.9048264,-29.229,-89.807,24.392
13.5103,128.181635,37.943576,4476.5058552,-24.208,-89.804,19.409
13.527,128.181635,37.943577,4470.1032264,-18.619,-89.8,13.857
13.5437,128.181635,37.943578,4463.6972448,-12.627,-89.795,7.901
13.5604,128.181635,37.943579,4457.2879104,-6.475,-89.787,1.783
13.5771,128.181635,37.94358,4450.8749184,-0.447,-89.778,355.786
13.5938,128.181635,37.943581,4444.458573600001,5.179,-89.765,350.186
13.6105,128.181635,37.943583,4438.038571200001,10.185,-89.751,345.203
13.6272,128.181635,37.943584,4431.615216,14.428,-89.735,340.976
13.6439,128.181636,37.943585,4425.188508,17.839,-89.718,337.575
13.6606,128.181636,37.943586,4418.7584472,20.403,-89.702,335.012
13.6773,128.181636,37.943587,4412.3247288,22.136,-89.685,333.274
13.694,128.181636,37.943589,4405.8876576,23.063,-89.67,332.333
13.7107,128.181636,37.94359,4399.4472336,23.21,-89.657,332.163
13.7274,128.181636,37.943591,4393.003152,22.595,-89.645,332.748
13.7441,128.181636,37.943592,4386.5557176,21.229,-89.635,334.075
13.7608,128.181636,37.943594,4380.104930400001,19.123,-89.627,336.136
13.7775,128.181636,37.943595,4373.6504856,16.293,-89.62,338.916
13.7942,128.181636,37.943596,4367.192688,12.775,-89.613,342.381
13.8109,128.181636,37.943598,4360.7315376,8.64,-89.606,346.463
13.8276,128.181636,37.943599,4354.2667296,4.007,-89.597,351.043
13.8443,128.181636,37.9436,4347.798264,-0.951,-89.585,355.955
13.861,128.181636,37.943602,4341.326445600001,-6.025,-89.571,0.989
13.8777,128.181636,37.943603,4334.8509696,-10.986,-89.553,5.921
13.8944,128.181636,37.943604,4328.3721408,-15.625,-89.531,10.542
13.9111,128.181636,37.943606,4321.8896544,-19.776,-89.507,14.691
13.9278,128.181636,37.943607,4315.4038152,-23.325,-89.482,18.256
13.9445,128.181636,37.943609,4308.9140136000005,-26.211,-89.456,21.178
13.9612,128.181636,37.94361,4302.4208592,-28.407,-89.431,23.432
13.9779,128.181636,37.943611,4295.9240472,-29.975,-89.407,25.082
13.9946,128.181636,37.943613,4289.4235776000005,-30.987,-89.387,26.197
14.0113,128.181636,37.943614,4282.9197552000005,-31.495,-89.368,26.829
14.028,128.181636,37.943616,4276.4122752,-31.534,-89.353,27.013
14.0447,128.181637,37.943617,4269.9011376,-31.125,-89.341,26.767
14.0614,128.181637,37.943619,4263.3863424,-30.276,-89.333,26.097
14.0781,128.181637,37.94362,4256.8678896,-28.981,-89.327,24.996
14.0948,128.181637,37.943622,4250.346084,-27.224,-89.324,23.443
14.1115,128.181637,37.943623,4243.8209256,-24.979,-89.323,21.409
14.1282,128.181637,37.943625,4237.2921096,-22.218,-89.324,18.861
14.1449,128.181637,37.943626,4230.759940800001,-18.909,-89.325,15.764
14.1616,128.181637,37.943628,4224.224419200001,-15.031,-89.327,12.092
14.1783,128.181637,37.94363,4217.68524,-10.58,-89.327,7.837
14.195,128.181637,37.943631,4211.1430128,-5.584,-89.324,3.022
14.2117,128.181637,37.943633,4204.5974328,-0.119,-89.315,357.72
14.2284,128.181637,37.943635,4198.048804800001,5.567,-89.3,352.17
14.2451,128.181637,37.943636,4191.496824,11.194,-89.278,346.648
14.2618,128.181637,37.943638,4184.9417952,16.486,-89.249,341.425
14.2785,128.181637,37.94364,4178.3834136000005,21.215,-89.214,336.721
14.2952,128.181637,37.943641,4171.821984,25.23,-89.176,332.681
14.3119,128.181637,37.943643,4165.2578112,28.517,-89.136,329.319
14.3286,128.181637,37.943645,4158.6902856,31.149,-89.095,326.559
14.3453,128.181637,37.943647,4152.1200168000005,33.199,-89.056,324.327
14.362,128.181637,37.943649,4145.547004800001,34.732,-89.018,322.555
14.3787,128.181637,37.943651,4138.9709448,35.805,-88.982,321.189
14.3954,128.181637,37.943652,4132.3918368,36.461,-88.95,320.183
14.4121,128.181637,37.943654,4125.8099856,36.732,-88.921,319.508
14.4288,128.181637,37.943656,4119.225391200001,36.642,-88.896,319.142
14.4455,128.181637,37.943658,4112.637748800001,36.2,-88.876,319.078
14.4622,128.181637,37.94366,4106.0473632,35.4,-88.86,319.333
14.4789,128.181637,37.943663,4099.4539296,34.221,-88.849,319.936
14.4956,128.181637,37.943665,4092.857448,32.641,-88.843,320.922
14.5123,128.181637,37.943667,4086.2576136000002,30.626,-88.842,322.331
14.529,128.181637,37.943669,4079.6547312000002,28.14,-88.846,324.211
14.5457,128.181637,37.943671,4073.0488008,25.141,-88.854,326.612
14.5624,128.181637,37.943673,4066.4392128,21.582,-88.863,329.589
14.5791,128.181636,37.943675,4059.8262720000002,17.418,-88.873,333.198
14.5958,128.181636,37.943677,4053.2099784000006,12.616,-88.882,337.482
14.6125,128.181636,37.94368,4046.5900272000003,7.171,-88.885,342.455
14.6292,128.181636,37.943682,4039.9664184000003,1.13,-88.88,348.081
14.6459,128.181636,37.943684,4033.3388472,-5.391,-88.863,354.256
14.6626,128.181636,37.943686,4026.7073136000004,-12.151,-88.831,0.749
14.6793,128.181636,37.943688,4020.0715128,-18.754,-88.781,7.183
14.696,128.181635,37.94369,4013.4317496000003,-24.843,-88.716,13.213
14.7127,128.181635,37.943692,4006.7877192000005,-30.232,-88.637,18.669
14.7294,128.181635,37.943695,4000.1391168000005,-34.899,-88.547,23.531
14.7461,128.181635,37.943697,3993.4862472,-38.86,-88.449,27.818
14.7628,128.181635,37.943699,3986.8288056000006,-42.163,-88.344,31.579
14.7795,128.181635,37.943701,3980.1667920000004,-44.868,-88.236,34.874
14.7962,128.181635,37.943703,3973.5002064,-47.039,-88.127,37.765
14.8129,128.181635,37.943705,3966.8296584,-48.534,-88.034,39.906
14.8296,128.181634,37.943707,3960.1548432000004,-49.46,-87.961,41.388
14.8463,128.181634,37.943709,3953.4766752,-49.987,-87.908,42.408
14.863,128.181634,37.943711,3946.7945448,-50.188,-87.871,43.077
14.8797,128.181634,37.943713,3940.1093664000005,-50.08,-87.85,43.433
14.8964,128.181634,37.943715,3933.4202256000003,-49.658,-87.845,43.487
14.9131,128.181634,37.943717,3926.7274272,-48.913,-87.855,43.231
14.9298,128.181634,37.94372,3920.0309712000003,-47.814,-87.878,42.632
14.9465,128.181635,37.943722,3913.3311624000003,-46.323,-87.916,41.648
14.9632,128.181635,37.943724,3906.6276960000005,-44.402,-87.965,40.235
14.9799,128.181635,37.943726,3899.9208768,-42.001,-88.026,38.338
14.9966,128.181635,37.943728,3893.2104000000004,-39.057,-88.096,35.886
15.0133,128.181635,37.943731,3886.4965704,-35.484,-88.172,32.788
15.03,128.181635,37.943733,3879.7796928000002,-31.183,-88.25,28.94
15.0467,128.181635,37.943735,3873.0594624000005,-26.059,-88.325,24.239
15.0634,128.181635,37.943738,3866.3358792,-20.042,-88.392,18.612
15.0801,128.181635,37.94374,3859.6086384,-13.587,-88.44,12.676
15.0968,128.181636,37.943742,3852.8774352000005,-6.797,-88.469,6.488
