Time,Longitude,Latitude,Altitude,Roll (deg),Pitch (deg),Yaw (deg)
0.0,128.181881,37.968463,7002.830292000001,0.0,-0.003,179.999
0.0167,128.181881,37.968418,7002.8116992000005,0.0,-0.012,180.0
0.0334,128.181881,37.968374,7002.792496800001,0.0,-0.025,180.0
0.0501,128.181881,37.968329,7002.7720752,0.0,-0.041,180.0
0.0668,128.181881,37.968284,7002.751044,0.0,-0.058,180.0
0.0834,128.181881,37.968239,7002.7290984,0.0,-0.076,180.0
0.1002,128.181881,37.968194,7002.705933600001,0.0,-0.093,180.0
0.1169,128.181881,37.968149,7002.682464,0.0,-0.109,180.0
0.1336,128.181881,37.968104,7002.6577752,0.0,-0.123,180.0
0.1503,128.181881,37.968059,7002.6321720000005,0.0,-0.135,180.0
0.1669,128.181881,37.968014,7002.6056544,0.0,-0.144,180.0
0.1837,128.181881,37.967969,7002.5785272,0.0,-0.152,180.0
0.2004,128.181881,37.967924,7002.5504856,0.0,-0.158,180.0
0.2171,128.181881,37.967879,7002.5215296,0.0,-0.161,180.0
0.2338,128.181881,37.967834,7002.4916592,0.0,-0.164,180.0
0.2505,128.181881,37.967789,7002.4611792000005,0.0,-0.165,180.0
0.2672,128.181881,37.967744,7002.4297848,0.0,-0.166,180.0
0.2839,128.181881,37.967699,7002.397476,0.0,-0.165,180.0
0.3006,128.181881,37.967654,7002.3645576,0.0,-0.165,180.0
0.3172,128.181881,37.967609,7002.330724800001,0.0,-0.164,180.0
0.3339,128.181881,37.967564,7002.296282400001,0.0,-0.164,180.0
0.3507,128.181881,37.96752,7002.2609256,0.0,-0.163,180.0
0.3674,128.181881,37.967475,7002.224959200001,0.0,-0.163,180.0
0.3841,128.181881,37.96743,7002.1880784,0.0,-0.164,180.0
0.4008,128.181881,37.967385,7002.150588,0.0,-0.164,180.0
0.4175,128.181881,37.96734,7002.112183200001,0.0,-0.165,180.0
0.4342,128.181881,37.967295,7002.0731688000005,0.0,-0.166,180.0
0.4509,128.181881,37.96725,7002.0335448000005,0.0,-0.168,180.0
0.4676,128.181881,37.967205,7001.993006400001,0.0,-0.169,180.0
0.4843,128.181881,37.96716,7001.9518584,0.001,-0.171,180.0
0.501,128.181881,37.967115,7001.910100800001,0.001,-0.173,180.0
0.5176,128.181881,37.96707,7001.867733600001,0.001,-0.175,180.0
0.5344,128.181881,37.967025,7001.824756800001,0.001,-0.177,180.0
0.5511,128.181881,37.96698,7001.780865600001,0.001,-0.178,180.0
0.5678,128.181881,37.966935,7001.736364800001,0.001,-0.18,180.0
0.5845,128.181881,37.96689,7001.691254400001,0.002,-0.182,180.0
0.6012,128.181881,37.966845,7001.6458391999995,0.002,-0.183,180.0
0.6179,128.181881,37.9668,7001.599509600001,0.002,-0.185,180.0
0.6345,128.181881,37.966755,7001.552570400001,0.002,-0.186,180.0
0.6513,128.181881,37.96671,7001.5050216,0.002,-0.188,180.0
0.6679,128.181881,37.966665,7001.4568632,0.003,-0.189,180.0
0.6847,128.181881,37.96662,7001.4080952,0.003,-0.19,180.0
0.7014,128.181881,37.966575,7001.3587176,0.003,-0.191,180.0
0.7181,128.181881,37.96653,7001.3087304,0.003,-0.192,180.0
0.7348,128.181881,37.966485,7001.258133600001,0.003,-0.193,180.0
0.7514,128.181881,37.96644,7001.207232000001,0.004,-0.194,180.0
0.7682,128.181881,37.966395,7001.155416,0.004,-0.195,180.0
0.7848,128.181881,37.96635,7001.1032952000005,0.004,-0.196,180.0
0.8016,128.181881,37.966305,7001.050564800001,0.004,-0.197,180.001
0.8183,128.181881,37.966259,7000.997224800001,0.005,-0.198,180.001
0.835,128.181881,37.966214,7000.94358,0.005,-0.199,180.001
0.8517,128.181881,37.966169,7000.8890208,0.005,-0.2,180.001
0.8684,128.181881,37.966124,7000.8341568000005,0.005,-0.201,180.001
0.8851,128.181881,37.966079,7000.778988000001,0.006,-0.202,180.001
0.9018,128.181881,37.966034,7000.722904800001,0.006,-0.203,180.001
0.9185,128.181881,37.965989,7000.6665168,0.006,-0.204,180.001
0.9352,128.181881,37.965944,7000.609824000001,0.006,-0.205,180.001
0.9519,128.181881,37.965899,7000.5525216,0.007,-0.206,180.001
0.9686,128.181881,37.965854,7000.4946096,0.007,-0.207,180.001
0.9853,128.181881,37.965809,7000.436088,0.007,-0.208,180.001
1.002,128.181881,37.965764,7000.3772616,0.008,-0.209,180.001
1.0187,128.181881,37.965719,7000.3181304,0.008,-0.21,180.001
1.0353,128.181881,37.965674,7000.2583896,0.008,-0.211,180.001
1.0521,128.181881,37.965629,7000.198344,0.009,-0.211,180.001
1.0688,128.181881,37.965584,7000.1376887999995,0.009,-0.212,180.001
1.0855,128.181881,37.965539,7000.076424000001,0.009,-0.213,180.001
1.1022,128.181881,37.965494,7000.0151592,0.009,-0.214,180.001
1.1189,128.181881,37.965448,6999.9532848,0.01,-0.215,180.001
1.1356,128.181881,37.965403,6999.890800800001,0.01,-0.215,180.001
1.1522,128.181881,37.965358,6999.828012,0.01,-0.216,180.001
1.169,128.181881,37.965313,6999.7649184,0.011,-0.217,180.001
1.1857,128.181881,37.965268,6999.701215200001,0.011,-0.217,180.001
1.2024,128.181881,37.965223,6999.6372071999995,0.011,-0.218,180.001
1.2191,128.181881,37.965178,6999.5728944,0.012,-0.219,180.001
1.2358,128.181881,37.965133,6999.507972,0.012,-0.219,180.001
1.2525,128.181881,37.965088,6999.442744800001,0.013,-0.22,180.001
1.2691,128.181881,37.965043,6999.3772128,0.013,-0.221,180.001
1.2859,128.181881,37.964998,6999.311376,0.013,-0.221,180.001
1.3026,128.181881,37.964952,6999.2449295999995,0.014,-0.222,180.001
1.3193,128.181881,37.964907,6999.1784832,0.014,-0.222,180.001
1.3359,128.181881,37.964862,6999.1114272,0.014,-0.223,180.001
1.3527,128.181881,37.964817,6999.0440664,0.015,-0.224,180.001
1.3694,128.18188,37.964772,6998.976096,0.015,-0.224,180.001
1.386,128.18188,37.964727,6998.9081256,0.016,-0.225,180.001
1.4028,128.18188,37.964682,6998.839545600001,0.016,-0.225,180.001
1.4195,128.18188,37.964637,6998.770965600001,0.016,-0.226,180.001
1.4362,128.18188,37.964592,6998.701776,0.017,-0.226,180.001
1.4528,128.18188,37.964546,6998.6322816,0.017,-0.227,180.001
1.4696,128.18188,37.964501,6998.562482400001,0.018,-0.227,180.001
1.4863,128.18188,37.964456,6998.4923784,0.018,-0.228,180.001
1.5029,128.18188,37.964411,6998.421969600001,0.019,-0.228,180.002
1.5197,128.18188,37.964366,6998.351256000001,0.019,-0.229,180.002
1.5364,128.18188,37.964321,6998.280237600001,0.019,-0.229,180.002
1.5531,128.18188,37.964276,6998.2089144,0.02,-0.229,180.002
1.5697,128.18188,37.96423,6998.1372864,0.02,-0.23,180.002
1.5865,128.18188,37.964185,6998.0653536,0.021,-0.23,180.002
1.6032,128.18188,37.96414,6997.993116,0.021,-0.231,180.002
1.6198,128.18188,37.964095,6997.9205736,0.022,-0.231,180.002
1.6366,128.18188,37.96405,6997.8477264,0.022,-0.231,180.002
1.6533,128.18188,37.964005,6997.774879200001,0.023,-0.232,180.002
1.67,128.18188,37.963959,6997.7014224,0.023,-0.232,180.002
1.6867,128.18188,37.963914,6997.627660800001,0.024,-0.233,180.002
1.7034,128.18188,37.963869,6997.5538992,0.024,-0.233,180.002
1.7201,128.18188,37.963824,6997.479832800001,0.025,-0.233,180.002
1.7368,128.18188,37.963779,6997.4054616,0.025,-0.234,180.002
1.7535,128.18188,37.963733,6997.3307856,0.026,-0.234,180.002
1.7702,128.18188,37.963688,6997.2558048,0.026,-0.234,180.002
1.7869,128.18188,37.963643,6997.1805192,0.027,-0.234,180.002
1.8036,128.18188,37.963598,6997.105233600001,0.027,-0.234,180.002
1.8203,128.18188,37.963553,6997.029338400001,0.028,-0.235,180.002
1.837,128.18188,37.963508,6996.9534432,0.028,-0.235,180.002
1.8537,128.18188,37.963462,6996.8775479999995,0.029,-0.235,180.002
1.8704,128.18188,37.963417,6996.8010432,0.029,-0.235,180.002
1.8871,128.18188,37.963372,6996.724538400001,0.03,-0.236,180.002
1.9038,128.18188,37.963327,6996.647728800001,0.03,-0.236,180.002
1.9205,128.18188,37.963281,6996.5706144000005,0.031,-0.236,180.002
1.9372,128.18188,37.963236,6996.4935000000005,0.031,-0.236,180.002
1.9539,128.18188,37.963191,6996.415776,0.032,-0.236,180.002
1.9706,128.18188,37.963146,6996.338052000001,0.032,-0.236,180.002
1.9873,128.18188,37.963101,6996.260328,0.033,-0.237,180.002
2.004,128.18188,37.963055,6996.1822992,0.034,-0.237,180.002
2.0207,128.18188,37.96301,6996.103965600001,0.034,-0.237,180.002
2.0374,128.18188,37.962965,6996.0253272,0.035,-0.237,180.002
2.0541,128.18188,37.96292,6995.9466888,0.035,-0.237,180.002
2.0707,128.18188,37.962874,6995.8677456000005,0.036,-0.237,180.002
2.0875,128.18188,37.962829,6995.788802399999,0.036,-0.237,180.002
2.1042,128.18188,37.962784,6995.7095544,0.037,-0.237,180.002
2.1208,128.18188,37.962739,6995.6300016000005,0.038,-0.237,180.002
2.1376,128.18188,37.962693,6995.5504488,0.038,-0.238,180.002
2.1543,128.18188,37.962648,6995.470591200001,0.039,-0.238,180.002
2.171,128.18188,37.962603,6995.3904288,0.039,-0.238,180.002
2.1877,128.18188,37.962558,6995.3102664,0.04,-0.238,180.002
2.2044,128.18188,37.962512,6995.230104,0.041,-0.238,180.002
2.2211,128.18188,37.962467,6995.149636800001,0.041,-0.238,180.003
2.2378,128.18188,37.962422,6995.0688648000005,0.042,-0.238,180.003
2.2544,128.18188,37.962376,6994.988092800001,0.043,-0.238,180.003
2.2712,128.18188,37.962331,6994.907016,0.043,-0.238,180.003
2.2879,128.18188,37.962286,6994.8259392,0.044,-0.238,180.003
2.3045,128.18188,37.962241,6994.7445576,0.045,-0.238,180.003
2.3213,128.18188,37.962195,6994.663176,0.045,-0.237,180.003
2.338,128.18188,37.96215,6994.5817944,0.046,-0.237,180.003
2.3546,128.18188,37.962105,6994.4998032,0.047,-0.237,180.003
2.3714,128.18188,37.962059,6994.4181168000005,0.047,-0.237,180.003
2.3881,128.18188,37.962014,6994.3361256,0.048,-0.237,180.003
2.4048,128.18188,37.961969,6994.2538296,0.049,-0.237,180.003
2.4215,128.18188,37.961923,6994.171533600001,0.049,-0.237,180.003
2.4382,128.18188,37.961878,6994.089237600001,0.05,-0.237,180.003
2.4549,128.18188,37.961833,6994.006636800001,0.051,-0.237,180.003
2.4716,128.18188,37.961787,6993.924036,0.051,-0.237,180.003
2.4882,128.18188,37.961742,6993.8411304,0.052,-0.237,180.003
2.505,128.18188,37.961697,6993.758224800001,0.053,-0.237,180.003
2.5217,128.18188,37.961651,6993.675319200001,0.053,-0.237,180.003
2.5383,128.18188,37.961606,6993.5921088000005,0.054,-0.237,180.003
2.5551,128.18188,37.961561,6993.5088984,0.055,-0.237,180.003
2.5718,128.18188,37.961515,6993.4253832,0.056,-0.237,180.003
2.5884,128.18188,37.96147,6993.341868,0.056,-0.236,180.003
2.6052,128.18188,37.961425,6993.2583528,0.057,-0.236,180.003
2.6219,128.18188,37.961379,6993.174532800001,0.058,-0.236,180.003
2.6386,128.18188,37.961334,6993.0907128,0.058,-0.236,180.003
2.6553,128.18188,37.961289,6993.006892800001,0.059,-0.236,180.003
2.6719,128.18188,37.961243,6992.922768,0.06,-0.235,180.003
2.6887,128.18188,37.961198,6992.8386432,0.061,-0.235,180.003
2.7054,128.18188,37.961152,6992.7545184,0.061,-0.235,180.003
2.722,128.18188,37.961107,6992.6700888,0.062,-0.235,180.003
2.7388,128.18188,37.961062,6992.5856592,0.063,-0.234,180.003
2.7555,128.18188,37.961016,6992.5012295999995,0.064,-0.234,180.003
2.7721,128.18188,37.960971,6992.4168,0.064,-0.234,180.003
2.7889,128.18188,37.960925,6992.3320656000005,0.065,-0.234,180.003
2.8056,128.18188,37.96088,6992.2473312,0.066,-0.233,180.003
2.8222,128.18188,37.960835,6992.162292000001,0.067,-0.233,180.003
2.839,128.18188,37.960789,6992.0775576,0.068,-0.233,180.003
2.8557,128.18188,37.960744,6991.9925184,0.068,-0.233,180.003
2.8724,128.18188,37.960698,6991.907479200001,0.069,-0.232,180.003
2.8891,128.18188,37.960653,6991.8221352,0.07,-0.232,180.004
2.9057,128.18188,37.960608,6991.737096000001,0.071,-0.232,180.004
2.9225,128.18188,37.960562,6991.651752000001,0.072,-0.232,180.004
2.9392,128.18188,37.960517,6991.566408,0.073,-0.231,180.004
2.9558,128.181879,37.960471,6991.4810640000005,0.073,-0.231,180.004
2.9726,128.181879,37.960426,6991.395415200001,0.074,-0.231,180.004
2.9893,128.181879,37.96038,6991.3100712,0.075,-0.23,180.004
3.0059,128.181879,37.960335,6991.224422400001,0.076,-0.23,180.004
3.0227,128.181879,37.960289,6991.138773600001,0.077,-0.23,180.004
3.0394,128.181879,37.960244,6991.052820000001,0.078,-0.229,180.004
3.056,128.181879,37.960199,6990.9671712,0.079,-0.229,180.004
3.0728,128.181879,37.960153,6990.8812176,0.079,-0.229,180.004
3.0895,128.181879,37.960108,6990.795264,0.08,-0.228,180.004
3.1062,128.181879,37.960062,6990.7093104000005,0.081,-0.228,180.004
3.1229,128.181879,37.960017,6990.623356800001,0.082,-0.228,180.004
3.1395,128.181879,37.959971,6990.5374032,0.083,-0.227,180.004
3.1563,128.181879,37.959926,6990.4514496,0.084,-0.227,180.004
3.173,128.181879,37.95988,6990.3651912000005,0.085,-0.227,180.004
3.1896,128.181879,37.959835,6990.278932800001,0.085,-0.226,180.004
3.2064,128.181879,37.959789,6990.192674400001,0.086,-0.226,180.004
3.2231,128.181879,37.959744,6990.1067207999995,0.087,-0.225,180.004
3.2397,128.181879,37.959698,6990.0201576,0.088,-0.225,180.004
3.2565,128.181879,37.959653,6989.9338992,0.089,-0.224,180.004
3.2732,128.181879,37.959607,6989.847640800001,0.09,-0.224,180.004
3.2899,128.181879,37.959562,6989.7610776,0.091,-0.224,180.004
3.3066,128.181879,37.959516,6989.6748192000005,0.092,-0.223,180.004
3.3233,128.181879,37.959471,6989.588256000001,0.093,-0.223,180.004
3.34,128.181879,37.959425,6989.5016928000005,0.094,-0.222,180.004
3.3567,128.181879,37.95938,6989.4154344,0.095,-0.222,180.004
3.3734,128.181879,37.959334,6989.3288712,0.096,-0.221,180.004
3.3901,128.181879,37.959288,6989.242308,0.097,-0.221,180.004
3.4068,128.181879,37.959243,6989.1557448,0.098,-0.22,180.004
3.4235,128.181879,37.959197,6989.0688768,0.098,-0.22,180.004
3.4402,128.181879,37.959152,6988.9823136,0.099,-0.219,180.004
3.4569,128.181879,37.959106,6988.8957504,0.1,-0.219,180.004
3.4736,128.181879,37.959061,6988.8091872,0.101,-0.218,180.004
3.4903,128.181879,37.959015,6988.722319200001,0.102,-0.218,180.005
3.507,128.181879,37.958969,6988.635756000001,0.103,-0.217,180.005
3.5237,128.181879,37.958924,6988.548888000001,0.104,-0.217,180.005
3.5404,128.181879,37.958878,6988.462324800001,0.105,-0.216,180.005
3.5571,128.181879,37.958833,6988.375456800001,0.106,-0.216,180.005
3.5738,128.181879,37.958787,6988.2888936,0.107,-0.215,180.005
3.5905,128.181879,37.958742,6988.2020256,0.109,-0.215,180.005
3.6072,128.181879,37.958696,6988.1154624,0.11,-0.214,180.005
3.6239,128.181879,37.95865,6988.0285944,0.111,-0.214,180.005
3.6406,128.181879,37.958605,6987.9417264,0.112,-0.215,180.005
3.6573,128.181879,37.958559,6987.8548584,0.113,-0.219,180.005
3.674,128.181879,37.958513,6987.767990400001,0.114,-0.224,180.005
3.6907,128.181879,37.958468,6987.6811224,0.115,-0.229,180.005
3.7074,128.181879,37.958422,6987.5942544,0.116,-0.235,180.005
3.7241,128.181879,37.958377,6987.507081600001,0.116,-0.241,180.004
3.7408,128.181879,37.958331,6987.4202136,0.117,-0.246,180.004
3.7575,128.181879,37.958285,6987.3330408,0.118,-0.251,180.004
3.7742,128.181879,37.95824,6987.245868,0.119,-0.255,180.004
3.7909,128.181879,37.958194,6987.158695200001,0.12,-0.257,180.004
3.8076,128.181879,37.958148,6987.0715224000005,0.121,-0.259,180.004
3.8243,128.181879,37.958103,6986.9843496,0.122,-0.261,180.004
3.841,128.181879,37.958057,6986.896872,0.123,-0.261,180.004
3.8577,128.181879,37.958011,6986.8096992,0.123,-0.261,180.004
3.8744,128.181879,37.957966,6986.7222216,0.124,-0.26,180.004
3.8911,128.181879,37.95792,6986.634744,0.125,-0.259,180.004
3.9078,128.181879,37.957874,6986.5472664,0.126,-0.258,180.004
3.9245,128.181878,37.957829,6986.4597888,0.127,-0.257,180.004
3.9412,128.181878,37.957783,6986.372311200001,0.128,-0.255,180.004
3.9579,128.181878,37.957737,6986.284528800001,0.129,-0.254,180.004
3.9746,128.181878,37.957692,6986.197051200001,0.13,-0.253,180.004
3.9913,128.181878,37.957646,6986.109268800001,0.132,-0.251,180.004
4.008,128.181878,37.9576,6986.0214864,0.133,-0.25,180.004
4.0247,128.181878,37.957554,6985.9340088,0.134,-0.249,180.004
4.0414,128.181878,37.957509,6985.8462264,0.135,-0.248,180.004
4.058,128.181878,37.957463,6985.758444,0.136,-0.248,180.004
4.0748,128.181878,37.957417,6985.6706616,0.137,-0.247,180.004
4.0915,128.181878,37.957371,6985.582879200001,0.138,-0.246,180.004
4.1082,128.181878,37.957326,6985.4950968,0.139,-0.246,180.005
4.1249,128.181878,37.95728,6985.4073144,0.14,-0.245,180.005
4.1415,128.181878,37.957234,6985.319227200001,0.142,-0.245,180.005
4.1583,128.181878,37.957188,6985.231444800001,0.143,-0.245,180.005
4.175,128.181878,37.957143,6985.1436624,0.144,-0.244,180.005
4.1917,128.181878,37.957097,6985.05588,0.145,-0.244,180.005
4.2084,128.181878,37.957051,6984.967792800001,0.146,-0.243,180.005
4.2251,128.181878,37.957005,6984.880010400001,0.147,-0.243,180.004
4.2417,128.181878,37.95696,6984.792228,0.148,-0.243,180.004
4.2585,128.181878,37.956914,6984.7041408000005,0.15,-0.242,180.004
4.2752,128.181878,37.956868,6984.6163584000005,0.151,-0.242,180.004
4.2919,128.181878,37.956822,6984.5282712,0.152,-0.241,180.004
4.3086,128.181878,37.956776,6984.4404888,0.153,-0.24,180.004
4.3252,128.181878,37.956731,6984.352706400001,0.154,-0.24,180.005
4.342,128.181878,37.956685,6984.2646192,0.155,-0.239,180.005
4.3587,128.181878,37.956639,6984.1768368,0.156,-0.238,180.005
4.3754,128.181878,37.956593,6984.0890544,0.158,-0.238,180.005
4.3921,128.181878,37.956547,6984.000967200001,0.159,-0.237,180.005
4.4088,128.181878,37.956501,6983.9131848,0.16,-0.236,180.005
4.4254,128.181878,37.956456,6983.8254024,0.161,-0.236,180.005
4.4422,128.181878,37.95641,6983.737315200001,0.163,-0.235,180.005
4.4589,128.181878,37.956364,6983.649532800001,0.164,-0.234,180.005
4.4756,128.181878,37.956318,6983.5617504,0.165,-0.234,180.005
4.4923,128.181878,37.956272,6983.473968,0.166,-0.233,180.005
4.5089,128.181878,37.956226,6983.3861856,0.167,-0.232,180.005
4.5256,128.181878,37.956181,6983.2984032,0.169,-0.232,180.005
4.5424,128.181878,37.956135,6983.2106208,0.17,-0.231,180.005
4.5591,128.181878,37.956089,6983.122838400001,0.171,-0.23,180.005
4.5758,128.181878,37.956043,6983.035056000001,0.172,-0.229,180.005
4.5925,128.181878,37.955997,6982.947578400001,0.174,-0.229,180.005
4.6091,128.181878,37.955951,6982.859796000001,0.175,-0.228,180.005
4.6259,128.181878,37.955905,6982.772318400001,0.176,-0.227,180.005
4.6426,128.181878,37.955859,6982.684536000001,0.177,-0.226,180.005
4.6593,128.181877,37.955813,6982.597058400001,0.179,-0.225,180.005
4.676,128.181877,37.955767,6982.509276,0.18,-0.225,180.005
4.6927,128.181877,37.955722,6982.4217984,0.181,-0.224,180.005
4.7093,128.181877,37.955676,6982.3346255999995,0.18,-0.224,180.004
4.7261,128.181877,37.95563,6982.2474528,0.177,-0.224,180.003
4.7428,128.181877,37.955584,6982.16028,0.171,-0.224,180.001
4.7595,128.181877,37.955538,6982.073412,0.163,-0.224,180.0
4.7762,128.181877,37.955492,6981.986544,0.154,-0.225,179.998
4.7928,128.181877,37.955446,6981.899676,0.142,-0.225,179.996
4.8096,128.181877,37.9554,6981.812808,0.13,-0.225,179.995
4.8263,128.181877,37.955354,6981.72594,0.117,-0.225,179.993
4.843,128.181877,37.955308,6981.6393768,0.104,-0.225,179.992
4.8597,128.181877,37.955262,6981.5525088,0.091,-0.224,179.991
4.8764,128.181877,37.955216,6981.4659456,0.078,-0.223,179.99
4.893,128.181877,37.95517,6981.3790776000005,0.066,-0.222,179.989
4.9098,128.181877,37.955124,6981.292514400001,0.054,-0.221,179.989
4.9265,128.181877,37.955078,6981.2059512000005,0.043,-0.22,179.988
4.9432,128.181877,37.955032,6981.119388000001,0.032,-0.218,179.987
4.9599,128.181877,37.954986,6981.0328248000005,0.023,-0.217,179.987
4.9765,128.181877,37.95494,6980.9465664,0.014,-0.215,179.986
4.9932,128.181877,37.954894,6980.8600032,0.005,-0.214,179.986
5.01,128.181877,37.954848,6980.7737448,-0.002,-0.212,179.985
5.0267,128.181877,37.954802,6980.6871816,-0.009,-0.211,179.985
5.0434,128.181877,37.954756,6980.600923200001,-0.016,-0.209,179.985
5.0601,128.181877,37.95471,6980.514664800001,-0.022,-0.208,179.984
5.0767,128.181877,37.954664,6980.428406400001,-0.028,-0.207,179.984
5.0935,128.181877,37.954618,6980.3424528,-0.033,-0.205,179.983
5.1102,128.181877,37.954572,6980.2561944,-0.039,-0.204,179.983
5.1269,128.181877,37.954526,6980.1702408,-0.044,-0.203,179.983
5.1436,128.181877,37.95448,6980.0842872,-0.048,-0.201,179.982
5.1602,128.181877,37.954434,6979.9983336000005,-0.053,-0.2,179.982
5.1769,128.181877,37.954388,6979.91238,-0.057,-0.199,179.981
5.1937,128.181877,37.954341,6979.8267312,-0.061,-0.198,179.981
5.2104,128.181877,37.954295,6979.741082400001,-0.064,-0.197,179.981
5.2271,128.181877,37.954249,6979.655433600001,-0.068,-0.195,179.98
5.2438,128.181877,37.954203,6979.5697848,-0.071,-0.194,179.98
5.2604,128.181877,37.954157,6979.484136,-0.074,-0.193,179.98
5.2772,128.181876,37.954111,6979.398792000001,-0.077,-0.191,179.98
5.2939,128.181876,37.954065,6979.313448,-0.08,-0.19,179.979
5.3106,128.181876,37.954019,6979.228104,-0.083,-0.189,179.979
5.3273,128.181876,37.953973,6979.1430648000005,-0.085,-0.187,179.979
5.3439,128.181876,37.953926,6979.0577207999995,-0.088,-0.186,179.978
5.3606,128.181876,37.95388,6978.9726816,-0.09,-0.185,179.978
5.3774,128.181876,37.953834,6978.887642400001,-0.092,-0.183,179.978
5.3941,128.181876,37.953788,6978.802908,-0.094,-0.182,179.978
5.4108,128.181876,37.953742,6978.7181736,-0.096,-0.181,179.977
5.4275,128.181876,37.953696,6978.6334392,-0.098,-0.179,179.977
5.4441,128.181876,37.95365,6978.5487048,-0.1,-0.178,179.977
5.4609,128.181876,37.953603,6978.4642752,-0.102,-0.176,179.976
5.4776,128.181876,37.953557,6978.3798456,-0.104,-0.175,179.976
5.4943,128.181876,37.953511,6978.295416,-0.106,-0.174,179.976
5.511,128.181876,37.953465,6978.2112912,-0.107,-0.172,179.976
5.5277,128.181876,37.953419,6978.1271664,-0.109,-0.171,179.975
5.5443,128.181876,37.953372,6978.043041600001,-0.111,-0.169,179.975
5.5611,128.181876,37.953326,6977.9589168,-0.112,-0.168,179.975
5.5778,128.181876,37.95328,6977.8750968,-0.114,-0.166,179.975
5.5945,128.181876,37.953234,6977.791276800001,-0.115,-0.164,179.974
5.6112,128.181876,37.953188,6977.7077616,-0.117,-0.163,179.974
5.6278,128.181876,37.953141,6977.624246400001,-0.118,-0.161,179.974
5.6445,128.181876,37.953095,6977.5407312,-0.12,-0.16,179.974
5.6613,128.181876,37.953049,6977.4575208,-0.121,-0.158,179.973
5.678,128.181876,37.953003,6977.374005600001,-0.122,-0.156,179.973
5.6947,128.181876,37.952956,6977.2911,-0.124,-0.155,179.973
5.7114,128.181876,37.95291,6977.2078896,-0.125,-0.153,179.973
5.728,128.181876,37.952864,6977.124984000001,-0.127,-0.152,179.972
5.7448,128.181876,37.952818,6977.042383200001,-0.128,-0.15,179.972
5.7615,128.181876,37.952771,6976.9594776,-0.13,-0.148,179.972
5.7782,128.181876,37.952725,6976.8768768,-0.131,-0.147,179.972
5.7949,128.181876,37.952679,6976.7945808,-0.133,-0.147,179.971
5.8115,128.181876,37.952633,6976.7122848,-0.136,-0.149,179.971
5.8282,128.181876,37.952586,6976.629988799999,-0.139,-0.152,179.97
5.845,128.181876,37.95254,6976.547692800001,-0.143,-0.156,179.97
5.8617,128.181876,37.952494,6976.465701600001,-0.147,-0.161,179.969
5.8784,128.181876,37.952447,6976.3837104,-0.151,-0.165,179.968
5.8951,128.181876,37.952401,6976.3020240000005,-0.156,-0.169,179.968
5.9117,128.181876,37.952355,6976.220032800001,-0.161,-0.172,179.967
5.9285,128.181876,37.952308,6976.138346400001,-0.166,-0.174,179.967
5.9452,128.181876,37.952262,6976.05666,-0.171,-0.176,179.966
5.9619,128.181876,37.952215,6975.9749736,-0.175,-0.177,179.966
5.9786,128.181876,37.952169,6975.893592,-0.18,-0.177,179.966
5.9952,128.181875,37.952122,6975.8122104,-0.185,-0.176,179.965
6.0119,128.181875,37.952076,6975.7308288,-0.189,-0.175,179.965
6.0287,128.181875,37.95203,6975.6494472,-0.193,-0.174,179.965
6.0454,128.181875,37.951983,6975.568370400001,-0.197,-0.172,179.964
6.0621,128.181875,37.951937,6975.4872936,-0.201,-0.17,179.964
6.0788,128.181875,37.95189,6975.4062168,-0.205,-0.167,179.963
6.0954,128.181875,37.951844,6975.3254448,-0.209,-0.165,179.963
6.1121,128.181875,37.951797,6975.2446728,-0.213,-0.162,179.963
6.1289,128.181875,37.951751,6975.1639008,-0.217,-0.159,179.962
6.1456,128.181875,37.951704,6975.083433600001,-0.221,-0.157,179.962
6.1623,128.181875,37.951657,6975.0029664,-0.224,-0.154,179.962
6.179,128.181875,37.951611,6974.9224992,-0.228,-0.152,179.961
6.1956,128.181875,37.951564,6974.8423368,-0.232,-0.149,179.961
6.2124,128.181875,37.951518,6974.762174400001,-0.235,-0.147,179.96
6.2291,128.181875,37.951471,6974.682012,-0.239,-0.144,179.96
6.2458,128.181875,37.951424,6974.6021544000005,-0.243,-0.142,179.959
6.2625,128.181875,37.951378,6974.522296800001,-0.247,-0.14,179.959
6.2791,128.181875,37.951331,6974.442744,-0.251,-0.138,179.959
6.2958,128.181875,37.951285,6974.3631912,-0.255,-0.135,179.958
6.3126,128.181875,37.951238,6974.2839432,-0.258,-0.133,179.958
6.3293,128.181875,37.951191,6974.2046952,-0.262,-0.131,179.957
6.346,128.181875,37.951144,6974.125447200001,-0.266,-0.128,179.957
6.3627,128.181875,37.951098,6974.046504,-0.27,-0.126,179.956
6.3793,128.181875,37.951051,6973.967560800001,-0.275,-0.123,179.956
6.3961,128.181875,37.951004,6973.8889224,-0.279,-0.121,179.956
6.4128,128.181875,37.950958,6973.8105888,-0.283,-0.119,179.955
6.4295,128.181875,37.950911,6973.7322552000005,-0.287,-0.116,179.955
6.4462,128.181875,37.950864,6973.6539216,-0.292,-0.113,179.954
6.4628,128.181875,37.950817,6973.5758928000005,-0.296,-0.111,179.954
6.4795,128.181875,37.95077,6973.498168800001,-0.301,-0.108,179.953
6.4963,128.181875,37.950724,6973.4204448,-0.305,-0.105,179.953
6.513,128.181875,37.950677,6973.3427208,-0.31,-0.103,179.952
6.5297,128.181875,37.95063,6973.2653016,-0.315,-0.1,179.952
6.5464,128.181875,37.950583,6973.1881872,-0.32,-0.097,179.951
6.5631,128.181875,37.950536,6973.1113776,-0.325,-0.094,179.951
6.5798,128.181875,37.95049,6973.034568,-0.33,-0.091,179.95
6.5965,128.181875,37.950443,6972.9577584,-0.335,-0.088,179.95
6.6132,128.181875,37.950396,6972.8812536000005,-0.341,-0.085,179.949
6.6299,128.181875,37.950349,6972.8050536,-0.347,-0.081,179.948
6.6466,128.181875,37.950302,6972.7291584,-0.352,-0.078,179.948
6.6633,128.181875,37.950255,6972.6532632,-0.358,-0.074,179.947
6.68,128.181875,37.950208,6972.577368,-0.364,-0.071,179.947
6.6967,128.181875,37.950161,6972.5020824,-0.37,-0.067,179.946
6.7134,128.181875,37.950114,6972.4267968,-0.377,-0.064,179.945
6.7301,128.181875,37.950067,6972.351815999999,-0.383,-0.06,179.945
6.7468,128.181875,37.95002,6972.27714,-0.39,-0.056,179.944
6.7635,128.181875,37.949973,6972.202464000001,-0.397,-0.052,179.943
6.7802,128.181875,37.949926,6972.128092800001,-0.404,-0.049,179.943
6.7969,128.181875,37.949879,6972.0540264,-0.411,-0.045,179.942
6.8136,128.181875,37.949832,6971.979960000001,-0.419,-0.041,179.941
6.8303,128.181875,37.949785,6971.9065032,-0.426,-0.037,179.941
6.847,128.181875,37.949738,6971.833046400001,-0.434,-0.032,179.94
6.8637,128.181875,37.949691,6971.7598944,-0.442,-0.028,179.939
6.8804,128.181875,37.949644,6971.686742400001,-0.451,-0.024,179.938
6.8971,128.181875,37.949597,6971.6142,-0.459,-0.02,179.938
6.9138,128.181875,37.94955,6971.5419624,-0.468,-0.015,179.937
6.9305,128.181875,37.949503,6971.469724800001,-0.478,-0.011,179.936
6.9472,128.181875,37.949456,6971.397792000001,-0.487,-0.006,179.935
6.9639,128.181875,37.949408,6971.326164,-0.497,-0.001,179.934
6.9806,128.181875,37.949361,6971.2548408,-0.507,0.002,179.933
6.9973,128.181875,37.949314,6971.1838224,-0.518,0.007,179.932
7.014,128.181875,37.949267,6971.1131088,-0.529,0.012,179.931
7.0307,128.181875,37.94922,6971.0427,-0.54,0.017,179.93
7.0474,128.181875,37.949173,6970.9725960000005,-0.551,0.022,179.93
7.0641,128.181875,37.949125,6970.902796800001,-0.563,0.028,179.929
7.0808,128.181875,37.949078,6970.833302399999,-0.575,0.033,179.928
7.0975,128.181875,37.949031,6970.7641128000005,-0.588,0.039,179.926
7.1142,128.181875,37.948984,6970.6952280000005,-0.601,0.044,179.925
7.1309,128.181875,37.948936,6970.6266479999995,-0.615,0.05,179.924
7.1476,128.181875,37.948889,6970.5583728,-0.629,0.056,179.923
7.1643,128.181875,37.948842,6970.4904024,-0.644,0.062,179.922
7.181,128.181875,37.948795,6970.423041600001,-0.659,0.068,179.921
7.1977,128.181875,37.948747,6970.3559856,-0.675,0.075,179.919
7.2144,128.181875,37.9487,6970.288929599999,-0.691,0.081,179.918
7.2311,128.181875,37.948653,6970.222483200001,-0.708,0.088,179.917
7.2478,128.181875,37.948605,6970.156646400001,-0.726,0.094,179.915
7.2645,128.181875,37.948558,6970.0908096,-0.745,0.101,179.914
7.2812,128.181875,37.948511,6970.0255824000005,-0.764,0.108,179.912
7.2979,128.181875,37.948463,6969.960660000001,-0.784,0.115,179.911
7.3146,128.181875,37.948416,6969.8963472000005,-0.805,0.123,179.909
7.3313,128.181875,37.948369,6969.8323392,-0.826,0.131,179.908
7.348,128.181875,37.948321,6969.768636000001,-0.849,0.139,179.906
7.3647,128.181875,37.948274,6969.705542400001,-0.872,0.147,179.904
7.3814,128.181875,37.948226,6969.6427536,-0.897,0.155,179.903
7.3981,128.181875,37.948179,6969.580574400001,-0.923,0.164,179.901
7.4148,128.181875,37.948131,6969.5187000000005,-0.95,0.172,179.899
7.4315,128.181875,37.948084,6969.4574352,-0.978,0.181,179.897
7.4482,128.181875,37.948037,6969.3964752,-1.007,0.191,179.895
7.4649,128.181875,37.947989,6969.3364296,-1.038,0.201,179.893
7.4816,128.181875,37.947942,6969.276384000001,-1.071,0.211,179.89
7.4983,128.181875,37.947894,6969.2172528,-1.105,0.221,179.888
7.515,128.181875,37.947847,6969.1587312,-1.141,0.232,179.885
7.5317,128.181875,37.947799,6969.100514400001,-1.179,0.243,179.883
7.5484,128.181875,37.947752,6969.0429072,-1.219,0.255,179.88
7.5651,128.181875,37.947704,6968.986214400001,-1.261,0.267,179.877
7.5818,128.181875,37.947656,6968.9298264,-1.305,0.28,179.874
7.5985,128.181875,37.947609,6968.874048,-1.351,0.293,179.871
7.6152,128.181875,37.947561,6968.819184000001,-1.4,0.307,179.868
7.6319,128.181875,37.947514,6968.7649296,-1.451,0.321,179.865
7.6486,128.181875,37.947466,6968.7112848,-1.505,0.336,179.861
7.6653,128.181875,37.947418,6968.6585544,-1.563,0.352,179.857
7.682,128.181875,37.947371,6968.606433600001,-1.624,0.369,179.853
7.6987,128.181875,37.947323,6968.5552272,-1.689,0.386,179.849
7.7154,128.181875,37.947276,6968.5046304,-1.758,0.404,179.845
7.7321,128.181875,37.947228,6968.4552527999995,-1.832,0.424,179.84
7.7488,128.181875,37.94718,6968.4064848,-1.91,0.445,179.835
7.7655,128.181875,37.947133,6968.3589360000005,-1.994,0.467,179.829
7.7822,128.181875,37.947085,6968.312301600001,-2.083,0.49,179.824
7.7989,128.181875,37.947037,6968.2665816,-2.179,0.515,179.817
7.8156,128.181875,37.946989,6968.2220808,-2.281,0.542,179.811
7.8323,128.181875,37.946942,6968.1787992,-2.391,0.571,179.803
7.849,128.181875,37.946894,6968.1367368,-2.509,0.603,179.796
7.8657,128.181875,37.946846,6968.0958936,-2.635,0.637,179.787
7.8824,128.181875,37.946799,6968.0565744000005,-2.769,0.674,179.778
7.8991,128.181875,37.946751,6968.018474400001,-2.91,0.714,179.769
7.9158,128.181875,37.946703,6967.9815935999995,-3.059,0.757,179.759
7.9325,128.181876,37.946655,6967.9465416,-3.215,0.805,179.748
7.9492,128.181876,37.946607,6967.912404000001,-3.295,0.872,179.748
7.9659,128.181876,37.94656,6967.8797904,-3.295,0.974,179.759
7.9826,128.181876,37.946512,6967.848396,-3.219,1.123,179.775
7.9993,128.181876,37.946464,6967.8185256,-3.066,1.331,179.79
8.016,128.181876,37.946416,6967.7907888,-2.833,1.606,179.804
8.0327,128.181876,37.946368,6967.7654904,-2.516,1.955,179.815
8.0494,128.181876,37.946321,6967.7420208,-2.113,2.366,179.825
8.0661,128.181876,37.946273,6967.7209896,-1.617,2.821,179.838
8.0828,128.181876,37.946225,6967.702701600001,-1.029,3.305,179.854
8.0994,128.181876,37.946177,6967.686852000001,-0.351,3.797,179.874
8.1161,128.181876,37.946129,6967.674355200001,0.412,4.277,179.899
8.1329,128.181877,37.946081,6967.6661256,1.255,4.726,179.929
8.1496,128.181877,37.946033,6967.6633824,2.156,5.141,179.963
8.1663,128.181877,37.945985,6967.6664304,3.091,5.522,179.999
8.183,128.181877,37.945937,6967.675879200001,4.037,5.872,180.037
8.1997,128.181877,37.945889,6967.6926432,4.863,6.198,180.058
8.2164,128.181877,37.945842,6967.717332,5.575,6.502,180.064
8.2331,128.181877,37.945794,6967.7505552,6.166,6.786,180.061
8.2498,128.181877,37.945746,6967.7926176,6.635,7.053,180.056
8.2665,128.181877,37.945698,6967.844433600001,6.981,7.303,180.051
8.2831,128.181877,37.94565,6967.9060032,7.21,7.539,180.048
8.2998,128.181877,37.945602,6967.9785456,7.325,7.763,180.047
8.3166,128.181877,37.945554,6968.061756000001,7.333,7.977,180.047
8.3333,128.181877,37.945506,6968.1565488,7.238,8.181,180.048
8.35,128.181877,37.945459,6968.2632288,7.046,8.377,180.05
8.3667,128.181877,37.945411,6968.3824056,6.761,8.566,180.051
8.3834,128.181877,37.945363,6968.514079200001,6.387,8.749,180.052
8.4001,128.181877,37.945315,6968.658859200001,5.928,8.927,180.051
8.4168,128.181876,37.945267,6968.817050400001,5.388,9.1,180.049
8.4335,128.181876,37.94522,6968.9886528,4.769,9.269,180.045
8.4502,128.181876,37.945172,6969.1736664,4.075,9.434,180.039
8.4668,128.181876,37.945124,6969.372091200001,3.309,9.596,180.031
8.4835,128.181876,37.945077,6969.5839272,2.472,9.755,180.02
8.5003,128.181876,37.945029,6969.809479200001,1.567,9.911,180.005
8.517,128.181875,37.944981,6970.048137600001,0.597,10.064,179.987
8.5337,128.181875,37.944934,6970.300512,-0.436,10.215,179.966
8.5504,128.181875,37.944886,6970.566297600001,-1.532,10.364,179.941
8.5671,128.181875,37.944838,6970.8454944000005,-2.688,10.511,179.912
8.5838,128.181875,37.944791,6971.137188000001,-3.726,10.657,179.9
8.6005,128.181874,37.944743,6971.441378400001,-4.652,10.803,179.905
8.6172,128.181874,37.944696,6971.7571512,-5.458,10.949,179.92
8.6339,128.181874,37.944648,6972.084811200001,-6.141,11.094,179.937
8.6505,128.181874,37.944601,6972.4240536,-6.702,11.238,179.954
8.6672,128.181874,37.944554,6972.773964000001,-7.143,11.381,179.968
8.684,128.181874,37.944506,6973.134542400001,-7.469,11.523,179.979
8.7007,128.181874,37.944459,6973.5051792,-7.683,11.665,179.987
8.7174,128.181874,37.944411,6973.886179200001,-7.791,11.805,179.992
8.7341,128.181874,37.944364,6974.2766280000005,-7.798,11.945,179.995
8.7508,128.181874,37.944317,6974.6762208,-7.707,12.083,179.997
8.7675,128.181874,37.944269,6975.0852624,-7.524,12.219,179.998
8.7842,128.181874,37.944222,6975.502838400001,-7.252,12.354,179.998
8.8009,128.181874,37.944175,6975.928644,-6.894,12.487,179.999
8.8176,128.181874,37.944128,6976.362984000001,-6.455,12.617,180.0
8.8342,128.181874,37.94408,6976.804944,-5.937,12.746,180.002
8.8509,128.181874,37.944033,6977.254828800001,-5.344,12.871,180.006
8.8676,128.181874,37.943986,6977.711724000001,-4.677,12.993,180.012
8.8844,128.181874,37.943939,6978.1768488,-3.94,13.113,180.019
8.9011,128.181874,37.943891,6978.6495936,-3.134,13.229,180.03
8.9178,128.181874,37.943844,6979.1299584,-2.263,13.342,180.043
8.9345,128.181874,37.943797,6979.6185528,-1.328,13.452,180.058
8.9512,128.181874,37.94375,6980.1147672,-0.331,13.56,180.077
8.9679,128.181875,37.943703,6980.618906400001,0.726,13.664,180.1
8.9846,128.181875,37.943656,6981.1309704000005,1.842,13.765,180.126
9.0013,128.181875,37.943608,6981.6509592,3.016,13.863,180.155
9.0179,128.181875,37.943561,6982.1782632,4.246,13.946,180.188
9.0346,128.181875,37.943514,6982.714711200001,5.36,14.028,180.203
9.0513,128.181875,37.943467,6983.2599984,6.362,14.113,180.202
9.0681,128.181875,37.94342,6983.814124800001,7.248,14.202,180.192
9.0848,128.181875,37.943373,6984.3777,8.015,14.294,180.179
9.1015,128.181875,37.943326,6984.950724,8.664,14.388,180.167
9.1182,128.181875,37.943279,6985.533806400001,9.197,14.483,180.156
9.1349,128.181875,37.943232,6986.127252000001,9.617,14.581,180.149
9.1516,128.181875,37.943185,6986.731060800001,9.93,14.68,180.145
9.1683,128.181875,37.943138,6987.345537600001,10.139,14.781,180.143
9.185,128.181875,37.943091,6987.9709872,10.248,14.883,180.145
9.2016,128.181874,37.943045,6988.607714400001,10.263,14.988,180.148
9.2183,128.181874,37.942998,6989.256024,10.187,15.094,180.154
9.235,128.181874,37.942951,6989.915916,10.024,15.201,180.16
9.2518,128.181874,37.942904,6990.5883048000005,9.776,15.311,180.168
9.2685,128.181874,37.942858,6991.2725808000005,9.448,15.422,180.175
9.2852,128.181873,37.942811,6991.9699632,9.042,15.535,180.183
9.3019,128.181873,37.942764,6992.680147200001,8.561,15.649,180.19
9.3186,128.181873,37.942718,6993.403437600001,8.008,15.766,180.197
9.3353,128.181872,37.942671,6994.1395296,7.384,15.883,180.202
9.352,128.181872,37.942625,6994.8884232,6.693,16.002,180.206
9.3687,128.181872,37.942578,6995.650118400001,5.937,16.122,180.208
9.3854,128.181871,37.942532,6996.42492,5.116,16.244,180.208
9.402,128.181871,37.942485,6997.2122184,4.234,16.367,180.205
9.4187,128.181871,37.942439,6998.0123184,3.291,16.49,180.199
9.4355,128.18187,37.942393,6998.825220000001,2.289,16.615,180.19
9.4522,128.18187,37.942346,6999.6506184,1.23,16.74,180.177
9.4689,128.181869,37.9423,7000.4888184,0.115,16.865,180.161
9.4856,128.181869,37.942254,7001.338600800001,-0.882,16.979,180.162
9.5023,128.181868,37.942208,7002.199356000001,-1.766,17.066,180.18
9.519,128.181868,37.942161,7003.0704744,-2.533,17.112,180.208
9.5357,128.181868,37.942115,7003.952260800001,-3.18,17.134,180.242
9.5524,128.181867,37.942069,7004.8438008,-3.707,17.146,180.277
9.5691,128.181867,37.942023,7005.7450944,-4.117,17.163,180.309
9.5857,128.181866,37.941977,7006.6558368000005,-4.415,17.197,180.339
9.6024,128.181866,37.941931,7007.5757232000005,-4.606,17.26,180.364
9.6192,128.181866,37.941885,7008.504144,-4.692,17.352,180.384
9.6359,128.181865,37.941839,7009.4407944,-4.679,17.466,180.401
9.6526,128.181865,37.941793,7010.385979200001,-4.571,17.596,180.416
9.6693,128.181865,37.941747,7011.338479200001,-4.37,17.738,180.429
9.686,128.181864,37.941701,7012.298904,-4.081,17.888,180.441
9.7027,128.181864,37.941656,7013.266644,-3.708,18.042,180.452
9.7194,128.181864,37.94161,7014.2413944,-3.253,18.199,180.464
9.7361,128.181863,37.941564,7015.2228504,-2.719,18.356,180.477
9.7528,128.181863,37.941518,7016.211012,-2.109,18.512,180.491
9.7694,128.181863,37.941472,7017.205574400001,-1.427,18.664,180.508
9.7861,128.181863,37.941427,7018.207147200001,-0.674,18.813,180.526
9.8029,128.181862,37.941381,7019.2154256,0.145,18.958,180.547
9.8196,128.181862,37.941335,7020.230714400001,1.032,19.099,180.571
9.8363,128.181862,37.94129,7021.2530136000005,1.981,19.235,180.598
9.853,128.181861,37.941244,7022.2817136,2.993,19.352,180.628
9.8697,128.181861,37.941198,7023.317119200001,4.064,19.435,180.66
9.8864,128.181861,37.941153,7024.3586208,5.192,19.471,180.691
9.9031,128.18186,37.941107,7025.405608800001,6.375,19.446,180.719
9.9198,128.18186,37.941061,7026.458083200001,7.61,19.346,180.741
9.9365,128.18186,37.941016,7027.5166536,8.728,19.192,180.736
9.9531,128.181859,37.94097,7028.5807104000005,9.733,19.002,180.705
9.9698,128.181859,37.940925,7029.6508632000005,10.624,18.791,180.658
9.9865,128.181859,37.940879,7030.7268072,11.399,18.577,180.602
10.0033,128.181858,37.940834,7031.808542400001,12.06,18.375,180.545
10.02,128.181858,37.940788,7032.8966784,12.61,18.198,180.49
10.0367,128.181857,37.940743,7033.991215200001,13.054,18.059,180.444
10.0534,128.181857,37.940697,7035.0921528,13.395,17.972,180.409
10.0701,128.181856,37.940652,7036.2004056000005,13.638,17.946,180.389
10.0868,128.181856,37.940607,7037.315668800001,13.787,17.984,180.386
10.1035,128.181855,37.940561,7038.438856800001,13.845,18.084,180.398
10.1202,128.181855,37.940516,7039.569969600001,13.814,18.236,180.424
10.1368,128.181854,37.940471,7040.709312,13.697,18.428,180.461
10.1535,128.181853,37.940426,7041.8577984,13.497,18.649,180.505
10.1702,128.181853,37.94038,7043.0154288,13.216,18.889,180.554
10.187,128.181852,37.940335,7044.1828128,12.856,19.142,180.605
10.2037,128.181851,37.94029,7045.3602552,12.421,19.401,180.657
10.2204,128.18185,37.940245,7046.548365600001,11.912,19.66,180.707
10.2371,128.18185,37.9402,7047.7468392,11.333,19.917,180.755
10.2538,128.181849,37.940155,7048.9556760000005,10.685,20.168,180.799
10.2705,128.181848,37.94011,7050.1754856,9.972,20.413,180.839
10.2872,128.181847,37.940065,7051.406268000001,9.196,20.651,180.874
10.3039,128.181846,37.94002,7052.6477184000005,8.358,20.881,180.904
10.3205,128.181845,37.939976,7053.900446400001,7.46,21.104,180.928
10.3372,128.181844,37.939931,7055.164452000001,6.506,21.32,180.947
10.3539,128.181843,37.939886,7056.4397352,5.495,21.529,180.96
10.3707,128.181842,37.939841,7057.726296000001,4.429,21.732,180.967
10.3874,128.181841,37.939797,7059.023524800001,3.482,21.913,180.989
10.4041,128.18184,37.939752,7060.3305072,2.647,22.057,181.025
10.4208,128.18184,37.939708,7061.646938400001,1.929,22.151,181.068
10.4375,128.181839,37.939663,7062.9722088,1.329,22.181,181.112
10.4542,128.181838,37.939619,7064.305404000001,0.846,22.135,181.155
10.4709,128.181837,37.939574,7065.6456096,0.478,22.004,181.195
10.4876,128.181836,37.93953,7066.9925207999995,0.222,21.806,181.233
10.5042,128.181835,37.939485,7068.345832800001,0.074,21.557,181.269
10.5209,128.181834,37.939441,7069.7040216000005,0.029,21.276,181.303
10.5376,128.181833,37.939396,7071.067392000001,0.085,20.979,181.336
10.5544,128.181832,37.939352,7072.434724800001,0.238,20.685,181.367
10.5711,128.181831,37.939308,7073.805715200001,0.486,20.405,181.398
10.5878,128.18183,37.939263,7075.1794488000005,0.824,20.143,181.427
10.6045,128.181829,37.939219,7076.555316,1.251,19.899,181.456
10.6212,128.181828,37.939175,7077.9330119999995,1.764,19.671,181.483
10.6379,128.181827,37.939131,7079.3116224000005,2.36,19.458,181.508
10.6546,128.181826,37.939086,7080.6908424,3.036,19.26,181.533
10.6713,128.181825,37.939042,7082.0700624,3.791,19.075,181.556
10.6879,128.181824,37.938998,7083.449587200001,4.621,18.904,181.577
10.7046,128.181823,37.938953,7084.829112,5.524,18.747,181.598
10.7213,128.181822,37.938909,7086.208332,6.498,18.603,181.617
10.7381,128.181821,37.938865,7087.587247200001,7.541,18.472,181.635
10.7548,128.18182,37.93882,7088.9658576,8.651,18.354,181.653
10.7715,128.181819,37.938776,7090.3441632,9.825,18.249,181.67
10.7882,128.181818,37.938732,7091.7215544,11.062,18.157,181.688
10.8049,128.181817,37.938688,7093.0986408,12.359,18.078,181.706
10.8216,128.181816,37.938643,7094.4748128,13.716,18.011,181.725
10.8383,128.181814,37.938599,7095.85068,15.129,17.958,181.746
10.855,128.181813,37.938555,7097.226547200001,16.414,17.937,181.752
10.8717,128.181812,37.93851,7098.602719200001,17.576,17.961,181.748
10.8883,128.181811,37.938466,7099.980415200001,18.614,18.038,181.747
10.905,128.18181,37.938422,7101.35994,19.524,18.174,181.76
10.9218,128.181809,37.938377,7102.7419032,20.31,18.377,181.795
10.9385,128.181808,37.938333,7104.127219200001,20.974,18.645,181.858
10.9552,128.181807,37.938289,7105.515888000001,21.519,18.968,181.946
10.9719,128.181805,37.938245,7106.909128800001,21.95,19.332,182.056
10.9886,128.181804,37.938201,7108.306941600001,22.269,19.726,182.184
11.0053,128.181803,37.938157,7109.710545600001,22.481,20.134,182.322
11.022,128.181802,37.938112,7111.1199408,22.587,20.543,182.466
11.0387,128.1818,37.938068,7112.5357368,22.591,20.938,182.606
11.0554,128.181799,37.938024,7113.958848,22.497,21.314,182.742
11.072,128.181797,37.93798,7115.389579200001,22.308,21.67,182.871
11.0887,128.181796,37.937936,7116.82854,22.028,22.008,182.992
11.1054,128.181794,37.937892,7118.27634,21.663,22.329,183.106
11.1222,128.181793,37.937848,7119.733284000001,21.216,22.633,183.213
11.1389,128.181791,37.937804,7121.199981600001,20.691,22.922,183.311
11.1556,128.181789,37.937761,7122.676128000001,20.091,23.197,183.402
11.1723,128.181787,37.937717,7124.161723200001,19.419,23.46,183.485
11.189,128.181786,37.937673,7125.6573768,18.679,23.712,183.561
11.2057,128.181784,37.93763,7127.1630888,17.873,23.954,183.628
11.2224,128.181782,37.937586,7128.679164,17.003,24.187,183.689
11.2391,128.18178,37.937542,7130.2052976,16.071,24.413,183.742
11.2557,128.181778,37.937499,7131.7420992,15.08,24.631,183.788
11.2724,128.181776,37.937455,7133.289264,14.031,24.844,183.827
11.2891,128.181774,37.937412,7134.847096800001,12.925,25.051,183.858
11.3059,128.181772,37.937369,7136.4159024,11.765,25.253,183.883
11.3226,128.18177,37.937325,7137.9944616,10.717,25.432,183.919
11.3393,128.181767,37.937282,7139.582469600001,9.777,25.576,183.964
11.356,128.181765,37.937239,7141.1796216,8.947,25.671,184.009
11.3727,128.181763,37.937196,7142.7850032,8.226,25.707,184.048
11.3894,128.181761,37.937152,7144.3980048,7.613,25.67,184.077
11.4061,128.181759,37.937109,7146.0180168,7.107,25.563,184.093
11.4228,128.181757,37.937066,7147.6447344,6.706,25.403,184.101
11.4394,128.181754,37.937023,7149.2772432,6.406,25.205,184.103
11.4561,128.181752,37.93698,7150.915238400001,6.205,24.987,184.1
11.4728,128.18175,37.936937,7152.558415200001,6.1,24.763,184.096
11.4896,128.181747,37.936894,7154.2055544,6.089,24.541,184.091
11.5063,128.181745,37.936851,7155.856656000001,6.167,24.326,184.087
11.523,128.181743,37.936808,7157.510805600001,6.333,24.119,184.083
11.5397,128.181741,37.936766,7159.1676984,6.584,23.921,184.08
11.5564,128.181738,37.936723,7160.826724800001,6.916,23.732,184.077
11.5731,128.181736,37.93668,7162.486970400001,7.329,23.553,184.075
11.5898,128.181734,37.936637,7164.1487400000005,7.819,23.385,184.073
11.6065,128.181731,37.936594,7165.810814400001,8.383,23.227,184.072
11.6231,128.181729,37.936551,7167.4738032000005,9.02,23.079,184.071
11.6398,128.181727,37.936508,7169.137401600001,9.728,22.941,184.071
11.6565,128.181724,37.936465,7170.8013048,10.503,22.814,184.072
11.6733,128.181722,37.936422,7172.4658176,11.345,22.696,184.073
11.69,128.18172,37.93638,7174.1303304,12.252,22.589,184.075
11.7067,128.181717,37.936337,7175.795148,13.221,22.493,184.078
11.7234,128.181715,37.936294,7177.460270400001,14.252,22.406,184.083
11.7401,128.181712,37.936251,7179.125088000001,15.341,22.33,184.089
11.7568,128.18171,37.936208,7180.789905600001,16.489,22.263,184.097
11.7735,128.181707,37.936165,7182.455028,17.692,22.207,184.107
11.7902,128.181705,37.936122,7184.1198456,18.951,22.162,184.12
11.8068,128.181703,37.93608,7185.7843584,20.263,22.126,184.136
11.8235,128.1817,37.936037,7187.449176,21.627,22.099,184.156
11.8402,128.181698,37.935994,7189.1142984,22.865,22.104,184.165
11.857,128.181695,37.935951,7190.78064,23.984,22.149,184.169
11.8737,128.181693,37.935908,7192.4482008,24.983,22.243,184.18
11.8904,128.18169,37.935865,7194.118200000001,25.862,22.389,184.212
11.9071,128.181687,37.935823,7195.791247200001,26.624,22.594,184.271
11.9238,128.181685,37.93578,7197.4670376,27.271,22.851,184.361
11.9405,128.181682,37.935737,7199.1467904,27.805,23.148,184.477
11.9572,128.181679,37.935694,7200.830810400001,28.229,23.474,184.614
11.9739,128.181677,37.935652,7202.5194024,28.545,23.818,184.766
11.9905,128.181674,37.935609,7204.213176,28.755,24.166,184.927
12.0072,128.181671,37.935567,7205.9127408,28.863,24.511,185.09
12.0239,128.181668,37.935524,7207.618401600001,28.871,24.849,185.252
12.0407,128.181665,37.935481,7209.331072800001,28.784,25.176,185.411
12.0574,128.181662,37.935439,7211.0504496,28.604,25.491,185.566
12.0741,128.181659,37.935396,7212.7774464,28.337,25.794,185.715
12.0908,128.181656,37.935354,7214.5126728000005,27.987,26.085,185.856
12.1075,128.181653,37.935312,7216.256128800001,27.556,26.364,185.991
12.1242,128.18165,37.935269,7218.0087288,27.048,26.632,186.117
12.1409,128.181646,37.935227,7219.7695584,26.467,26.89,186.236
12.1576,128.181643,37.935185,7221.5392272,25.816,27.138,186.347
12.1743,128.181639,37.935143,7223.3183448,25.096,27.379,186.45
12.1909,128.181636,37.935101,7225.106301600001,24.311,27.611,186.546
12.2076,128.181632,37.935059,7226.9037072,23.464,27.837,186.633
12.2243,128.181629,37.935017,7228.7105616,22.555,28.057,186.713
12.2411,128.181625,37.934975,7230.526864800001,21.587,28.271,186.786
12.2578,128.181621,37.934933,7232.3529216,20.562,28.481,186.851
12.2745,128.181617,37.934891,7234.1887320000005,19.481,28.687,186.908
12.2912,128.181614,37.93485,7236.034296000001,18.346,28.889,186.957
12.3079,128.18161,37.934808,7237.8893088,17.317,29.069,187.016
12.3246,128.181606,37.934766,7239.753160800001,16.389,29.214,187.08
12.3413,128.181602,37.934725,7241.625547200001,15.563,29.313,187.139
12.358,128.181598,37.934683,7243.5052488,14.837,29.355,187.185
12.3746,128.181594,37.934642,7245.3922656,14.21,29.33,187.212
12.3913,128.18159,37.9346,7247.2859880000005,13.681,29.247,187.221
12.408,128.181586,37.934559,7249.186111200001,13.25,29.121,187.217
12.4248,128.181582,37.934518,7251.0917208,12.914,28.968,187.204
12.4415,128.181578,37.934476,7253.0028168,12.674,28.801,187.186
12.4582,128.181573,37.934435,7254.9187896,12.525,28.628,187.165
12.4749,128.181569,37.934394,7256.838724800001,12.467,28.455,187.144
12.4916,128.181565,37.934353,7258.7626224000005,12.495,28.285,187.123
12.5083,128.181561,37.934311,7260.689872800001,12.608,28.119,187.102
12.525,128.181557,37.93427,7262.6198664,12.802,27.96,187.083
12.5417,128.181553,37.934229,7264.5519936,13.077,27.807,187.065
12.5583,128.181548,37.934188,7266.4859496,13.428,27.662,187.048
12.575,128.181544,37.934147,7268.4214296,13.856,27.525,187.033
12.5917,128.18154,37.934106,7270.357824000001,14.356,27.397,187.02
12.6085,128.181536,37.934064,7272.295742400001,14.928,27.276,187.008
12.6252,128.181531,37.934023,7274.2345752,15.569,27.164,186.999
12.6419,128.181527,37.933982,7276.1743224,16.278,27.06,186.991
12.6586,128.181523,37.933941,7278.114679200001,17.053,26.964,186.985
12.6753,128.181519,37.9339,7280.0559504,17.891,26.877,186.982
12.692,128.181514,37.933859,7281.9978312,18.791,26.798,186.98
12.7087,128.18151,37.933818,7283.9403216,19.752,26.727,186.982
12.7254,128.181506,37.933777,7285.8831168,20.773,26.665,186.986
12.742,128.181501,37.933736,7287.8265216,21.851,26.611,186.993
12.7587,128.181497,37.933695,7289.770536,22.986,26.565,187.003
12.7754,128.181492,37.933653,7291.714855200001,24.176,26.527,187.017
12.7922,128.181488,37.933612,7293.6594792000005,25.421,26.497,187.035
12.8089,128.181484,37.933571,7295.604408,26.718,26.474,187.058
12.8256,128.181479,37.93353,7297.5502512,27.898,26.481,187.072
12.8423,128.181475,37.933489,7299.497313600001,28.968,26.526,187.084
12.859,128.18147,37.933448,7301.4462048000005,29.928,26.616,187.107
12.8757,128.181466,37.933407,7303.3972296,30.779,26.753,187.153
12.8924,128.181461,37.933366,7305.351302399999,31.526,26.944,187.232
12.9091,128.181456,37.933325,7307.3084232,32.168,27.179,187.341
12.9257,128.181452,37.933285,7309.269201600001,32.707,27.446,187.477
12.9424,128.181447,37.933244,7311.233942400001,33.144,27.735,187.633
12.9591,128.181442,37.933203,7313.203255200001,33.48,28.038,187.805
12.9759,128.181437,37.933162,7315.17714,33.717,28.344,187.985
12.9926,128.181433,37.933121,7317.156816,33.857,28.651,188.169
13.0093,128.181428,37.933081,7319.141978400001,33.904,28.952,188.354
13.026,128.181423,37.93304,7321.1332368,33.86,29.246,188.538
13.0427,128.181418,37.932999,7323.130896000001,33.729,29.532,188.718
13.0594,128.181412,37.932959,7325.1355656000005,33.515,29.809,188.893
13.0761,128.181407,37.932918,7327.147550400001,33.22,30.076,189.062
13.0928,128.181402,37.932878,7329.167460000001,32.849,30.334,189.224
13.1095,128.181397,37.932837,7331.1952944,32.404,30.584,189.379
13.1262,128.181391,37.932797,7333.2307488,31.888,30.825,189.526
13.1429,128.181386,37.932757,7335.274432800001,31.303,31.059,189.666
13.1596,128.18138,37.932717,7337.326651200001,30.653,31.287,189.799
13.1763,128.181374,37.932676,7339.3867944,29.94,31.508,189.923
13.193,128.181369,37.932636,7341.4557768,29.165,31.724,190.04
13.2097,128.181363,37.932596,7343.5329888,28.331,31.936,190.15
13.2264,128.181357,37.932556,7345.6193448,27.439,32.143,190.252
13.2431,128.181351,37.932517,7347.7142352,26.492,32.347,190.346
13.2598,128.181345,37.932477,7349.8179648000005,25.49,32.548,190.433
13.2765,128.181339,37.932437,7351.9308384000005,24.435,32.746,190.512
13.2932,128.181333,37.932397,7354.053160800001,23.328,32.942,190.583
13.3099,128.181327,37.932358,7356.1843224,22.17,33.137,190.647
13.3266,128.181321,37.932318,7358.325237600001,20.962,33.33,190.703
13.3433,128.181315,37.932279,7360.4752968,19.706,33.521,190.751
13.36,128.181308,37.932239,7362.6348048,18.401,33.712,190.791
13.3767,128.181302,37.9322,7364.8040664,17.05,33.902,190.823
13.3934,128.181296,37.932161,7366.9830816,15.651,34.092,190.847
13.4101,128.181289,37.932122,7369.1718504,14.207,34.281,190.862
13.4268,128.181283,37.932083,7371.3703728,12.717,34.471,190.869
13.4435,128.181276,37.932044,7373.5786488,11.182,34.66,190.866
13.4602,128.18127,37.932005,7375.796983200001,9.602,34.849,190.855
13.4769,128.181263,37.931966,7378.0250712,7.978,35.039,190.835
13.4936,128.181257,37.931927,7380.263217600001,6.309,35.229,190.805
13.5103,128.18125,37.931888,7382.5111176,4.597,35.419,190.765
13.527,128.181244,37.93185,7384.7687712,2.84,35.61,190.715
13.5437,128.181237,37.931811,7387.036788,1.039,35.8,190.654
13.5604,128.181231,37.931772,7389.3142536000005,-0.805,35.991,190.582
13.5771,128.181225,37.931734,7391.601777600001,-2.693,36.182,190.5
13.5938,128.181218,37.931696,7393.898750400001,-4.627,36.372,190.405
13.6105,128.181212,37.931657,7396.2054768,-6.604,36.562,190.299
13.6272,128.181205,37.931619,7398.521956800001,-8.626,36.752,190.181
13.6439,128.181199,37.931581,7400.8475808,-10.693,36.941,190.05
13.6606,128.181192,37.931543,7403.1826536,-12.805,37.128,189.906
13.6773,128.181186,37.931505,7405.526870400001,-14.962,37.314,189.748
13.694,128.18118,37.931467,7407.8802312,-17.165,37.499,189.576
13.7107,128.181174,37.931429,7410.2424312,-19.414,37.681,189.39
13.7274,128.181168,37.931391,7412.613165600001,-21.71,37.86,189.19
13.7441,128.181161,37.931353,7414.9921296,-24.052,38.036,188.974
13.7608,128.181155,37.931316,7417.379628000001,-26.442,38.209,188.744
13.7775,128.181149,37.931278,7419.7750512,-28.88,38.377,188.497
13.7942,128.181144,37.931241,7422.1780944,-31.365,38.54,188.235
13.8109,128.181138,37.931203,7424.5884528,-33.9,38.697,187.956
13.8276,128.181132,37.931166,7427.0058216,-36.484,38.848,187.661
13.8443,128.181126,37.931128,7429.4302008,-39.119,38.991,187.349
13.861,128.181121,37.931091,7431.8609808,-41.803,39.126,187.019
13.8777,128.181115,37.931053,7434.297856800001,-44.539,39.251,186.672
13.8944,128.18111,37.931016,7436.740524000001,-47.324,39.365,186.306
13.9111,128.181105,37.930979,7439.1886776,-50.16,39.466,185.922
13.9278,128.1811,37.930942,7441.641708,-53.046,39.552,185.52
13.9445,128.181095,37.930905,7444.099615200001,-55.981,39.623,185.099
13.9612,128.18109,37.930867,7446.5614848,-58.964,39.676,184.661
13.9779,128.181085,37.93083,7449.027012,-61.996,39.711,184.206
13.9946,128.18108,37.930793,7451.496196800001,-65.074,39.724,183.736
14.0113,128.181076,37.930756,7453.968124800001,-68.199,39.716,183.251
14.028,128.181071,37.930719,7456.442796,-71.367,39.684,182.753
14.0447,128.181067,37.930682,7458.9189912,-74.578,39.627,182.245
14.0614,128.181063,37.930645,7461.3967104,-77.793,39.546,181.73
14.0781,128.181059,37.930608,7463.8747344,-80.954,39.445,181.21
14.0948,128.181055,37.930571,7466.353368,-84.01,39.327,180.688
14.1115,128.181051,37.930534,7468.831696800001,-86.949,39.191,180.167
14.1282,128.181047,37.930498,7471.309416,-89.772,39.039,179.647
14.1449,128.181043,37.930461,7473.7865256,-92.484,38.869,179.131
14.1616,128.18104,37.930424,7476.262416,-95.085,38.683,178.621
14.1783,128.181036,37.930387,7478.7370872,-97.578,38.481,178.118
14.195,128.181033,37.93035,7481.2102343999995,-99.965,38.263,177.625
14.2117,128.181029,37.930313,7483.6818576,-102.248,38.029,177.143
14.2284,128.181026,37.930276,7486.1516520000005,-104.43,37.781,176.674
14.2451,128.181023,37.930239,7488.6196176,-106.511,37.519,176.219
14.2618,128.18102,37.930202,7491.0857544,-108.494,37.243,175.779
14.2785,128.181016,37.930165,7493.5494528,-110.383,36.957,175.355
14.2952,128.181013,37.930128,7496.0110176,-112.18,36.661,174.947
14.3119,128.181011,37.930091,7498.4704488,-113.887,36.356,174.557
14.3286,128.181008,37.930054,7500.927441600001,-115.506,36.043,174.184
14.3453,128.181005,37.930017,7503.382300800001,-117.039,35.724,173.83
14.362,128.181002,37.92998,7505.834112,-118.488,35.398,173.493
14.3787,128.180999,37.929943,7508.2828752,-119.854,35.067,173.176
14.3954,128.180997,37.929906,7510.7288952,-121.139,34.731,172.876
14.4121,128.180994,37.929869,7513.1715624,-122.346,34.392,172.595
14.4288,128.180992,37.929832,7515.6108768,-123.476,34.05,172.332
14.4455,128.180989,37.929795,7518.046228800001,-124.531,33.706,172.086
14.4622,128.180987,37.929758,7520.478228000001,-125.512,33.361,171.858
14.4789,128.180985,37.929721,7522.905960000001,-126.423,33.015,171.646
14.4956,128.180982,37.929684,7525.3297296,-127.265,32.669,171.45
14.5123,128.18098,37.929647,7527.749232,-128.039,32.323,171.27
14.529,128.180978,37.92961,7530.1641624,-128.747,31.979,171.104
14.5457,128.180976,37.929572,7532.5745208,-129.392,31.636,170.951
14.5624,128.180974,37.929535,7534.9800024,-129.974,31.295,170.812
14.5791,128.180972,37.929498,7537.3806072,-130.496,30.957,170.685
14.5958,128.18097,37.929461,7539.7760304,-130.959,30.622,170.57
14.6125,128.180969,37.929424,7542.166272,-131.366,30.291,170.465
14.6292,128.180967,37.929386,7544.5510272,-131.717,29.963,170.369
14.6459,128.180965,37.929349,7546.930296,-132.014,29.64,170.282
14.6626,128.180964,37.929312,7549.303773600001,-132.259,29.322,170.203
14.6793,128.180963,37.929275,7551.6714600000005,-132.453,29.009,170.13
14.696,128.180961,37.929237,7554.0330504,-132.598,28.702,170.064
14.7127,128.18096,37.9292,7556.3885448,-132.696,28.401,170.002
14.7294,128.180959,37.929163,7558.7379432,-132.747,28.107,169.945
14.7461,128.180958,37.929125,7561.0812456,-132.753,27.82,169.89
14.7628,128.180957,37.929088,7563.417842400001,-132.716,27.54,169.837
14.7795,128.180956,37.92905,7565.748038400001,-132.637,27.268,169.786
14.7962,128.180955,37.929013,7568.071528800001,-132.517,27.004,169.735
14.8129,128.180954,37.928975,7570.3883136,-132.358,26.748,169.683
14.8296,128.180953,37.928938,7572.698392800001,-132.161,26.502,169.63
14.8463,128.180953,37.9289,7575.0017664,-131.927,26.264,169.576
14.863,128.180952,37.928863,7577.297824800001,-131.659,26.036,169.518
14.8797,128.180952,37.928825,7579.5871776,-131.356,25.817,169.457
14.8964,128.180951,37.928788,7581.869520000001,-131.022,25.609,169.393
14.9131,128.180951,37.92875,7584.144852000001,-130.656,25.411,169.323
14.9298,128.180951,37.928713,7586.413173600001,-130.26,25.224,169.249
14.9465,128.180951,37.928675,7588.67418,-129.836,25.047,169.169
14.9632,128.180951,37.928637,7590.928176,-129.384,24.882,169.083
14.9799,128.180951,37.9286,7593.174856800001,-128.906,24.728,168.991
14.9966,128.180951,37.928562,7595.4145272000005,-128.402,24.587,168.891
15.0133,128.180951,37.928524,7597.6468824,-127.87,24.456,168.786
15.03,128.180951,37.928486,7599.872532,-127.308,24.334,168.676
15.0467,128.180952,37.928449,7602.0911712,-126.711,24.22,168.562
15.0634,128.180952,37.928411,7604.3031048,-126.079,24.113,168.446
15.0801,128.180953,37.928373,7606.508028,-125.409,24.011,168.327
15.0968,128.180953,37.928335,7608.7065504,-124.702,23.915,168.205
15.1135,128.180954,37.928297,7610.8980624000005,-123.957,23.823,168.082
15.1302,128.180955,37.92826,7613.083173600001,-123.174,23.736,167.957
15.1469,128.180956,37.928222,7615.261579200001,-122.354,23.653,167.831
15.1636,128.180957,37.928184,7617.4332792000005,-121.496,23.575,167.703
15.1803,128.180958,37.928146,7619.5988832,-120.601,23.502,167.573
15.197,128.18096,37.928108,7621.7580864,-119.67,23.432,167.441
15.2137,128.180961,37.92807,7623.9111936,-118.703,23.368,167.307
15.2304,128.180962,37.928032,7626.057900000001,-117.7,23.308,167.172
15.2471,128.180964,37.927995,7628.1985104000005,-116.663,23.253,167.036
15.2638,128.180966,37.927957,7630.333024800001,-115.596,23.203,166.897
15.2805,128.180967,37.927919,7632.4614432,-114.504,23.157,166.757
15.2972,128.180969,37.927881,7634.584070400001,-113.391,23.115,166.616
15.3139,128.180971,37.927843,7636.700296800001,-112.26,23.077,166.473
15.3306,128.180973,37.927805,7638.811036800001,-111.115,23.044,166.329
15.3473,128.180976,37.927767,7640.915985600001,-109.959,23.015,166.184
15.364,128.180978,37.927729,7643.0151432,-108.792,22.99,166.037
15.3807,128.18098,37.927691,7645.1091192,-107.617,22.97,165.888
15.3974,128.180983,37.927653,7647.1976088,-106.434,22.955,165.737
15.4141,128.180986,37.927615,7649.2812216,-105.243,22.945,165.585
15.4308,128.180989,37.927577,7651.3599576,-104.043,22.941,165.43
15.4475,128.180991,37.927539,7653.4338168,-102.833,22.942,165.274
15.4642,128.180995,37.927501,7655.503104,-101.609,22.949,165.116
15.4809,128.180998,37.927463,7657.568124,-100.369,22.963,164.955
15.4976,128.181001,37.927425,7659.6291816,-99.107,22.983,164.793
15.5143,128.181004,37.927387,7661.6865816,-97.817,23.011,164.63
15.531,128.181008,37.92735,7663.7400192000005,-96.494,23.046,164.465
