Time,Longitude,Latitude,Altitude,Roll (deg),Pitch (deg),Yaw (deg)
0.0,128.181881,37.923646,7000.146528,0.0,-0.003,0.0
0.0167,128.181881,37.923691,7000.1605488000005,0.0,-0.012,0.0
0.0334,128.181881,37.923736,7000.174264800001,0.0,-0.012,359.999
0.0501,128.181881,37.923781,7000.1876760000005,0.0,0.009,359.999
0.0668,128.181881,37.923825,7000.2007824,0.0,0.066,359.999
0.0834,128.181881,37.92387,7000.2144984,0.0,0.172,359.999
0.1002,128.181881,37.923915,7000.229128800001,0.0,0.337,359.999
0.1169,128.181881,37.92396,7000.244978400001,0.0,0.569,359.999
0.1336,128.181881,37.924005,7000.2629615999995,-0.001,0.876,359.999
0.1503,128.181881,37.92405,7000.283383200001,-0.001,1.257,359.999
0.1669,128.181881,37.924095,7000.3068528,-0.001,1.701,359.999
0.1837,128.181881,37.92414,7000.333370400001,-0.001,2.196,359.999
0.2004,128.181881,37.924185,7000.3635456,-0.002,2.727,359.999
0.2171,128.181881,37.924229,7000.3982928000005,-0.002,3.277,359.999
0.2338,128.181881,37.924274,7000.437612,-0.002,3.83,359.999
0.2505,128.181881,37.924319,7000.4821128,-0.003,4.369,359.999
0.2672,128.181881,37.924364,7000.5321,-0.003,4.878,359.999
0.2839,128.181881,37.924409,7000.5881832000005,-0.004,5.355,359.999
0.3006,128.181881,37.924453,7000.650972,-0.004,5.801,359.999
0.3172,128.181881,37.924498,7000.7201616,-0.005,6.218,359.999
0.3339,128.181881,37.924543,7000.7966664,-0.005,6.61,359.999
0.3507,128.181881,37.924588,7000.8807912,-0.006,6.977,359.999
0.3674,128.181881,37.924632,7000.972536,-0.007,7.323,359.999
0.3841,128.181881,37.924677,7001.0722056,-0.008,7.65,359.999
0.4008,128.181881,37.924722,7001.180104800001,-0.008,7.958,359.999
0.4175,128.181881,37.924767,7001.296233600001,-0.009,8.25,359.999
0.4342,128.181881,37.924811,7001.421201600001,-0.01,8.528,359.999
0.4509,128.181881,37.924856,7001.5550088,-0.011,8.792,359.998
0.4676,128.181881,37.924901,7001.697350400001,-0.012,9.044,359.998
0.4843,128.181881,37.924945,7001.848836,-0.014,9.285,359.998
0.501,128.181881,37.92499,7002.009465600001,-0.015,9.516,359.998
0.5176,128.181881,37.925034,7002.179544,-0.016,9.738,359.998
0.5344,128.181881,37.925079,7002.3587664,-0.018,9.952,359.998
0.5511,128.181881,37.925123,7002.5471328,-0.02,10.159,359.998
0.5678,128.181881,37.925168,7002.7452528,-0.022,10.36,359.998
0.5845,128.181881,37.925212,7002.9531264,-0.024,10.554,359.997
0.6012,128.181881,37.925257,7003.1704488000005,-0.026,10.744,359.997
0.6179,128.181881,37.925301,7003.397220000001,-0.028,10.928,359.997
0.6345,128.181881,37.925346,7003.6340496,-0.031,11.108,359.997
0.6513,128.181881,37.92539,7003.880328,-0.034,11.285,359.996
0.6679,128.181881,37.925434,7004.1366648,-0.037,11.457,359.996
0.6847,128.181881,37.925479,7004.402755200001,-0.04,11.627,359.996
0.7014,128.181881,37.925523,7004.6785992000005,-0.043,11.794,359.995
0.7181,128.181881,37.925567,7004.9645016,-0.047,11.958,359.995
0.7348,128.181881,37.925611,7005.2604624000005,-0.052,12.12,359.995
0.7514,128.181881,37.925656,7005.5661768,-0.056,12.28,359.994
0.7682,128.181881,37.9257,7005.881949600001,-0.061,12.439,359.994
0.7848,128.181881,37.925744,7006.2074760000005,-0.067,12.595,359.993
0.8016,128.181881,37.925788,7006.5433656000005,-0.072,12.75,359.993
0.8183,128.181881,37.925832,7006.8890088,-0.079,12.904,359.992
0.835,128.181881,37.925876,7007.2447104,-0.086,13.057,359.991
0.8517,128.181881,37.92592,7007.6107752,-0.093,13.208,359.99
0.8684,128.181881,37.925964,7007.9865936,-0.101,13.359,359.99
0.8851,128.181881,37.926008,7008.372470400001,-0.11,13.509,359.989
0.9018,128.181881,37.926052,7008.768710400001,-0.12,13.658,359.988
0.9185,128.181881,37.926096,7009.174704,-0.13,13.807,359.987
0.9352,128.181881,37.92614,7009.5910608,-0.142,13.955,359.985
0.9519,128.181881,37.926184,7010.017476,-0.154,14.102,359.984
0.9686,128.181881,37.926227,7010.453949600001,-0.167,14.249,359.983
0.9853,128.181881,37.926271,7010.900481600001,-0.182,14.396,359.981
1.002,128.181881,37.926315,7011.357072,-0.197,14.542,359.979
1.0187,128.181881,37.926358,7011.8240256,-0.214,14.689,359.977
1.0353,128.181881,37.926402,7012.3007328,-0.233,14.835,359.975
1.0521,128.181881,37.926446,7012.788108,-0.253,14.981,359.973
1.0688,128.181881,37.926489,7013.2852368,-0.275,15.126,359.971
1.0855,128.181881,37.926533,7013.792728800001,-0.298,15.272,359.968
1.1022,128.181881,37.926576,7014.310279200001,-0.324,15.418,359.965
1.1189,128.181881,37.92662,7014.837888000001,-0.352,15.563,359.962
1.1356,128.181881,37.926663,7015.375860000001,-0.382,15.709,359.959
1.1522,128.181881,37.926707,7015.9238904,-0.415,15.855,359.955
1.169,128.181881,37.92675,7016.482284000001,-0.451,16.0,359.951
1.1857,128.181881,37.926793,7017.050736,-0.49,16.146,359.947
1.2024,128.181881,37.926837,7017.629551200001,-0.532,16.292,359.942
1.2191,128.181881,37.92688,7018.218424800001,-0.577,16.438,359.937
1.2358,128.181881,37.926923,7018.8176616,-0.627,16.584,359.931
1.2525,128.181881,37.926966,7019.4272616,-0.68,16.731,359.925
1.2691,128.181881,37.927009,7020.046920000001,-0.739,16.877,359.919
1.2859,128.181881,37.927053,7020.676941600001,-0.802,17.024,359.911
1.3026,128.181881,37.927096,7021.3173264,-0.871,17.171,359.904
1.3193,128.181881,37.927139,7021.968074400001,-0.946,17.318,359.895
1.3359,128.181881,37.927182,7022.6291856,-1.027,17.466,359.886
1.3527,128.181881,37.927225,7023.300660000001,-1.114,17.613,359.876
1.3694,128.181881,37.927267,7023.982497600001,-1.21,17.761,359.864
1.386,128.181881,37.92731,7024.6746984,-1.313,17.909,359.852
1.4028,128.181881,37.927353,7025.3772624,-1.426,18.058,359.839
1.4195,128.181881,37.927396,7026.0907992,-1.548,18.207,359.825
1.4362,128.181881,37.927439,7026.8143944,-1.68,18.356,359.81
1.4528,128.18188,37.927481,7027.5489624,-1.824,18.506,359.793
1.4696,128.18188,37.927524,7028.2938936,-1.98,18.656,359.774
1.4863,128.18188,37.927567,7029.049797600001,-2.149,18.806,359.754
1.5029,128.18188,37.927609,7029.816369600001,-2.333,18.957,359.733
1.5197,128.18188,37.927652,7030.5936096000005,-2.534,19.108,359.71
1.5364,128.18188,37.927694,7031.381822400001,-2.752,19.26,359.686
1.5531,128.18188,37.927737,7032.1810080000005,-2.989,19.412,359.66
1.5697,128.18188,37.927779,7032.9911664,-3.247,19.565,359.633
1.5865,128.18188,37.927821,7033.812297600001,-3.527,19.718,359.603
1.6032,128.18188,37.927864,7034.645011200001,-3.831,19.871,359.572
1.6198,128.18188,37.927906,7035.488697600001,-4.162,20.026,359.538
1.6366,128.18188,37.927948,7036.3439664,-4.521,20.18,359.502
1.6533,128.181879,37.92799,7037.2108176,-4.912,20.336,359.464
1.67,128.181879,37.928032,7038.089251200001,-5.336,20.491,359.422
1.6867,128.181879,37.928074,7038.979572,-5.796,20.648,359.378
1.7034,128.181879,37.928116,7039.88178,-6.296,20.805,359.33
1.7201,128.181879,37.928158,7040.79618,-6.839,20.962,359.278
1.7368,128.181879,37.9282,7041.722772,-7.428,21.12,359.222
1.7535,128.181878,37.928242,7042.661860800001,-8.068,21.279,359.162
1.7702,128.181878,37.928284,7043.6137512000005,-8.763,21.438,359.097
1.7869,128.181878,37.928325,7044.5784432,-9.517,21.597,359.026
1.8036,128.181877,37.928367,7045.5559368,-10.332,21.757,358.95
1.8203,128.181877,37.928408,7046.5456224,-11.207,21.917,358.868
1.837,128.181877,37.92845,7047.5478048,-12.14,22.078,358.781
1.8537,128.181876,37.928491,7048.5627888,-13.13,22.239,358.689
1.8704,128.181876,37.928533,7049.589660000001,-14.177,22.4,358.591
1.8871,128.181875,37.928574,7050.6287232,-15.279,22.561,358.486
1.9038,128.181875,37.928616,7051.6802832,-16.435,22.721,358.376
1.9205,128.181874,37.928657,7052.7434256,-17.645,22.881,358.258
1.9372,128.181874,37.928698,7053.8184552,-18.907,23.041,358.134
1.9539,128.181873,37.928739,7054.905372,-20.22,23.199,358.002
1.9706,128.181872,37.92878,7056.0035664,-21.584,23.356,357.863
1.9873,128.181871,37.928821,7057.1133432,-22.997,23.511,357.716
2.004,128.181871,37.928862,7058.234092800001,-24.46,23.665,357.56
2.0207,128.18187,37.928903,7059.366120000001,-25.971,23.816,357.396
2.0374,128.181869,37.928944,7060.508815200001,-27.531,23.964,357.223
2.0541,128.181868,37.928984,7061.662483200001,-29.138,24.11,357.042
2.0707,128.181866,37.929025,7062.826209600001,-30.793,24.252,356.851
2.0875,128.181865,37.929066,7063.9999944,-32.494,24.391,356.652
2.1042,128.181864,37.929106,7065.1838376000005,-34.242,24.525,356.444
2.1208,128.181862,37.929147,7066.3771295999995,-36.036,24.654,356.226
2.1376,128.181861,37.929187,7067.579870400001,-37.876,24.779,355.999
2.1543,128.181859,37.929228,7068.7914504,-39.761,24.897,355.762
2.171,128.181858,37.929268,7070.011869600001,-41.692,25.01,355.516
2.1877,128.181856,37.929308,7071.240518400001,-43.668,25.116,355.26
2.2044,128.181854,37.929348,7072.477396800001,-45.688,25.214,354.995
2.2211,128.181852,37.929389,7073.7215904,-47.753,25.305,354.72
2.2378,128.18185,37.929429,7074.9730992,-49.863,25.388,354.435
2.2544,128.181847,37.929469,7076.2316184,-52.017,25.46,354.14
2.2712,128.181845,37.929509,7077.496538400001,-54.214,25.522,353.834
2.2879,128.181843,37.929549,7078.7672496000005,-56.455,25.571,353.517
2.3045,128.18184,37.929589,7080.0437520000005,-58.738,25.607,353.189
2.3213,128.181837,37.929629,7081.325436,-61.063,25.628,352.85
2.338,128.181834,37.929668,7082.6119968,-63.431,25.632,352.5
2.3546,128.181831,37.929708,7083.902520000001,-65.839,25.62,352.14
2.3714,128.181828,37.929748,7085.197005600001,-68.288,25.588,351.77
2.3881,128.181825,37.929787,7086.4945392,-70.777,25.536,351.391
2.4048,128.181821,37.929827,7087.794816,-73.305,25.463,351.004
2.4215,128.181818,37.929867,7089.0975312,-75.872,25.367,350.61
2.4382,128.181814,37.929906,7090.401770400001,-78.475,25.248,350.21
2.4549,128.18181,37.929946,7091.707228800001,-81.116,25.104,349.806
2.4716,128.181806,37.929985,7093.012992000001,-83.791,24.934,349.4
2.4882,128.181802,37.930024,7094.319364800001,-86.501,24.738,348.993
2.505,128.181798,37.930064,7095.624823200001,-89.244,24.515,348.587
2.5217,128.181793,37.930103,7096.929672,-92.018,24.265,348.184
2.5383,128.181789,37.930142,7098.2326920000005,-94.824,23.987,347.786
2.5551,128.181784,37.930182,7099.533578400001,-97.658,23.681,347.396
2.5718,128.181779,37.930221,7100.8317216000005,-100.521,23.348,347.016
2.5884,128.181774,37.93026,7102.126512,-103.41,22.987,346.648
2.6052,128.181769,37.930299,7103.41734,-106.325,22.6,346.293
2.6219,128.181764,37.930338,7104.704205600001,-109.265,22.186,345.955
2.6386,128.181759,37.930378,7105.9855848,-112.227,21.747,345.634
2.6553,128.181753,37.930417,7107.261782400001,-115.212,21.284,345.334
2.6719,128.181747,37.930456,7108.531884000001,-118.218,20.798,345.056
2.6887,128.181742,37.930495,7109.79528,-121.244,20.291,344.802
2.7054,128.181736,37.930534,7111.051360800001,-124.29,19.763,344.572
2.722,128.18173,37.930573,7112.3001264,-127.354,19.218,344.369
2.7388,128.181724,37.930612,7113.5403576,-130.437,18.657,344.194
2.7555,128.181717,37.930651,7114.7723592,-133.537,18.082,344.048
2.7721,128.181711,37.93069,7115.994912,-136.652,17.495,343.931
2.7889,128.181705,37.930729,7117.2083207999995,-139.78,16.899,343.844
2.8056,128.181698,37.930768,7118.411976,-142.919,16.296,343.787
2.8222,128.181692,37.930807,7119.6055728,-146.067,15.688,343.761
2.839,128.181685,37.930846,7120.788806400001,-149.223,15.078,343.764
2.8557,128.181678,37.930885,7121.9616768000005,-152.35,14.47,343.793
2.8724,128.181671,37.930924,7123.1244888,-155.405,13.866,343.844
2.8891,128.181664,37.930962,7124.2772424,-158.355,13.271,343.913
2.9057,128.181657,37.931001,7125.4202424000005,-161.183,12.685,343.997
2.9225,128.18165,37.93104,7126.553184000001,-163.894,12.11,344.094
2.9392,128.181643,37.931079,7127.676676800001,-166.492,11.547,344.203
2.9558,128.181636,37.931118,7128.7907208,-168.979,10.997,344.324
2.9726,128.181629,37.931157,7129.8956208,-171.361,10.458,344.454
2.9893,128.181622,37.931196,7130.9916816,-173.639,9.933,344.592
3.0059,128.181615,37.931235,7132.0789032,-175.817,9.419,344.739
3.0227,128.181608,37.931274,7133.1578952,-177.898,8.919,344.892
3.0394,128.181601,37.931313,7134.2289624000005,-179.885,8.431,345.052
3.056,128.181593,37.931352,7135.292104800001,178.219,7.955,345.216
3.0728,128.181586,37.931391,7136.347627200001,176.412,7.491,345.386
3.0895,128.181579,37.93143,7137.3955295999995,174.692,7.039,345.559
3.1062,128.181572,37.931469,7138.4367264,173.055,6.598,345.736
3.1229,128.181565,37.931508,7139.4712176,171.499,6.169,345.916
3.1395,128.181557,37.931547,7140.497784000001,170.022,5.751,346.098
3.1563,128.18155,37.931586,7141.5167304,168.618,5.344,346.281
3.173,128.181543,37.931625,7142.528056800001,167.288,4.947,346.464
3.1896,128.181536,37.931664,7143.531763200001,166.029,4.559,346.648
3.2064,128.181528,37.931703,7144.5275448,164.839,4.181,346.833
3.2231,128.181521,37.931742,7145.515096800001,163.716,3.813,347.018
3.2397,128.181514,37.931781,7146.4944192,162.659,3.454,347.204
3.2565,128.181507,37.93182,7147.465512,161.666,3.103,347.389
3.2732,128.181499,37.931859,7148.428070400001,160.737,2.762,347.576
3.2899,128.181492,37.931898,7149.3820944,159.87,2.428,347.763
3.3066,128.181485,37.931937,7150.327279200001,159.066,2.104,347.953
3.3233,128.181478,37.931976,7151.2639296,158.323,1.788,348.144
3.34,128.181471,37.932015,7152.191436,157.641,1.481,348.338
3.3567,128.181463,37.932054,7153.1101032,157.017,1.181,348.534
3.3734,128.181456,37.932094,7154.0193216,156.451,0.89,348.732
3.3901,128.181449,37.932133,7154.919700800001,155.941,0.607,348.931
3.4068,128.181442,37.932172,7155.8106312,155.484,0.331,349.131
3.4235,128.181435,37.932211,7156.6921128,155.081,0.063,349.332
3.4402,128.181428,37.93225,7157.5638408,154.729,-0.198,349.533
3.4569,128.181421,37.932289,7158.426424800001,154.426,-0.453,349.734
3.4736,128.181414,37.932328,7159.2789504,154.173,-0.701,349.934
3.4903,128.181407,37.932367,7160.1220272,153.967,-0.943,350.133
3.507,128.1814,37.932407,7160.955045600001,153.807,-1.18,350.331
3.5237,128.181393,37.932446,7161.778005600001,153.693,-1.411,350.527
3.5404,128.181386,37.932485,7162.5909071999995,153.624,-1.637,350.721
3.5571,128.181379,37.932524,7163.3937504000005,153.598,-1.858,350.912
3.5738,128.181372,37.932563,7164.1862304,153.615,-2.075,351.101
3.5905,128.181365,37.932602,7164.968042400001,153.67,-2.287,351.287
3.6072,128.181358,37.932642,7165.7385768,153.762,-2.496,351.47
3.6239,128.181351,37.932681,7166.498138400001,153.886,-2.702,351.65
3.6406,128.181345,37.93272,7167.246117600001,154.042,-2.904,351.828
3.6573,128.181338,37.932759,7167.982209600001,154.225,-3.104,352.002
3.674,128.181331,37.932798,7168.7067192,154.434,-3.302,352.174
3.6907,128.181324,37.932838,7169.419036800001,154.665,-3.498,352.342
3.7074,128.181318,37.932877,7170.1188576,154.917,-3.692,352.507
3.7241,128.181311,37.932916,7170.8061816,155.188,-3.885,352.668
3.7408,128.181305,37.932955,7171.4807040000005,155.475,-4.076,352.826
3.7575,128.181298,37.932994,7172.142424800001,155.777,-4.267,352.98
3.7742,128.181292,37.933034,7172.7910392,156.091,-4.456,353.131
3.7909,128.181285,37.933073,7173.426242400001,156.415,-4.645,353.279
3.8076,128.181279,37.933112,7174.0477296,156.749,-4.834,353.423
3.8243,128.181273,37.933151,7174.6558056,157.089,-5.022,353.563
3.841,128.181266,37.93319,7175.2501656,157.435,-5.209,353.7
3.8577,128.18126,37.93323,7175.8305048,157.784,-5.397,353.834
3.8744,128.181254,37.933269,7176.396823200001,158.136,-5.584,353.965
3.8911,128.181248,37.933308,7176.948816,158.488,-5.772,354.092
3.9078,128.181242,37.933347,7177.4864832,158.84,-5.96,354.216
3.9245,128.181236,37.933386,7178.009824800001,159.191,-6.148,354.336
3.9412,128.18123,37.933426,7178.5188408,159.54,-6.337,354.454
3.9579,128.181224,37.933465,7179.0129216000005,159.886,-6.526,354.568
3.9746,128.181218,37.933504,7179.492372000001,160.227,-6.716,354.679
3.9913,128.181212,37.933543,7179.956887200001,160.564,-6.906,354.787
4.008,128.181206,37.933582,7180.406772,160.896,-7.097,354.892
4.0247,128.1812,37.933622,7180.8417216,161.223,-7.289,354.994
4.0414,128.181195,37.933661,7181.2614312000005,161.543,-7.482,355.093
4.058,128.181189,37.9337,7181.6662056000005,161.857,-7.676,355.189
4.0748,128.181183,37.933739,7182.056044800001,162.164,-7.871,355.282
4.0915,128.181178,37.933778,7182.4303392,162.465,-8.066,355.372
4.1082,128.181172,37.933818,7182.7896984,162.759,-8.263,355.46
4.1249,128.181167,37.933857,7183.1338176,163.045,-8.461,355.545
4.1415,128.181161,37.933896,7183.4642208,163.373,-8.661,355.622
4.1583,128.181156,37.933935,7183.7802984,163.739,-8.864,355.692
4.175,128.18115,37.933974,7184.082660000001,164.14,-9.068,355.755
4.1917,128.181145,37.934013,7184.3719152,164.571,-9.274,355.814
4.2084,128.18114,37.934052,7184.648064000001,165.028,-9.482,355.87
4.2251,128.181134,37.934091,7184.9095824000005,165.507,-9.69,355.922
4.2417,128.181129,37.93413,7185.1567752,166.001,-9.898,355.972
4.2585,128.181124,37.93417,7185.3893376000005,166.507,-10.108,356.02
4.2752,128.181118,37.934209,7185.607269600001,167.019,-10.317,356.066
4.2919,128.181113,37.934248,7185.809656800001,167.533,-10.527,356.11
4.3086,128.181108,37.934287,7185.996804,168.046,-10.737,356.152
4.3252,128.181103,37.934326,7186.168406400001,168.553,-10.947,356.192
4.342,128.181098,37.934365,7186.324464,169.051,-11.157,356.23
4.3587,128.181093,37.934404,7186.4643672,169.539,-11.368,356.267
4.3754,128.181088,37.934443,7186.588116,170.012,-11.579,356.301
4.3921,128.181083,37.934482,7186.696015200001,170.47,-11.791,356.333
4.4088,128.181078,37.934521,7186.78776,170.912,-12.004,356.362
4.4254,128.181073,37.93456,7186.863350400001,171.335,-12.217,356.39
4.4422,128.181068,37.934598,7186.9224816000005,171.74,-12.431,356.415
4.4589,128.181063,37.934637,7186.9651536,172.126,-12.646,356.438
4.4756,128.181058,37.934676,7186.9916712,172.494,-12.862,356.459
4.4923,128.181053,37.934715,7187.0020343999995,172.843,-13.079,356.479
4.5089,128.181048,37.934754,7186.9956336000005,173.175,-13.296,356.498
4.5256,128.181044,37.934793,7186.973383200001,173.489,-13.515,356.515
4.5424,128.181039,37.934831,7186.934368800001,173.786,-13.734,356.53
4.5591,128.181034,37.93487,7186.8795048,174.065,-13.955,356.544
4.5758,128.181029,37.934909,7186.8081816,174.327,-14.176,356.556
4.5925,128.181024,37.934948,7186.7203992,174.574,-14.399,356.566
4.6091,128.18102,37.934986,7186.6167672,174.805,-14.622,356.574
4.6259,128.181015,37.935025,7186.496676,175.021,-14.847,356.581
4.6426,128.18101,37.935064,7186.3607352,175.224,-15.072,356.586
4.6593,128.181006,37.935102,7186.20864,175.414,-15.298,356.589
4.676,128.181001,37.935141,7186.0403904,175.592,-15.525,356.591
4.6927,128.180996,37.93518,7185.855986400001,175.758,-15.753,356.592
4.7093,128.180992,37.935218,7185.655732800001,175.914,-15.981,356.591
4.7261,128.180987,37.935257,7185.4396295999995,176.06,-16.211,356.589
4.7428,128.180983,37.935295,7185.207372,176.197,-16.441,356.585
4.7595,128.180978,37.935334,7184.959264800001,176.326,-16.671,356.581
4.7762,128.180974,37.935372,7184.695308,176.447,-16.903,356.575
4.7928,128.180969,37.93541,7184.4155016,176.56,-17.135,356.569
4.8096,128.180965,37.935449,7184.1198456,176.667,-17.367,356.562
4.8263,128.18096,37.935487,7183.8083400000005,176.767,-17.6,356.553
4.843,128.180956,37.935525,7183.4809847999995,176.862,-17.833,356.544
4.8597,128.180951,37.935564,7183.1380848,176.952,-18.067,356.535
4.8764,128.180947,37.935602,7182.7793352,177.037,-18.302,356.525
4.893,128.180942,37.93564,7182.4050408,177.117,-18.536,356.514
4.9098,128.180938,37.935678,7182.014592,177.193,-18.771,356.503
4.9265,128.180933,37.935717,7181.6089032,177.265,-19.007,356.491
4.9432,128.180929,37.935755,7181.187364800001,177.334,-19.243,356.479
4.9599,128.180925,37.935793,7180.750281600001,177.4,-19.479,356.466
4.9765,128.18092,37.935831,7180.2973488,177.462,-19.715,356.453
4.9932,128.180916,37.935869,7179.8288712,177.522,-19.952,356.44
5.01,128.180911,37.935907,7179.3448488,177.579,-20.189,356.427
5.0267,128.180907,37.935945,7178.8452816,177.634,-20.426,356.413
5.0434,128.180903,37.935983,7178.329864800001,177.687,-20.663,356.399
5.0601,128.180898,37.936021,7177.799208,177.737,-20.901,356.386
5.0767,128.180894,37.936059,7177.2527016,177.786,-21.139,356.371
5.0935,128.18089,37.936097,7176.690955200001,177.833,-21.377,356.357
5.1102,128.180885,37.936134,7176.113359200001,177.878,-21.615,356.343
5.1269,128.180881,37.936172,7175.5202184,177.921,-21.854,356.329
5.1436,128.180877,37.93621,7174.911837600001,177.963,-22.093,356.314
5.1602,128.180873,37.936248,7174.287912,178.004,-22.331,356.3
5.1769,128.180868,37.936285,7173.6484416,178.043,-22.57,356.285
5.1937,128.180864,37.936323,7172.9934264,178.081,-22.81,356.271
5.2104,128.18086,37.93636,7172.3228664,178.118,-23.049,356.256
5.2271,128.180856,37.936398,7171.6370664,178.153,-23.289,356.242
5.2438,128.180851,37.936435,7170.9357216,178.188,-23.528,356.228
5.2604,128.180847,37.936473,7170.2191368,178.222,-23.768,356.213
5.2772,128.180843,37.93651,7169.4870072,178.254,-24.008,356.199
5.2939,128.180839,37.936548,7168.739332800001,178.286,-24.249,356.184
5.3106,128.180835,37.936585,7167.9764184000005,178.317,-24.489,356.17
5.3273,128.180831,37.936622,7167.197959200001,178.347,-24.73,356.156
5.3439,128.180826,37.936659,7166.40426,178.376,-24.97,356.142
5.3606,128.180822,37.936697,7165.595016,178.404,-25.211,356.128
5.3774,128.180818,37.936734,7164.7705320000005,178.432,-25.452,356.114
5.3941,128.180814,37.936771,7163.930808,178.459,-25.693,356.1
5.4108,128.18081,37.936808,7163.075844,178.485,-25.935,356.086
5.4275,128.180806,37.936845,7162.2053352,178.51,-26.177,356.072
5.4441,128.180802,37.936882,7161.3195864,178.535,-26.419,356.059
5.4609,128.180798,37.936919,7160.418597600001,178.56,-26.661,356.045
5.4776,128.180793,37.936956,7159.5023688,178.583,-26.903,356.031
5.4943,128.180789,37.936993,7158.570900000001,178.607,-27.146,356.018
5.511,128.180785,37.937029,7157.6241912000005,178.629,-27.389,356.005
5.5277,128.180781,37.937066,7156.662242400001,178.652,-27.632,355.992
5.5443,128.180777,37.937103,7155.6850536,178.673,-27.875,355.979
5.5611,128.180773,37.93714,7154.692624800001,178.694,-28.119,355.966
5.5778,128.180769,37.937176,7153.684956000001,178.715,-28.363,355.953
5.5945,128.180765,37.937213,7152.662352000001,178.735,-28.607,355.94
5.6112,128.180761,37.937249,7151.624508,178.755,-28.851,355.927
5.6278,128.180757,37.937286,7150.571424000001,178.775,-29.096,355.915
5.6445,128.180753,37.937322,7149.503100000001,178.794,-29.341,355.902
5.6613,128.180749,37.937358,7148.4198408,178.812,-29.586,355.89
5.678,128.180745,37.937395,7147.321341600001,178.83,-29.831,355.878
5.6947,128.180741,37.937431,7146.2079072,178.848,-30.076,355.865
5.7114,128.180737,37.937467,7145.079537600001,178.866,-30.322,355.853
5.728,128.180733,37.937503,7143.935928000001,178.883,-30.568,355.841
5.7448,128.18073,37.937539,7142.7773832,178.9,-30.814,355.829
5.7615,128.180726,37.937575,7141.6035984,178.917,-31.061,355.818
5.7782,128.180722,37.937611,7140.414878400001,178.933,-31.307,355.806
5.7949,128.180718,37.937647,7139.211223200001,178.949,-31.554,355.795
5.8115,128.180714,37.937683,7137.992632800001,178.965,-31.801,355.783
5.8282,128.18071,37.937719,7136.7591072,178.98,-32.049,355.772
5.845,128.180706,37.937754,7135.510646400001,178.995,-32.296,355.761
5.8617,128.180702,37.93779,7134.247250400001,179.01,-32.544,355.749
5.8784,128.180698,37.937826,7132.968614400001,179.025,-32.793,355.738
5.8951,128.180695,37.937861,7131.6756528,179.04,-33.041,355.727
5.9117,128.180691,37.937897,7130.367451200001,179.054,-33.29,355.717
5.9285,128.180687,37.937932,7129.044314400001,179.068,-33.538,355.706
5.9452,128.180683,37.937968,7127.7065472,179.082,-33.787,355.695
5.9619,128.180679,37.938003,7126.354149600001,179.096,-34.037,355.685
5.9786,128.180676,37.938038,7124.986512,179.109,-34.286,355.674
5.9952,128.180672,37.938073,7123.6045488,179.123,-34.536,355.664
6.0119,128.180668,37.938109,7122.207345600001,179.136,-34.786,355.654
6.0287,128.180664,37.938144,7120.7958168000005,179.149,-35.037,355.643
6.0454,128.18066,37.938179,7119.3693528,179.162,-35.287,355.633
6.0621,128.180657,37.938214,7117.9282584,179.175,-35.538,355.623
6.0788,128.180653,37.938248,7116.472228800001,179.188,-35.789,355.613
6.0954,128.180649,37.938283,7115.0018736,179.2,-36.041,355.604
6.1121,128.180645,37.938318,7113.5165832,179.213,-36.292,355.594
6.1289,128.180642,37.938353,7112.0166624,179.225,-36.544,355.584
6.1456,128.180638,37.938387,7110.502416,179.237,-36.796,355.575
6.1623,128.180634,37.938422,7108.9732343999995,179.25,-37.048,355.566
6.179,128.180631,37.938456,7107.4297272,179.262,-37.3,355.556
6.1956,128.180627,37.938491,7105.8712848,179.274,-37.552,355.547
6.2124,128.180623,37.938525,7104.2988216,179.286,-37.804,355.538
6.2291,128.18062,37.938559,7102.7114232,179.298,-38.055,355.529
6.2458,128.180616,37.938594,7101.1096992,179.31,-38.306,355.521
6.2625,128.180612,37.938628,7099.4936496,179.322,-38.557,355.512
6.2791,128.180609,37.938662,7097.863274400001,179.334,-38.806,355.503
6.2958,128.180605,37.938696,7096.2182688,179.346,-39.056,355.495
6.3126,128.180601,37.93873,7094.558937600001,179.357,-39.304,355.487
6.3293,128.180598,37.938763,7092.8852808,179.369,-39.552,355.478
6.346,128.180594,37.938797,7091.1976032,179.381,-39.8,355.47
6.3627,128.180591,37.938831,7089.4952952,179.392,-40.046,355.462
6.3793,128.180587,37.938865,7087.7789664,179.404,-40.293,355.454
6.3961,128.180583,37.938898,7086.048312,179.415,-40.538,355.446
6.4128,128.18058,37.938932,7084.3036368,179.426,-40.783,355.438
6.4295,128.180576,37.938965,7082.5446360000005,179.438,-41.027,355.43
6.4462,128.180573,37.938998,7080.7716144000005,179.449,-41.271,355.423
6.4628,128.180569,37.939032,7078.984572,179.461,-41.514,355.415
6.4795,128.180566,37.939065,7077.183508800001,179.472,-41.757,355.407
6.4963,128.180562,37.939098,7075.368424800001,179.483,-41.999,355.4
6.513,128.180559,37.939131,7073.539320000001,179.494,-42.24,355.393
6.5297,128.180555,37.939164,7071.6964992,179.506,-42.481,355.385
6.5464,128.180552,37.939197,7069.8393528,179.517,-42.721,355.378
6.5631,128.180548,37.939229,7067.9687952,179.528,-42.961,355.371
6.5798,128.180545,37.939262,7066.0842168,179.539,-43.201,355.363
6.5965,128.180541,37.939295,7064.1859224,179.55,-43.44,355.356
6.6132,128.180538,37.939327,7062.2736072,179.561,-43.678,355.349
6.6299,128.180534,37.93936,7060.3478808,179.573,-43.916,355.342
6.6466,128.180531,37.939392,7058.408438400001,179.584,-44.154,355.335
6.6633,128.180528,37.939424,7056.45528,179.595,-44.391,355.328
6.68,128.180524,37.939457,7054.488405600001,179.606,-44.628,355.321
6.6967,128.180521,37.939489,7052.50812,179.617,-44.864,355.314
6.7134,128.180517,37.939521,7050.5144232,179.629,-45.1,355.308
6.7301,128.180514,37.939553,7048.507010400001,179.64,-45.335,355.301
6.7468,128.180511,37.939585,7046.4861864,179.651,-45.571,355.294
6.7635,128.180507,37.939616,7044.4522560000005,179.662,-45.806,355.287
6.7802,128.180504,37.939648,7042.4046096,179.674,-46.04,355.281
6.7969,128.180501,37.93968,7040.343856800001,179.685,-46.274,355.274
6.8136,128.180497,37.939711,7038.2696928000005,179.696,-46.508,355.268
6.8303,128.180494,37.939743,7036.1824224,179.707,-46.742,355.261
6.847,128.180491,37.939774,7034.0817408,179.719,-46.975,355.254
6.8637,128.180487,37.939805,7031.9679528,179.73,-47.208,355.248
6.8804,128.180484,37.939836,7029.8410584,179.742,-47.441,355.241
6.8971,128.180481,37.939868,7027.7010576,179.753,-47.673,355.235
6.9138,128.180477,37.939899,7025.5482552,179.765,-47.906,355.228
6.9305,128.180474,37.93993,7023.382041600001,179.776,-48.138,355.222
6.9472,128.180471,37.93996,7021.2033312,179.788,-48.369,355.216
6.9639,128.180468,37.939991,7019.0112096,179.8,-48.601,355.209
6.9806,128.180465,37.940022,7016.8065912,179.811,-48.832,355.203
6.9973,128.180461,37.940052,7014.5888664,179.823,-49.063,355.196
7.014,128.180458,37.940083,7012.358644800001,179.835,-49.293,355.19
7.0307,128.180455,37.940113,7010.1156216,179.847,-49.524,355.184
7.0474,128.180452,37.940144,7007.8597968,179.858,-49.754,355.177
7.0641,128.180448,37.940174,7005.591170400001,179.87,-49.984,355.171
7.0808,128.180445,37.940204,7003.310047200001,179.882,-50.214,355.165
7.0975,128.180442,37.940234,7001.0164272,179.894,-50.444,355.158
7.1142,128.180439,37.940264,6998.710005600001,179.906,-50.673,355.152
7.1309,128.180436,37.940294,6996.391392,179.919,-50.903,355.146
7.1476,128.180433,37.940324,6994.0602816,179.931,-51.132,355.139
7.1643,128.18043,37.940353,6991.716674400001,179.943,-51.361,355.133
7.181,128.180426,37.940383,6989.360570400001,179.955,-51.59,355.127
7.1977,128.180423,37.940412,6986.9922744000005,179.968,-51.818,355.12
7.2144,128.18042,37.940442,6984.611786400001,179.98,-52.047,355.114
7.2311,128.180417,37.940471,6982.219106400001,179.992,-52.275,355.108
7.2478,128.180414,37.9405,6979.8142344,-179.994,-52.503,355.101
7.2645,128.180411,37.940529,6977.396865600001,-179.982,-52.731,355.095
7.2812,128.180408,37.940558,6974.9676096,-179.969,-52.959,355.088
7.2979,128.180405,37.940587,6972.5264664,-179.956,-53.186,355.082
7.3146,128.180402,37.940616,6970.0731312,-179.944,-53.414,355.076
7.3313,128.180399,37.940645,6967.607908800001,-179.931,-53.641,355.069
7.348,128.180396,37.940673,6965.1307992,-179.918,-53.868,355.063
7.3647,128.180393,37.940702,6962.641497600001,-179.905,-54.095,355.056
7.3814,128.18039,37.94073,6960.1406136000005,-179.892,-54.322,355.049
7.3981,128.180387,37.940759,6957.628147200001,-179.879,-54.549,355.043
7.4148,128.180384,37.940787,6955.1034887999995,-179.866,-54.776,355.036
7.4315,128.180381,37.940815,6952.567248,-179.853,-55.002,355.029
7.4482,128.180378,37.940843,6950.019424800001,-179.84,-55.229,355.023
7.4649,128.180375,37.940871,6947.460019200001,-179.826,-55.455,355.016
7.4816,128.180372,37.940899,6944.8890312,-179.813,-55.681,355.009
7.4983,128.180369,37.940927,6942.3064608,-179.8,-55.907,355.002
7.515,128.180366,37.940954,6939.7126128,-179.786,-56.133,354.996
7.5317,128.180363,37.940982,6937.1071824,-179.773,-56.359,354.989
7.5484,128.180361,37.941009,6934.4904744000005,-179.759,-56.585,354.982
7.5651,128.180358,37.941037,6931.8621840000005,-179.745,-56.811,354.975
7.5818,128.180355,37.941064,6929.222616,-179.732,-57.036,354.967
7.5985,128.180352,37.941091,6926.5720752,-179.718,-57.262,354.96
7.6152,128.180349,37.941118,6923.909952000001,-179.704,-57.487,354.953
7.6319,128.180346,37.941145,6921.236856,-179.69,-57.712,354.946
7.6486,128.180343,37.941172,6918.5527872,-179.676,-57.937,354.938
7.6653,128.180341,37.941199,6915.8574408,-179.662,-58.162,354.931
7.682,128.180338,37.941225,6913.1511216,-179.648,-58.387,354.924
7.6987,128.180335,37.941252,6910.4338296,-179.633,-58.612,354.916
7.7154,128.180332,37.941278,6907.7055648000005,-179.619,-58.837,354.908
7.7321,128.180329,37.941305,6904.966632000001,-179.605,-59.061,354.901
7.7488,128.180327,37.941331,6902.2167264,-179.59,-59.286,354.893
7.7655,128.180324,37.941357,6899.455848,-179.575,-59.51,354.885
7.7822,128.180321,37.941383,6896.684301600001,-179.561,-59.734,354.877
7.7989,128.180318,37.941409,6893.902087200001,-179.546,-59.959,354.869
7.8156,128.180316,37.941435,6891.109509600001,-179.531,-60.183,354.861
7.8323,128.180313,37.941461,6888.3059592,-179.516,-60.407,354.853
7.849,128.18031,37.941486,6885.4920456,-179.501,-60.631,354.844
7.8657,128.180308,37.941512,6882.667464,-179.486,-60.855,354.836
7.8824,128.180305,37.941537,6879.8325192,-179.471,-61.078,354.827
7.8991,128.180302,37.941562,6876.9869064,-179.456,-61.302,354.819
7.9158,128.180299,37.941588,6874.1312352,-179.44,-61.526,354.81
7.9325,128.180297,37.941613,6871.264896000001,-179.425,-61.749,354.801
7.9492,128.180294,37.941638,6868.3884984,-179.409,-61.973,354.792
7.9659,128.180292,37.941662,6865.5020424,-179.393,-62.196,354.783
7.9826,128.180289,37.941687,6862.6052232,-179.377,-62.419,354.774
7.9993,128.180286,37.941712,6859.6980408,-179.361,-62.642,354.764
8.016,128.180284,37.941736,6856.7811048,-179.345,-62.866,354.755
8.0327,128.180281,37.941761,6853.853805600001,-179.329,-63.089,354.745
8.0494,128.180279,37.941785,6850.9167528,-179.313,-63.312,354.735
8.0661,128.180276,37.941809,6847.969641600001,-179.296,-63.534,354.725
8.0828,128.180273,37.941834,6845.0127768,-179.28,-63.757,354.715
8.0994,128.180271,37.941858,6842.045853600001,-179.263,-63.98,354.705
8.1161,128.180268,37.941882,6839.069176800001,-179.246,-64.203,354.694
8.1329,128.180266,37.941905,6836.0827464,-179.229,-64.425,354.684
8.1496,128.180263,37.941929,6833.0865624,-179.212,-64.648,354.673
8.1663,128.180261,37.941953,6830.0809296,-179.195,-64.87,354.662
8.183,128.180258,37.941976,6827.065543199999,-179.177,-65.092,354.651
8.1997,128.180256,37.941999,6824.0404032,-179.159,-65.315,354.64
8.2164,128.180253,37.942023,6821.0058144,-179.142,-65.537,354.628
8.2331,128.180251,37.942046,6817.9617768,-179.124,-65.759,354.616
8.2498,128.180248,37.942069,6814.9085952000005,-179.106,-65.981,354.605
8.2665,128.180246,37.942092,6811.845660000001,-179.087,-66.203,354.592
8.2831,128.180243,37.942115,6808.7735808,-179.069,-66.425,354.58
8.2998,128.180241,37.942137,6805.6920528,-179.05,-66.646,354.568
8.3166,128.180239,37.94216,6802.6013808,-179.031,-66.868,354.555
8.3333,128.180236,37.942182,6799.501564800001,-179.012,-67.09,354.542
8.35,128.180234,37.942205,6796.3926048,-178.993,-67.311,354.529
8.3667,128.180231,37.942227,6793.2745008,-178.973,-67.533,354.515
8.3834,128.180229,37.942249,6790.1472527999995,-178.953,-67.754,354.501
8.4001,128.180227,37.942271,6787.011165600001,-178.933,-67.976,354.487
8.4168,128.180224,37.942293,6783.8659344,-178.913,-68.197,354.473
8.4335,128.180222,37.942315,6780.711864000001,-178.893,-68.418,354.458
8.4502,128.18022,37.942336,6777.5492592,-178.872,-68.639,354.443
8.4668,128.180217,37.942358,6774.377510400001,-178.851,-68.86,354.428
8.4835,128.180215,37.94238,6771.1972272,-178.83,-69.081,354.413
8.5003,128.180213,37.942401,6768.0081048,-178.808,-69.302,354.397
8.517,128.18021,37.942422,6764.810143199999,-178.786,-69.523,354.381
8.5337,128.180208,37.942443,6761.603952,-178.764,-69.744,354.364
8.5504,128.180206,37.942464,6758.3889216,-178.741,-69.964,354.347
8.5671,128.180204,37.942485,6755.165356800001,-178.718,-70.185,354.33
8.5838,128.180201,37.942506,6751.9335624000005,-178.695,-70.406,354.312
8.6005,128.180199,37.942527,6748.693233600001,-178.672,-70.626,354.294
8.6172,128.180197,37.942547,6745.444675199999,-178.648,-70.847,354.276
8.6339,128.180195,37.942568,6742.187582400001,-178.623,-71.067,354.257
8.6505,128.180193,37.942588,6738.92226,-178.599,-71.287,354.238
8.6672,128.18019,37.942608,6735.6490128000005,-178.574,-71.507,354.218
8.684,128.180188,37.942628,6732.3672312,-178.548,-71.727,354.198
8.7007,128.180186,37.942648,6729.077524800001,-178.522,-71.947,354.177
8.7174,128.180184,37.942668,6725.7795888,-178.495,-72.167,354.156
8.7341,128.180182,37.942688,6722.473728000001,-178.469,-72.387,354.134
8.7508,128.18018,37.942707,6719.159942400001,-178.441,-72.607,354.112
8.7675,128.180177,37.942727,6715.838232,-178.413,-72.827,354.089
8.7842,128.180175,37.942746,6712.508901600001,-178.384,-73.047,354.065
8.8009,128.180173,37.942765,6709.1713416,-178.355,-73.266,354.041
8.8176,128.180171,37.942785,6705.8261616,-178.326,-73.486,354.016
8.8342,128.180169,37.942804,6702.473361599999,-178.295,-73.705,353.991
8.8509,128.180167,37.942822,6699.1126368000005,-178.264,-73.925,353.965
8.8676,128.180165,37.942841,6695.744596800001,-178.232,-74.144,353.938
8.8844,128.180163,37.94286,6692.3689368000005,-178.2,-74.363,353.911
8.9011,128.180161,37.942879,6688.9856568000005,-178.167,-74.583,353.882
8.9178,128.180159,37.942897,6685.594756800001,-178.133,-74.802,353.853
8.9345,128.180157,37.942915,6682.1965416,-178.098,-75.021,353.823
8.9512,128.180155,37.942933,6678.791011200001,-178.063,-75.24,353.792
8.9679,128.180153,37.942952,6675.378165600001,-178.026,-75.459,353.76
8.9846,128.180151,37.942969,6671.958004800001,-177.989,-75.678,353.728
9.0013,128.180149,37.942987,6668.530833600001,-177.95,-75.896,353.694
9.0179,128.180147,37.943005,6665.0963472,-177.911,-76.115,353.659
9.0346,128.180145,37.943023,6661.6545456,-177.871,-76.334,353.623
9.0513,128.180143,37.94304,6658.206038400001,-177.829,-76.552,353.586
9.0681,128.180141,37.943057,6654.750215999999,-177.786,-76.771,353.547
9.0848,128.180139,37.943075,6651.287688,-177.742,-76.989,353.508
9.1015,128.180137,37.943092,6647.818149600001,-177.697,-77.207,353.466
9.1182,128.180135,37.943109,6644.3416008,-177.65,-77.426,353.424
9.1349,128.180133,37.943126,6640.8583464,-177.602,-77.644,353.38
9.1516,128.180132,37.943142,6637.3683864,-177.552,-77.862,353.334
9.1683,128.18013,37.943159,6633.8717208,-177.501,-78.08,353.287
9.185,128.180128,37.943176,6630.3683496,-177.448,-78.298,353.238
9.2016,128.180126,37.943192,6626.8582728,-177.393,-78.516,353.188
9.2183,128.180124,37.943208,6623.3417952,-177.336,-78.734,353.135
9.235,128.180122,37.943224,6619.818612,-177.277,-78.951,353.08
9.2518,128.180121,37.94324,6616.289028,-177.216,-79.169,353.023
9.2685,128.180119,37.943256,6612.753043199999,-177.153,-79.387,352.964
9.2852,128.180117,37.943272,6609.2109624,-177.087,-79.604,352.902
9.3019,128.180115,37.943288,6605.662176,-177.019,-79.822,352.837
9.3186,128.180113,37.943303,6602.1075984,-176.948,-80.039,352.77
9.3353,128.180112,37.943319,6598.546315200001,-176.874,-80.256,352.7
9.352,128.18011,37.943334,6594.9792408,-176.797,-80.474,352.626
9.3687,128.180108,37.943349,6591.406070400001,-176.717,-80.691,352.55
9.3854,128.180106,37.943364,6587.8264992,-176.632,-80.908,352.469
9.402,128.180105,37.943379,6584.2411368,-176.544,-81.125,352.384
9.4187,128.180103,37.943394,6580.649983200001,-176.452,-81.341,352.296
9.4355,128.180101,37.943409,6577.0527336000005,-176.355,-81.558,352.202
9.4522,128.1801,37.943423,6573.449997600001,-176.254,-81.775,352.104
9.4689,128.180098,37.943438,6569.841165600001,-176.147,-81.991,352.001
9.4856,128.180096,37.943452,6566.226542400001,-176.034,-82.208,351.892
9.5023,128.180095,37.943466,6562.6064328,-175.916,-82.424,351.776
9.519,128.180093,37.94348,6558.9805320000005,-175.79,-82.641,351.654
9.5357,128.180091,37.943494,6555.3491448,-175.657,-82.857,351.524
9.5524,128.18009,37.943508,6551.7122712,-175.516,-83.073,351.387
9.5691,128.180088,37.943522,6548.0696064,-175.367,-83.289,351.24
9.5857,128.180087,37.943535,6544.42176,-175.207,-83.505,351.084
9.6024,128.180085,37.943549,6540.768732,-175.037,-83.721,350.917
9.6192,128.180083,37.943562,6537.1102176,-174.855,-83.936,350.738
9.6359,128.180082,37.943575,6533.4462168,-174.66,-84.152,350.546
9.6526,128.18008,37.943588,6529.7773392,-174.451,-84.367,350.34
9.6693,128.180079,37.943601,6526.1029751999995,-174.225,-84.582,350.117
9.686,128.180077,37.943614,6522.4237344,-173.981,-84.798,349.875
9.7027,128.180076,37.943627,6518.739312,-173.716,-85.012,349.613
9.7194,128.180074,37.943639,6515.0500128,-173.427,-85.227,349.328
9.7361,128.180073,37.943652,6511.3558368,-173.112,-85.442,349.015
9.7528,128.180071,37.943664,6507.656479200001,-172.766,-85.656,348.671
9.7694,128.18007,37.943676,6503.952549600001,-172.384,-85.87,348.292
9.7861,128.180068,37.943688,6500.2437432,-171.961,-86.084,347.872
9.8029,128.180067,37.9437,6496.530060000001,-171.49,-86.298,347.404
9.8196,128.180066,37.943712,6492.811804800001,-170.962,-86.511,346.878
9.8363,128.180064,37.943724,6489.0886728000005,-170.365,-86.723,346.284
9.853,128.180063,37.943735,6485.3612736000005,-169.687,-86.936,345.608
9.8697,128.180061,37.943747,6481.6293024,-168.907,-87.148,344.832
9.8864,128.18006,37.943758,6477.8927592,-168.004,-87.359,343.931
9.9031,128.180059,37.943769,6474.151644,-166.944,-87.569,342.873
9.9198,128.180057,37.94378,6470.4062616,-165.686,-87.778,341.617
9.9365,128.180056,37.943791,6466.656612,-164.168,-87.986,340.101
9.9531,128.180054,37.943802,6462.9026952,-162.303,-88.192,338.239
9.9698,128.180053,37.943812,6459.144511200001,-159.963,-88.396,335.902
9.9865,128.180052,37.943823,6455.382364800001,-156.951,-88.596,332.892
10.0033,128.180051,37.943833,6451.6156464000005,-152.955,-88.791,328.898
10.02,128.180049,37.943844,6447.845270400001,-147.465,-88.978,323.41
10.0367,128.180048,37.943854,6444.0709320000005,-139.636,-89.151,315.583
10.0534,128.180047,37.943864,6440.2923264,-128.152,-89.301,304.102
10.0701,128.180045,37.943874,6436.5100632,-111.544,-89.409,287.496
10.0868,128.180044,37.943884,6432.7238376000005,-90.237,-89.45,266.191
10.1035,128.180043,37.943893,6428.9339544,-68.874,-89.41,244.83
10.1202,128.180042,37.943903,6425.1401088,-52.158,-89.304,228.116
10.1368,128.18004,37.943912,6421.342605600001,-40.586,-89.155,216.546
10.1535,128.180039,37.943921,6417.5417496,-32.698,-88.982,208.66
10.1702,128.180038,37.94393,6413.7369312,-27.17,-88.796,203.133
10.187,128.180037,37.943939,6409.928760000001,-23.149,-88.602,199.114
10.2037,128.180036,37.943948,6406.117236,-20.12,-88.403,196.088
10.2204,128.180035,37.943957,6402.3023592,-17.769,-88.201,193.738
10.2371,128.180033,37.943966,6398.483824800001,-15.896,-87.996,191.868
10.2538,128.180032,37.943974,6394.662242400001,-14.373,-87.789,190.346
10.2705,128.180031,37.943983,6390.8370024,-13.111,-87.581,189.086
10.2872,128.18003,37.943991,6387.009019200001,-12.049,-87.372,188.026
10.3039,128.180029,37.943999,6383.1776832000005,-11.145,-87.163,187.123
10.3205,128.180028,37.944007,6379.3432992,-10.365,-86.953,186.345
10.3372,128.180027,37.944015,6375.5055624,-9.685,-86.742,185.667
10.3539,128.180026,37.944022,6371.665082400001,-9.088,-86.532,185.071
10.3707,128.180025,37.94403,6367.8218592,-8.559,-86.32,184.544
10.3874,128.180024,37.944038,6363.975588000001,-8.088,-86.109,184.074
10.4041,128.180022,37.944045,6360.126268800001,-7.665,-85.898,183.653
10.4208,128.180021,37.944052,6356.274511200001,-7.283,-85.686,183.273
10.4375,128.18002,37.944059,6352.420010400001,-6.937,-85.474,182.929
10.4542,128.180019,37.944066,6348.5624616,-6.623,-85.263,182.615
10.4709,128.180018,37.944073,6344.702779200001,-6.335,-85.051,182.329
10.4876,128.180017,37.94408,6340.8400488,-6.071,-84.839,182.066
10.5042,128.180017,37.944086,6336.9751848,-5.828,-84.627,181.825
10.5209,128.180016,37.944093,6333.107882400001,-5.603,-84.415,181.601
10.5376,128.180015,37.944099,6329.237836800001,-5.395,-84.203,181.395
10.5544,128.180014,37.944105,6325.3656576,-5.202,-83.991,181.203
10.5711,128.180013,37.944111,6321.4913448,-5.022,-83.779,181.024
10.5878,128.180012,37.944117,6317.6145936,-4.853,-83.567,180.857
10.6045,128.180011,37.944123,6313.7357088,-4.695,-83.355,180.7
10.6212,128.18001,37.944129,6309.854385600001,-4.547,-83.143,180.553
10.6379,128.180009,37.944134,6305.971538400001,-4.407,-82.931,180.415
10.6546,128.180008,37.944139,6302.0862528,-4.276,-82.719,180.284
10.6713,128.180007,37.944145,6298.199138400001,-4.151,-82.508,180.161
10.6879,128.180007,37.94415,6294.310195200001,-4.034,-82.296,180.045
10.7046,128.180006,37.944155,6290.4191184,-3.923,-82.084,179.935
10.7213,128.180005,37.94416,6286.5265176,-3.817,-81.872,179.831
10.7381,128.180004,37.944165,6282.632088,-3.717,-81.66,179.732
10.7548,128.180003,37.944169,6278.7358296,-3.622,-81.449,179.638
10.7715,128.180003,37.944174,6274.838047200001,-3.531,-81.237,179.548
10.7882,128.180002,37.944178,6270.9387408,-3.444,-81.025,179.463
10.8049,128.180001,37.944182,6267.0376056000005,-3.362,-80.814,179.381
10.8216,128.18,37.944186,6263.1352512,-3.283,-80.602,179.303
10.8383,128.18,37.94419,6259.2313728,-3.208,-80.391,179.229
10.855,128.179999,37.944194,6255.325970400001,-3.135,-80.18,179.158
10.8717,128.179998,37.944198,6251.4193488,-3.066,-79.968,179.09
10.8883,128.179997,37.944202,6247.511508,-2.999,-79.757,179.024
10.905,128.179997,37.944205,6243.602448,-2.935,-79.546,178.961
10.9218,128.179996,37.944208,6239.6924736,-2.873,-79.334,178.9
10.9385,128.179995,37.944212,6235.780975199999,-2.814,-79.123,178.841
10.9552,128.179995,37.944215,6231.8685624,-2.756,-78.912,178.785
10.9719,128.179994,37.944218,6227.9552352,-2.701,-78.701,178.731
10.9886,128.179993,37.94422,6224.0409936,-2.647,-78.49,178.678
11.0053,128.179993,37.944223,6220.125532800001,-2.595,-78.279,178.627
11.022,128.179992,37.944226,6216.2094624,-2.545,-78.068,178.578
11.0387,128.179992,37.944228,6212.292782400001,-2.497,-77.857,178.531
11.0554,128.179991,37.94423,6208.375188000001,-2.451,-77.647,178.485
11.072,128.17999,37.944233,6204.4566792000005,-2.406,-77.436,178.441
11.0887,128.17999,37.944235,6200.537865600001,-2.362,-77.225,178.398
11.1054,128.179989,37.944237,6196.6184424,-2.32,-77.015,178.357
11.1222,128.179989,37.944238,6192.698409600001,-2.28,-76.804,178.317
11.1389,128.179988,37.94424,6188.778072,-2.24,-76.594,178.278
11.1556,128.179988,37.944241,6184.857124800001,-2.203,-76.383,178.241
11.1723,128.179987,37.944243,6180.935872800001,-2.166,-76.173,178.205
11.189,128.179987,37.944244,6177.014316,-2.131,-75.963,178.17
11.2057,128.179986,37.944245,6173.0924544,-2.097,-75.752,178.136
11.2224,128.179986,37.944246,6169.170592800001,-2.064,-75.542,178.104
11.2391,128.179985,37.944247,6165.2484264,-2.032,-75.332,178.072
11.2557,128.179985,37.944248,6161.326260000001,-2.002,-75.122,178.042
11.2724,128.179984,37.944249,6157.4040936,-1.972,-74.912,178.012
11.2891,128.179984,37.944249,6153.481622400001,-1.944,-74.702,177.983
11.3059,128.179983,37.944249,6149.559760800001,-1.916,-74.492,177.956
11.3226,128.179983,37.94425,6145.6375944,-1.889,-74.282,177.929
11.3393,128.179983,37.94425,6141.7157328,-1.863,-74.072,177.902
11.356,128.179982,37.94425,6137.794176,-1.838,-73.863,177.877
11.3727,128.179982,37.94425,6133.872924,-1.813,-73.653,177.852
11.3894,128.179981,37.944249,6129.9519768,-1.789,-73.443,177.828
11.4061,128.179981,37.944249,6126.0313344,-1.766,-73.234,177.804
11.4228,128.179981,37.944248,6122.110996800001,-1.743,-73.024,177.782
11.4394,128.17998,37.944248,6118.1915736,-1.721,-72.815,177.759
11.4561,128.17998,37.944247,6114.272455200001,-1.7,-72.606,177.738
11.4728,128.17998,37.944246,6110.3539464000005,-1.68,-72.396,177.717
11.4896,128.17998,37.944245,6106.436047200001,-1.66,-72.187,177.697
11.5063,128.179979,37.944244,6102.5190624,-1.641,-71.978,177.677
11.523,128.179979,37.944243,6098.6026872,-1.622,-71.769,177.658
11.5397,128.179979,37.944241,6094.6869216000005,-1.604,-71.56,177.64
11.5564,128.179978,37.94424,6090.7723752,-1.586,-71.351,177.622
11.5731,128.179978,37.944238,6086.8587431999995,-1.57,-71.142,177.604
11.5898,128.179978,37.944236,6082.9460256,-1.553,-70.933,177.587
11.6065,128.179978,37.944234,6079.0342224000005,-1.537,-70.724,177.571
11.6231,128.179978,37.944232,6075.123638400001,-1.522,-70.516,177.555
11.6398,128.179977,37.94423,6071.213968800001,-1.507,-70.307,177.54
11.6565,128.179977,37.944228,6067.3058232,-1.493,-70.099,177.525
11.6733,128.179977,37.944225,6063.3985920000005,-1.479,-69.89,177.51
11.69,128.179977,37.944223,6059.4928848,-1.465,-69.682,177.496
11.7067,128.179977,37.94422,6055.588396800001,-1.452,-69.473,177.483
11.7234,128.179977,37.944217,6051.685432800001,-1.439,-69.265,177.469
11.7401,128.179976,37.944214,6047.783688,-1.426,-69.057,177.456
11.7568,128.179976,37.944211,6043.883772,-1.414,-68.848,177.444
11.7735,128.179976,37.944208,6039.9850752,-1.402,-68.64,177.432
11.7902,128.179976,37.944205,6036.0882071999995,-1.391,-68.432,177.42
11.8068,128.179976,37.944201,6032.193168000001,-1.379,-68.224,177.408
11.8235,128.179976,37.944198,6028.2996528,-1.368,-68.016,177.397
11.8402,128.179976,37.944194,6024.4076616,-1.357,-67.808,177.386
11.857,128.179976,37.94419,6020.517804,-1.346,-67.601,177.375
11.8737,128.179976,37.944186,6016.6297752,-1.335,-67.393,177.364
11.8904,128.179976,37.944182,6012.7435752,-1.325,-67.185,177.354
11.9071,128.179976,37.944178,6008.8595088,-1.314,-66.978,177.344
11.9238,128.179976,37.944174,6004.9772712,-1.303,-66.77,177.333
11.9405,128.179976,37.944169,6001.0971672000005,-1.292,-66.563,177.323
11.9572,128.179976,37.944165,5997.219196800001,-1.282,-66.355,177.313
11.9739,128.179976,37.94416,5993.343360000001,-1.271,-66.148,177.303
11.9905,128.179976,37.944155,5989.4699616,-1.26,-65.941,177.293
12.0072,128.179976,37.94415,5985.598696800001,-1.248,-65.733,177.283
12.0239,128.179976,37.944145,5981.7298704,-1.237,-65.526,177.273
12.0407,128.179976,37.94414,5977.8634824,-1.225,-65.319,177.263
12.0574,128.179976,37.944135,5973.999228000001,-1.213,-65.112,177.252
12.0741,128.179976,37.944129,5970.1377168,-1.201,-64.907,177.242
12.0908,128.179976,37.944124,5966.278644,-1.189,-64.705,177.232
12.1075,128.179977,37.944118,5962.422314400001,-1.178,-64.508,177.222
12.1242,128.179977,37.944112,5958.568728,-1.166,-64.317,177.212
12.1409,128.179977,37.944106,5954.7175799999995,-1.154,-64.132,177.203
12.1576,128.179977,37.9441,5950.86948,-1.143,-63.955,177.194
12.1743,128.179977,37.944094,5947.0238184,-1.132,-63.785,177.185
12.1909,128.179977,37.944088,5943.1812048,-1.122,-63.622,177.177
12.2076,128.179977,37.944081,5939.3410296,-1.112,-63.467,177.169
12.2243,128.179978,37.944075,5935.5039024,-1.102,-63.32,177.161
12.2411,128.179978,37.944068,5931.669823200001,-1.093,-63.18,177.154
12.2578,128.179978,37.944061,5927.838182400001,-1.085,-63.048,177.147
12.2745,128.179978,37.944054,5924.0095896,-1.077,-62.923,177.141
12.2912,128.179979,37.944047,5920.18374,-1.069,-62.804,177.135
12.3079,128.179979,37.94404,5916.360938400001,-1.062,-62.692,177.129
12.3246,128.179979,37.944033,5912.5405752,-1.055,-62.587,177.124
12.3413,128.179979,37.944026,5908.723260000001,-1.049,-62.486,177.119
12.358,128.17998,37.944018,5904.908688,-1.044,-62.392,177.115
12.3746,128.17998,37.944011,5901.0968592,-1.038,-62.302,177.111
12.3913,128.17998,37.944003,5897.287773600001,-1.033,-62.217,177.107
12.408,128.179981,37.943995,5893.481736000001,-1.028,-62.137,177.103
12.4248,128.179981,37.943987,5889.6781368,-1.024,-62.06,177.099
12.4415,128.179981,37.943979,5885.8772808,-1.019,-61.987,177.096
12.4582,128.179982,37.943971,5882.0788632,-1.015,-61.918,177.093
12.4749,128.179982,37.943963,5878.2834936,-1.011,-61.852,177.09
12.4916,128.179982,37.943954,5874.4905624,-1.008,-61.79,177.087
12.5083,128.179983,37.943946,5870.700679200001,-1.004,-61.73,177.085
12.525,128.179983,37.943937,5866.9129296,-1.001,-61.674,177.082
12.5417,128.179983,37.943929,5863.1282280000005,-0.998,-61.62,177.08
12.5583,128.179984,37.94392,5859.345964800001,-0.994,-61.569,177.078
12.575,128.179984,37.943911,5855.5664448,-0.991,-61.521,177.075
12.5917,128.179985,37.943902,5851.7893632000005,-0.988,-61.474,177.073
12.6085,128.179985,37.943893,5848.014720000001,-0.986,-61.43,177.071
12.6252,128.179985,37.943884,5844.24282,-0.983,-61.388,177.069
12.6419,128.179986,37.943875,5840.4733584000005,-0.98,-61.348,177.068
12.6586,128.179986,37.943865,5836.70664,-0.978,-61.309,177.066
12.6753,128.179987,37.943856,5832.9420552,-0.975,-61.272,177.064
12.692,128.179987,37.943846,5829.180213600001,-0.973,-61.236,177.063
12.7087,128.179988,37.943837,5825.420505600001,-0.971,-61.203,177.062
12.7254,128.179988,37.943827,5821.6635408,-0.969,-61.171,177.061
12.742,128.179989,37.943817,5817.9087096,-0.968,-61.14,177.06
12.7587,128.179989,37.943807,5814.1563168,-0.966,-61.111,177.06
12.7754,128.17999,37.943797,5810.4063624,-0.964,-61.082,177.059
12.7922,128.17999,37.943787,5806.658541600001,-0.962,-61.055,177.059
12.8089,128.179991,37.943777,5802.9131592,-0.96,-61.029,177.059
12.8256,128.179991,37.943766,5799.169910400001,-0.958,-61.004,177.058
12.8423,128.179992,37.943756,5795.4291,-0.956,-60.987,177.058
12.859,128.179992,37.943746,5791.690423200001,-0.954,-60.979,177.058
12.8757,128.179993,37.943735,5787.9535752,-0.952,-60.978,177.059
12.8924,128.179993,37.943724,5784.2191656,-0.95,-60.982,177.059
12.9091,128.179994,37.943714,5780.4865848,-0.949,-60.991,177.06
12.9257,128.179995,37.943703,5776.7561376,-0.947,-61.002,177.06
12.9424,128.179995,37.943692,5773.027824000001,-0.945,-61.015,177.061
12.9591,128.179996,37.943681,5769.3010343999995,-0.944,-61.03,177.061
12.9759,128.179996,37.94367,5765.576378400001,-0.942,-61.045,177.062
12.9926,128.179997,37.943659,5761.853551200001,-0.941,-61.06,177.062
13.0093,128.179998,37.943648,5758.1325528,-0.939,-61.074,177.063
13.026,128.179998,37.943636,5754.413078400001,-0.938,-61.097,177.063
13.0427,128.179999,37.943625,5750.6954328,-0.937,-61.13,177.064
13.0594,128.179999,37.943614,5746.979616,-0.937,-61.169,177.065
13.0761,128.18,37.943602,5743.2650184,-0.936,-61.212,177.066
13.0928,128.180001,37.943591,5739.5519448000005,-0.936,-61.259,177.067
13.1095,128.180001,37.943579,5735.8403952,-0.936,-61.306,177.068
13.1262,128.180002,37.943567,5732.1303696,-0.936,-61.352,177.069
13.1429,128.180003,37.943555,5728.4215632000005,-0.936,-61.397,177.07
13.1596,128.180003,37.943544,5724.7142808,-0.936,-61.44,177.072
13.1763,128.180004,37.943532,5721.0082176000005,-0.937,-61.479,177.073
13.193,128.180005,37.94352,5717.303373600001,-0.938,-61.514,177.075
13.2097,128.180005,37.943508,5713.5997488,-0.938,-61.546,177.076
13.2264,128.180006,37.943495,5709.897343199999,-0.939,-61.573,177.078
13.2431,128.180007,37.943483,5706.196156800001,-0.939,-61.596,177.079
13.2598,128.180008,37.943471,5702.4961895999995,-0.939,-61.614,177.08
13.2765,128.180008,37.943459,5698.797441600001,-0.939,-61.628,177.081
13.2932,128.180009,37.943446,5695.099608,-0.939,-61.638,177.081
13.3099,128.18001,37.943434,5691.4026888,-0.939,-61.644,177.082
13.3266,128.18001,37.943421,5687.7069888,-0.939,-61.647,177.082
13.3433,128.180011,37.943409,5684.0122032,-0.938,-61.645,177.082
13.36,128.180012,37.943396,5680.318636800001,-0.937,-61.641,177.082
13.3767,128.180013,37.943384,5676.6259848,-0.936,-61.634,177.081
13.3934,128.180013,37.943371,5672.934247200001,-0.935,-61.625,177.081
13.4101,128.180014,37.943358,5669.243424,-0.934,-61.613,177.08
13.4268,128.180015,37.943345,5665.5532104,-0.933,-61.599,177.079
13.4435,128.180016,37.943332,5661.864216,-0.932,-61.584,177.078
13.4602,128.180016,37.943319,5658.176136,-0.931,-61.567,177.077
13.4769,128.180017,37.943306,5654.488970400001,-0.929,-61.549,177.076
13.4936,128.180018,37.943293,5650.8024144,-0.928,-61.531,177.075
13.5103,128.180019,37.94328,5647.1167728,-0.928,-61.512,177.075
13.527,128.18002,37.943267,5643.431740800001,-0.927,-61.493,177.074
13.5437,128.18002,37.943254,5639.747928000001,-0.927,-61.473,177.074
13.5604,128.180021,37.94324,5636.064420000001,-0.927,-61.454,177.073
13.5771,128.180022,37.943227,5632.3821312,-0.926,-61.435,177.073
13.5938,128.180023,37.943213,5628.700147200001,-0.926,-61.415,177.073
13.6105,128.180024,37.9432,5625.0190776,-0.926,-61.396,177.072
13.6272,128.180024,37.943186,5621.3389224,-0.925,-61.378,177.072
13.6439,128.180025,37.943173,5617.659072,-0.925,-61.359,177.072
13.6606,128.180026,37.943159,5613.980136,-0.924,-61.341,177.071
13.6773,128.180027,37.943146,5610.3018096000005,-0.923,-61.324,177.071
13.694,128.180028,37.943132,5606.624092800001,-0.923,-61.306,177.07
13.7107,128.180029,37.943118,5602.9469856000005,-0.922,-61.29,177.069
13.7274,128.180029,37.943104,5599.270792800001,-0.921,-61.273,177.068
13.7441,128.18003,37.94309,5595.5949048,-0.92,-61.257,177.067
13.7608,128.180031,37.943076,5591.9196264,-0.919,-61.242,177.067
13.7775,128.180032,37.943062,5588.2446528,-0.918,-61.226,177.066
13.7942,128.180033,37.943048,5584.5705935999995,-0.918,-61.212,177.065
13.8109,128.180034,37.943034,5580.8968392,-0.917,-61.197,177.064
13.8276,128.180035,37.94302,5577.2236944,-0.917,-61.183,177.063
13.8443,128.180035,37.943006,5573.5508544,-0.917,-61.17,177.063
13.861,128.180036,37.942992,5569.878624000001,-0.917,-61.157,177.063
13.8777,128.180037,37.942977,5566.2066984,-0.917,-61.144,177.063
13.8944,128.180038,37.942963,5562.5353824,-0.917,-61.132,177.062
13.9111,128.180039,37.942949,5558.8643712,-0.917,-61.12,177.062
13.9278,128.18004,37.942934,5555.193664800001,-0.916,-61.108,177.062
13.9445,128.180041,37.94292,5551.5235680000005,-0.916,-61.096,177.062
13.9612,128.180042,37.942905,5547.8534712,-0.916,-61.085,177.062
13.9779,128.180043,37.942891,5544.183984000001,-0.916,-61.073,177.061
13.9946,128.180043,37.942876,5540.5148016,-0.915,-61.062,177.061
14.0113,128.180044,37.942862,5536.845924,-0.915,-61.051,177.06
14.028,128.180045,37.942847,5533.1770464,-0.914,-61.04,177.06
14.0447,128.180046,37.942832,5529.508778400001,-0.914,-61.029,177.059
14.0614,128.180047,37.942817,5525.8405104,-0.913,-61.019,177.058
14.0781,128.180048,37.942802,5522.172547200001,-0.913,-61.008,177.057
14.0948,128.180049,37.942788,5518.5048888,-0.912,-60.998,177.056
14.1115,128.18005,37.942773,5514.8375352,-0.912,-60.988,177.056
14.1282,128.180051,37.942758,5511.1701816,-0.912,-60.978,177.055
14.1449,128.180052,37.942743,5507.502828000001,-0.912,-60.968,177.055
14.1616,128.180053,37.942728,5503.8360840000005,-0.912,-60.959,177.055
14.1783,128.180054,37.942713,5500.1690352,-0.913,-60.95,177.055
14.195,128.180055,37.942698,5496.502596,-0.913,-60.941,177.055
14.2117,128.180056,37.942682,5492.835852000001,-0.913,-60.932,177.055
14.2284,128.180057,37.942667,5489.1694128,-0.913,-60.924,177.055
14.2451,128.180058,37.942652,5485.5032784,-0.913,-60.915,177.055
14.2618,128.180059,37.942637,5481.8368392,-0.913,-60.907,177.054
14.2785,128.18006,37.942621,5478.170704800001,-0.913,-60.899,177.054
14.2952,128.180061,37.942606,5474.504875199999,-0.912,-60.89,177.054
14.3119,128.180062,37.942591,5470.8387408,-0.912,-60.882,177.053
14.3286,128.180062,37.942575,5467.172911200001,-0.912,-60.874,177.052
14.3453,128.180063,37.94256,5463.5067768,-0.912,-60.866,177.052
14.362,128.180064,37.942544,5459.8409472,-0.912,-60.858,177.051
14.3787,128.180065,37.942529,5456.1748128,-0.912,-60.851,177.051
14.3954,128.180066,37.942513,5452.5089832,-0.912,-60.844,177.051
14.4121,128.180067,37.942498,5448.8428488,-0.912,-60.836,177.051
14.4288,128.180068,37.942482,5445.1770192,-0.912,-60.829,177.051
14.4455,128.180069,37.942466,5441.5108848,-0.913,-60.822,177.052
14.4622,128.18007,37.94245,5437.8447504000005,-0.913,-60.816,177.052
14.4789,128.180072,37.942435,5434.178616,-0.913,-60.809,177.052
14.4956,128.180073,37.942419,5430.5121768,-0.912,-60.802,177.052
14.5123,128.180074,37.942403,5426.845737600001,-0.912,-60.795,177.051
14.529,128.180075,37.942387,5423.1792984,-0.912,-60.789,177.051
14.5457,128.180076,37.942371,5419.5128592,-0.912,-60.782,177.051
14.5624,128.180077,37.942355,5415.846115200001,-0.911,-60.775,177.05
14.5791,128.180078,37.942339,5412.1793712,-0.911,-60.769,177.049
14.5958,128.180079,37.942323,5408.5123224,-0.911,-60.762,177.049
14.6125,128.18008,37.942307,5404.8449688,-0.911,-60.756,177.048
14.6292,128.180081,37.942291,5401.1776152,-0.911,-60.75,177.048
14.6459,128.180082,37.942275,5397.5099568000005,-0.911,-60.744,177.048
14.6626,128.180083,37.942259,5393.8422984,-0.911,-60.738,177.048
14.6793,128.180084,37.942243,5390.1743352,-0.912,-60.732,177.049
14.696,128.180085,37.942227,5386.5060672,-0.912,-60.726,177.049
14.7127,128.180086,37.942211,5382.8374944,-0.912,-60.721,177.049
14.7294,128.180087,37.942194,5379.1689216,-0.912,-60.715,177.049
14.7461,128.180088,37.942178,5375.500044,-0.911,-60.709,177.049
14.7628,128.180089,37.942162,5371.8305568000005,-0.911,-60.704,177.049
14.7795,128.18009,37.942145,5368.161069600001,-0.911,-60.698,177.048
14.7962,128.180091,37.942129,5364.4912776,-0.911,-60.693,177.048
14.8129,128.180092,37.942113,5360.8214856,-0.911,-60.687,177.047
14.8296,128.180093,37.942096,5357.151084000001,-0.91,-60.682,177.047
14.8463,128.180095,37.94208,5353.480377600001,-0.91,-60.676,177.046
14.863,128.180096,37.942063,5349.8093664,-0.91,-60.671,177.046
14.8797,128.180097,37.942047,5346.1377456,-0.911,-60.666,177.045
14.8964,128.180098,37.94203,5342.466124800001,-0.911,-60.661,177.046
14.9131,128.180099,37.942013,5338.7938944,-0.911,-60.656,177.046
14.9298,128.1801,37.941997,5335.1213592,-0.912,-60.652,177.046
14.9465,128.180101,37.94198,5331.4485192,-0.912,-60.647,177.046
14.9632,128.180102,37.941964,5327.775374400001,-0.912,-60.642,177.046
14.9799,128.180103,37.941947,5324.10162,-0.912,-60.638,177.046
14.9966,128.180104,37.94193,5320.427560800001,-0.912,-60.633,177.046
15.0133,128.180105,37.941913,5316.7531968,-0.912,-60.629,177.046
15.03,128.180107,37.941897,5313.0782232,-0.911,-60.624,177.046
15.0467,128.180108,37.94188,5309.4029448,-0.911,-60.62,177.045
15.0634,128.180109,37.941863,5305.727056800001,-0.911,-60.615,177.045
15.0801,128.18011,37.941846,5302.050864000001,-0.911,-60.611,177.044
