Time,Longitude,Latitude,Altitude,Roll (deg),Pitch (deg),Yaw (deg)
0.0,128.181881,37.968463,7002.830292000001,0.0,-0.003,179.999
0.0167,128.181881,37.968418,7002.8116992000005,0.0,-0.012,180.0
0.0334,128.181881,37.968374,7002.793411200001,-0.087,-0.025,179.988
0.0501,128.181881,37.968329,7002.775428000001,-0.258,-0.041,179.965
0.0668,128.181881,37.968284,7002.7577496,-0.516,-0.059,179.935
0.0834,128.181881,37.968239,7002.7409856,-0.864,-0.076,179.902
0.1002,128.181881,37.968194,7002.725745600001,-1.3,-0.093,179.867
0.1169,128.181881,37.968149,7002.712029599999,-1.824,-0.107,179.832
0.1336,128.181881,37.968104,7002.700447200001,-2.432,-0.119,179.797
0.1503,128.181881,37.968059,7002.6909984,-3.122,-0.126,179.763
0.1669,128.181881,37.968014,7002.684292800001,-3.891,-0.128,179.73
0.1837,128.181881,37.967969,7002.6797208,-4.734,-0.125,179.697
0.2004,128.181881,37.967924,7002.677282400001,-5.649,-0.115,179.665
0.2171,128.181881,37.967879,7002.677282400001,-6.633,-0.098,179.633
0.2338,128.181881,37.967834,7002.6797208,-7.683,-0.074,179.6
0.2505,128.181881,37.967789,7002.684597600001,-8.794,-0.042,179.567
0.2672,128.181881,37.967744,7002.691608,-9.966,-0.002,179.533
0.2839,128.181881,37.967699,7002.7013615999995,-11.194,0.044,179.497
0.3006,128.181881,37.967654,7002.7135536000005,-12.477,0.1,179.46
0.3172,128.181881,37.967609,7002.7281840000005,-13.811,0.164,179.42
0.3339,128.181881,37.967564,7002.7455576,-15.193,0.236,179.378
0.3507,128.181881,37.967519,7002.7656744000005,-16.622,0.315,179.333
0.3674,128.181881,37.967474,7002.7885344,-18.095,0.402,179.284
0.3841,128.181882,37.967429,7002.814442400001,-19.61,0.496,179.231
0.4008,128.181882,37.967384,7002.8430935999995,-21.164,0.597,179.174
0.4175,128.181882,37.967339,7002.874792800001,-22.757,0.703,179.112
0.4342,128.181882,37.967294,7002.909540000001,-24.385,0.815,179.045
0.4509,128.181882,37.967249,7002.9473352,-26.048,0.931,178.972
0.4676,128.181883,37.967204,7002.988483200001,-27.744,1.051,178.894
0.4843,128.181883,37.967159,7003.032984000001,-29.472,1.173,178.81
0.501,128.181883,37.967114,7003.080532800001,-31.23,1.298,178.72
0.5176,128.181884,37.967069,7003.1317392,-33.018,1.424,178.625
0.5344,128.181884,37.967024,7003.1859936,-34.834,1.55,178.523
0.5511,128.181885,37.966979,7003.2439056,-36.678,1.676,178.415
0.5678,128.181885,37.966934,7003.305170400001,-38.548,1.8,178.302
0.5845,128.181886,37.966889,7003.369483200001,-40.445,1.922,178.184
0.6012,128.181887,37.966844,7003.4374536000005,-42.367,2.037,178.063
0.6179,128.181887,37.966799,7003.5081672,-44.314,2.145,177.941
0.6345,128.181888,37.966754,7003.582233600001,-46.285,2.243,177.82
0.6513,128.181889,37.966709,7003.659043199999,-48.281,2.331,177.701
0.6679,128.18189,37.966664,7003.737072,-50.115,2.41,177.605
0.6847,128.181891,37.966619,7003.816624800001,-51.793,2.473,177.543
0.7014,128.181892,37.966574,7003.897092000001,-53.315,2.509,177.523
0.7181,128.181893,37.966529,7003.9784736,-54.681,2.521,177.539
0.7348,128.181894,37.966484,7004.060160000001,-55.893,2.513,177.579
0.7514,128.181895,37.966439,7004.141846400001,-56.964,2.497,177.638
0.7682,128.181896,37.966394,7004.223532800001,-57.899,2.476,177.707
0.7848,128.181897,37.966349,7004.304609600001,-58.699,2.45,177.779
0.8016,128.181899,37.966304,7004.384772,-59.374,2.425,177.855
0.8183,128.1819,37.966259,7004.4637152000005,-59.932,2.403,177.932
0.835,128.181901,37.966214,7004.5414392,-60.375,2.382,178.008
0.8517,128.181903,37.966169,7004.6176392,-60.709,2.364,178.082
0.8684,128.181904,37.966124,7004.6917056,-60.938,2.348,178.155
0.8851,128.181905,37.966079,7004.7642479999995,-61.065,2.334,178.226
0.9018,128.181907,37.966034,7004.834047200001,-61.093,2.321,178.294
0.9185,128.181908,37.965988,7004.9020176,-61.031,2.309,178.358
0.9352,128.181909,37.965943,7004.9672448,-60.894,2.295,178.42
0.9519,128.181911,37.965898,7005.030948,-60.696,2.281,178.478
0.9686,128.181912,37.965853,7005.0925176,-60.446,2.266,178.534
0.9853,128.181913,37.965808,7005.1519536000005,-60.155,2.251,178.587
1.002,128.181915,37.965763,7005.209560800001,-59.827,2.235,178.637
1.0187,128.181916,37.965718,7005.2653392,-59.467,2.219,178.686
1.0353,128.181917,37.965672,7005.3189840000005,-59.077,2.203,178.732
1.0521,128.181919,37.965627,7005.370800000001,-58.66,2.186,178.777
1.0688,128.18192,37.965582,7005.420482400001,-58.216,2.169,178.82
1.0855,128.181922,37.965537,7005.4680312,-57.746,2.152,178.862
1.1022,128.181923,37.965491,7005.5134464,-57.25,2.135,178.903
1.1189,128.181924,37.965446,7005.5567280000005,-56.728,2.118,178.942
1.1356,128.181926,37.965401,7005.597876,-56.179,2.1,178.98
1.1522,128.181927,37.965356,7005.6368904,-55.602,2.083,179.018
1.169,128.181929,37.96531,7005.6734664,-54.996,2.066,179.055
1.1857,128.18193,37.965265,7005.7079088,-54.36,2.048,179.091
1.2024,128.181931,37.96522,7005.739608,-53.694,2.03,179.126
1.2191,128.181933,37.965174,7005.769173600001,-52.995,2.012,179.161
1.2358,128.181934,37.965129,7005.795996000001,-52.263,1.994,179.196
1.2525,128.181936,37.965084,7005.82038,-51.495,1.975,179.23
1.2691,128.181937,37.965038,7005.8423256,-50.691,1.956,179.265
1.2859,128.181938,37.964993,7005.861528,-49.85,1.937,179.299
1.3026,128.18194,37.964947,7005.877682400001,-48.968,1.917,179.332
1.3193,128.181941,37.964902,7005.8913984,-48.046,1.896,179.366
1.3359,128.181943,37.964856,7005.9020664,-47.081,1.875,179.4
1.3527,128.181944,37.964811,7005.9099912,-46.073,1.853,179.434
1.3694,128.181945,37.964765,7005.9145632,-45.018,1.83,179.469
1.386,128.181947,37.96472,7005.916696800001,-43.919,1.806,179.503
1.4028,128.181948,37.964674,7005.9154776000005,-42.775,1.781,179.537
1.4195,128.181949,37.964629,7005.9115152,-41.589,1.754,179.571
1.4362,128.18195,37.964583,7005.904504800001,-40.362,1.726,179.605
1.4528,128.181952,37.964538,7005.8947512,-39.096,1.696,179.639
1.4696,128.181953,37.964492,7005.881949600001,-37.793,1.665,179.672
1.4863,128.181954,37.964447,7005.8664048,-36.453,1.632,179.705
1.5029,128.181956,37.964401,7005.8481168,-35.078,1.597,179.738
1.5197,128.181957,37.964355,7005.8267808,-33.67,1.56,179.77
1.5364,128.181958,37.96431,7005.802396800001,-32.229,1.522,179.802
1.5531,128.181959,37.964264,7005.775269600001,-30.757,1.482,179.833
1.5697,128.181961,37.964218,7005.7453992,-29.255,1.44,179.864
1.5865,128.181962,37.964173,7005.7127856,-27.725,1.396,179.894
1.6032,128.181963,37.964127,7005.677428800001,-26.166,1.35,179.924
1.6198,128.181964,37.964081,7005.639024000001,-24.58,1.303,179.953
1.6366,128.181966,37.964035,7005.597876,-22.968,1.254,179.981
1.6533,128.181967,37.96399,7005.5542896,-21.33,1.203,180.008
1.67,128.181968,37.963944,7005.507655200001,-19.667,1.151,180.034
1.6867,128.181969,37.963898,7005.458277600001,-17.981,1.097,180.059
1.7034,128.181971,37.963852,7005.4064616,-16.271,1.041,180.083
1.7201,128.181972,37.963807,7005.351597600001,-14.539,0.984,180.106
1.7368,128.181973,37.963761,7005.2942952,-12.784,0.925,180.127
1.7535,128.181974,37.963715,7005.2342496,-11.008,0.864,180.148
1.7702,128.181975,37.963669,7005.171460800001,-9.21,0.803,180.166
1.7869,128.181977,37.963623,7005.1062336,-7.392,0.74,180.184
1.8036,128.181978,37.963577,7005.0382632,-5.553,0.675,180.199
1.8203,128.181979,37.963531,7004.9675496,-3.694,0.61,180.213
1.837,128.18198,37.963485,7004.894397600001,-1.816,0.543,180.226
1.8537,128.181981,37.963439,7004.8185023999995,0.08,0.476,180.236
1.8704,128.181983,37.963394,7004.739864,1.997,0.407,180.245
1.8871,128.181984,37.963348,7004.658787200001,3.932,0.338,180.252
1.9038,128.181985,37.963302,7004.5749672,5.885,0.268,180.257
1.9205,128.181986,37.963256,7004.4887088000005,7.857,0.197,180.26
1.9372,128.181987,37.96321,7004.400012,9.847,0.132,180.262
1.9539,128.181988,37.963164,7004.309181600001,11.854,0.077,180.264
1.9706,128.18199,37.963117,7004.215608,13.88,0.039,180.268
1.9873,128.181991,37.963071,7004.1202056,15.922,0.019,180.275
2.004,128.181992,37.963025,7004.022974400001,17.982,0.018,180.287
2.0207,128.181993,37.962979,7003.9236096,20.059,0.036,180.306
2.0374,128.181994,37.962933,7003.8227208,22.152,0.073,180.331
2.0541,128.181995,37.962887,7003.7200032,24.261,0.126,180.365
2.0707,128.181997,37.962841,7003.6163712,26.386,0.195,180.408
2.0875,128.181998,37.962795,7003.511215200001,28.525,0.278,180.46
2.1042,128.181999,37.962749,7003.4051448,30.679,0.371,180.523
2.1208,128.182,37.962702,7003.29816,32.848,0.474,180.596
2.1376,128.182001,37.962656,7003.190565600001,35.031,0.584,180.679
2.1543,128.182002,37.96261,7003.0829712,37.222,0.699,180.773
2.171,128.182003,37.962564,7002.975986400001,39.41,0.818,180.876
2.1877,128.182004,37.962518,7002.869306400001,41.589,0.94,180.988
2.2044,128.182005,37.962471,7002.763236000001,43.751,1.062,181.109
2.2211,128.182006,37.962425,7002.6583848,45.89,1.183,181.238
2.2378,128.182007,37.962379,7002.553838400001,47.862,1.304,181.354
2.2544,128.182008,37.962333,7002.450511200001,49.666,1.411,181.448
2.2712,128.182009,37.962286,7002.3480984,51.309,1.495,181.508
2.2879,128.182009,37.96224,7002.2469048,52.793,1.547,181.525
2.3045,128.18201,37.962194,7002.1466256,54.12,1.558,181.488
2.3213,128.182011,37.962148,7002.047565600001,55.296,1.537,181.41
2.338,128.182011,37.962101,7001.949724800001,56.327,1.495,181.304
2.3546,128.182012,37.962055,7001.8531032,57.221,1.442,181.182
2.3714,128.182012,37.962009,7001.757700800001,57.983,1.384,181.055
2.3881,128.182013,37.961962,7001.6635176,58.622,1.328,180.929
2.4048,128.182013,37.961916,7001.5705536000005,59.144,1.273,180.806
2.4215,128.182013,37.96187,7001.4788088000005,59.553,1.223,180.688
2.4382,128.182014,37.961823,7001.388283200001,59.855,1.177,180.577
2.4549,128.182014,37.961777,7001.298976800001,60.053,1.135,180.473
2.4716,128.182014,37.961731,7001.2105848,60.152,1.097,180.375
2.4882,128.182014,37.961684,7001.123412,60.156,1.063,180.285
2.505,128.182014,37.961638,7001.0368488,60.069,1.032,180.202
2.5217,128.182014,37.961592,7000.9515048,59.894,1.004,180.125
2.5383,128.182013,37.961545,7000.866465600001,59.635,0.978,180.054
2.5551,128.182013,37.961499,7000.7823408,59.295,0.955,179.989
2.5718,128.182013,37.961453,7000.6988255999995,58.879,0.934,179.93
2.5884,128.182012,37.961406,7000.6156152,58.389,0.915,179.875
2.6052,128.182012,37.96136,7000.533319200001,57.829,0.898,179.826
2.6219,128.182012,37.961314,7000.451632800001,57.201,0.882,179.78
2.6386,128.182011,37.961267,7000.370556000001,56.509,0.867,179.739
2.6553,128.182011,37.961221,7000.2900887999995,55.755,0.853,179.701
2.6719,128.18201,37.961174,7000.2099264,54.942,0.84,179.666
2.6887,128.182009,37.961128,7000.130678400001,54.074,0.827,179.635
2.7054,128.182009,37.961082,7000.0520400000005,53.152,0.815,179.606
2.722,128.182008,37.961035,6999.974316,52.179,0.804,179.579
2.7388,128.182007,37.960989,6999.896896800001,51.158,0.792,179.555
2.7555,128.182006,37.960943,6999.8206968,50.091,0.781,179.533
2.7721,128.182006,37.960896,6999.744801600001,48.979,0.77,179.512
2.7889,128.182005,37.96085,6999.6701256,47.825,0.759,179.493
2.8056,128.182004,37.960803,6999.596364,46.632,0.748,179.475
2.8222,128.182003,37.960757,6999.5235168,45.4,0.737,179.459
2.839,128.182002,37.960711,6999.4518888,44.132,0.726,179.444
2.8557,128.182001,37.960664,6999.3811752,42.829,0.714,179.429
2.8724,128.182,37.960618,6999.3116808,41.493,0.702,179.416
2.8891,128.181999,37.960571,6999.2434056,40.126,0.689,179.403
2.9057,128.181998,37.960525,6999.1763496,38.729,0.676,179.392
2.9225,128.181996,37.960478,6999.1108176,37.303,0.662,179.38
2.9392,128.181995,37.960432,6999.046504800001,35.851,0.648,179.37
2.9558,128.181994,37.960386,6998.9840208,34.373,0.633,179.36
2.9726,128.181993,37.960339,6998.922756000001,32.87,0.617,179.351
2.9893,128.181992,37.960293,6998.863624800001,31.344,0.601,179.342
3.0059,128.18199,37.960246,6998.8057128,29.796,0.584,179.333
3.0227,128.181989,37.9602,6998.7499344,28.226,0.567,179.325
3.0394,128.181988,37.960153,6998.6959848,26.637,0.548,179.318
3.056,128.181986,37.960107,6998.643864000001,25.029,0.529,179.311
3.0728,128.181985,37.96006,6998.593572,23.402,0.509,179.305
3.0895,128.181983,37.960014,6998.545718400001,21.758,0.488,179.299
3.1062,128.181982,37.959967,6998.4996936,20.097,0.466,179.293
3.1229,128.181981,37.959921,6998.4561072,18.421,0.444,179.289
3.1395,128.181979,37.959874,6998.414349600001,16.73,0.421,179.284
3.1563,128.181978,37.959828,6998.3750304,15.023,0.397,179.281
3.173,128.181976,37.959781,6998.3381496,13.303,0.372,179.278
3.1896,128.181975,37.959735,6998.3037072,11.57,0.346,179.275
3.2064,128.181973,37.959688,6998.2713984,9.823,0.32,179.273
3.2231,128.181972,37.959642,6998.2415280000005,8.064,0.293,179.272
3.2397,128.18197,37.959595,6998.2144008000005,6.293,0.265,179.272
3.2565,128.181969,37.959549,6998.1894072,4.509,0.237,179.272
3.2732,128.181967,37.959502,6998.167156800001,2.714,0.208,179.273
3.2899,128.181966,37.959456,6998.14704,0.908,0.178,179.275
3.3066,128.181964,37.959409,6998.1296664,-0.908,0.149,179.278
3.3233,128.181963,37.959363,6998.115036,-2.735,0.12,179.281
3.34,128.181961,37.959316,6998.1025392,-4.573,0.09,179.285
3.3567,128.18196,37.95927,6998.0927856,-6.421,0.06,179.29
3.3734,128.181959,37.959223,6998.085470400001,-8.28,0.037,179.296
3.3901,128.181957,37.959177,6998.0812032,-10.148,0.024,179.3
3.4068,128.181956,37.95913,6998.079374400001,-12.025,0.025,179.301
3.4235,128.181954,37.959084,6998.0805936,-13.913,0.044,179.3
3.4402,128.181953,37.959037,6998.082727200001,-15.625,0.069,179.319
3.4569,128.181952,37.958991,6998.08608,-17.169,0.088,179.364
3.4736,128.18195,37.958944,6998.090956800001,-18.539,0.097,179.425
3.4903,128.181949,37.958898,6998.0964432,-19.73,0.096,179.497
3.507,128.181948,37.958852,6998.1022344,-20.744,0.089,179.573
3.5237,128.181946,37.958805,6998.1086352,-21.585,0.078,179.649
3.5404,128.181945,37.958759,6998.1144264,-22.259,0.064,179.725
3.5571,128.181944,37.958712,6998.1199128,-22.774,0.05,179.799
3.5738,128.181943,37.958666,6998.1244848,-23.137,0.036,179.871
3.5905,128.181941,37.958619,6998.127837600001,-23.354,0.022,179.941
3.6072,128.18194,37.958573,6998.1293616,-23.433,0.008,180.008
3.6239,128.181939,37.958526,6998.1293616,-23.38,-0.004,180.074
3.6406,128.181938,37.95848,6998.1269232,-23.201,-0.016,180.138
3.6573,128.181937,37.958433,6998.121741600001,-22.902,-0.028,180.199
3.674,128.181935,37.958387,6998.1138168,-22.488,-0.04,180.259
3.6907,128.181934,37.95834,6998.1025392,-21.965,-0.052,180.317
3.7074,128.181933,37.958294,6998.0879088,-21.337,-0.064,180.373
3.7241,128.181932,37.958247,6998.069316,-20.61,-0.077,180.428
3.7408,128.181931,37.958201,6998.047370400001,-19.788,-0.09,180.481
3.7575,128.181929,37.958154,6998.022072,-18.876,-0.105,180.532
3.7742,128.181928,37.958107,6997.993116,-17.877,-0.12,180.582
3.7909,128.181927,37.958061,6997.9605024,-16.797,-0.136,180.63
3.8076,128.181926,37.958014,6997.924536,-15.638,-0.153,180.677
3.8243,128.181924,37.957968,6997.8846072,-14.405,-0.171,180.722
3.841,128.181923,37.957921,6997.8416304,-13.101,-0.19,180.766
3.8577,128.181922,37.957874,6997.794691200001,-11.729,-0.211,180.808
3.8744,128.181921,37.957828,6997.7443992,-10.293,-0.233,180.849
3.8911,128.18192,37.957781,6997.6907544000005,-8.796,-0.256,180.889
3.9078,128.181918,37.957735,6997.633147200001,-7.24,-0.28,180.927
3.9245,128.181917,37.957688,6997.572492,-5.629,-0.306,180.964
3.9412,128.181916,37.957641,6997.507874400001,-3.965,-0.333,180.999
3.9579,128.181915,37.957595,6997.439904,-2.251,-0.361,181.033
3.9746,128.181913,37.957548,6997.3685808,-0.489,-0.391,181.065
3.9913,128.181912,37.957501,6997.2936,1.318,-0.422,181.095
4.008,128.181911,37.957455,6997.2152664,3.17,-0.454,181.124
4.0247,128.18191,37.957408,6997.13358,5.063,-0.481,181.152
4.0414,128.181909,37.957361,6997.0485408,6.996,-0.499,181.179
4.058,128.181907,37.957315,6996.9607584000005,8.966,-0.504,181.207
4.0748,128.181906,37.957268,6996.8696232,10.972,-0.491,181.236
4.0915,128.181905,37.957221,6996.7760496,13.012,-0.462,181.269
4.1082,128.181904,37.957174,6996.6797328,15.085,-0.414,181.306
4.1249,128.181903,37.957128,6996.580977600001,17.188,-0.35,181.348
4.1415,128.181901,37.957081,6996.479784000001,19.32,-0.27,181.397
4.1583,128.1819,37.957034,6996.376456800001,21.478,-0.177,181.453
4.175,128.181899,37.956987,6996.271605600001,23.663,-0.071,181.518
4.1917,128.181898,37.956941,6996.1649256,25.87,0.044,181.59
4.2084,128.181897,37.956894,6996.0567216,28.101,0.167,181.672
4.2251,128.181895,37.956847,6995.9472984,30.353,0.297,181.763
4.2417,128.181894,37.9568,6995.836656,32.626,0.428,181.862
4.2585,128.181893,37.956753,6995.725708800001,34.912,0.559,181.967
4.2752,128.181892,37.956707,6995.614456800001,37.204,0.685,182.077
4.2919,128.18189,37.95666,6995.5029,39.493,0.804,182.189
4.3086,128.181889,37.956613,6995.391648,41.775,0.912,182.3
4.3252,128.181888,37.956566,6995.280396,44.046,1.008,182.41
4.342,128.181886,37.956519,6995.169144,46.305,1.089,182.515
4.3587,128.181885,37.956473,6995.057892000001,48.553,1.156,182.613
4.3754,128.181884,37.956426,6994.94664,50.793,1.206,182.704
4.3921,128.181882,37.956379,6994.835083200001,53.029,1.24,182.785
4.4088,128.181881,37.956332,6994.7232216,55.268,1.258,182.854
4.4254,128.181879,37.956285,6994.6104456,57.519,1.259,182.91
4.4422,128.181878,37.956238,6994.496450400001,59.795,1.244,182.951
4.4589,128.181876,37.956192,6994.381236,62.099,1.214,182.975
4.4756,128.181875,37.956145,6994.2651072,64.435,1.17,182.979
4.4923,128.181873,37.956098,6994.1471496,66.801,1.112,182.962
4.5089,128.181872,37.956051,6994.0270584,69.003,1.055,182.912
4.5256,128.18187,37.956004,6993.905443199999,71.051,1.004,182.837
4.5424,128.181869,37.955957,6993.7826088,72.942,0.958,182.748
4.5591,128.181867,37.95591,6993.658555200001,74.676,0.916,182.653
4.5758,128.181865,37.955863,6993.532368,76.266,0.881,182.556
4.5925,128.181864,37.955816,6993.4049616,77.712,0.853,182.462
4.6091,128.181862,37.955769,6993.276336,79.016,0.826,182.373
4.6259,128.18186,37.955723,6993.1455768000005,80.187,0.806,182.29
4.6426,128.181858,37.955676,6993.0132936,81.232,0.79,182.212
4.6593,128.181856,37.955629,6992.8797912,82.154,0.779,182.141
4.676,128.181855,37.955582,6992.744460000001,82.957,0.771,182.077
4.6927,128.181853,37.955535,6992.6076048,83.642,0.764,182.02
4.7093,128.181851,37.955488,6992.4692256,84.228,0.754,181.969
4.7261,128.181849,37.955441,6992.329627200001,84.747,0.738,181.925
4.7428,128.181846,37.955394,6992.1885048,85.233,0.715,181.888
4.7595,128.181844,37.955347,6992.0455536,85.711,0.685,181.855
4.7762,128.181842,37.9553,6991.9007736,86.201,0.649,181.828
4.7928,128.18184,37.955254,6991.753860000001,86.714,0.61,181.805
4.8096,128.181838,37.955207,6991.6051176,87.259,0.569,181.785
4.8263,128.181836,37.95516,6991.4542416,87.838,0.527,181.768
4.843,128.181834,37.955113,6991.301232000001,88.454,0.485,181.753
4.8597,128.181831,37.955066,6991.1460888,89.105,0.444,181.74
4.8764,128.181829,37.955019,6990.988812,89.791,0.403,181.73
4.893,128.181827,37.954972,6990.829401600001,90.514,0.362,181.721
4.9098,128.181825,37.954925,6990.6681624,91.338,0.315,181.713
4.9265,128.181823,37.954878,6990.5047896,92.261,0.262,181.707
4.9432,128.18182,37.954831,6990.339588000001,93.283,0.205,181.701
4.9599,128.181818,37.954784,6990.171948,94.403,0.148,181.695
4.9765,128.181816,37.954737,6990.0021744000005,95.613,0.09,181.69
4.9932,128.181814,37.95469,6989.8302672,96.902,0.035,181.685
5.01,128.181812,37.954643,6989.6562264,98.261,-0.018,181.681
5.0267,128.18181,37.954596,6989.480356800001,99.682,-0.069,181.677
5.0434,128.181808,37.954549,6989.3020488,101.157,-0.118,181.673
5.0601,128.181806,37.954502,6989.121912,102.683,-0.167,181.67
5.0767,128.181803,37.954455,6988.939641600001,104.256,-0.214,181.667
5.0935,128.181801,37.954408,6988.755542400001,105.875,-0.26,181.664
5.1102,128.181799,37.954361,6988.5693096,107.537,-0.305,181.662
5.1269,128.181797,37.954314,6988.3815528,109.243,-0.351,181.658
5.1436,128.181795,37.954267,6988.1919672,110.993,-0.395,181.655
5.1602,128.181793,37.95422,6988.0005528,112.785,-0.44,181.652
5.1769,128.181791,37.954173,6987.807309600001,114.622,-0.484,181.648
5.1937,128.181789,37.954126,6987.612542400001,116.504,-0.528,181.643
5.2104,128.181787,37.954079,6987.416556000001,118.43,-0.572,181.638
5.2271,128.181785,37.954032,6987.219045600001,120.404,-0.616,181.633
5.2438,128.181783,37.953985,6987.020316,122.425,-0.66,181.626
5.2604,128.181781,37.953938,6986.8200624,124.494,-0.703,181.619
5.2772,128.18178,37.953891,6986.6191992,126.61,-0.745,181.612
5.2939,128.181778,37.953844,6986.416812,128.775,-0.787,181.603
5.3106,128.181776,37.953797,6986.213815200001,130.986,-0.829,181.593
5.3273,128.181774,37.95375,6986.009599200001,133.241,-0.87,181.583
5.3439,128.181772,37.953702,6985.804468800001,135.537,-0.909,181.572
5.3606,128.18177,37.953655,6985.598728800001,137.872,-0.948,181.56
5.3774,128.181768,37.953608,6985.392074400001,140.243,-0.985,181.548
5.3941,128.181767,37.953561,6985.1845056,142.65,-1.021,181.535
5.4108,128.181765,37.953514,6984.976632000001,145.088,-1.057,181.521
5.4275,128.181763,37.953467,6984.767844,147.557,-1.09,181.507
5.4441,128.181761,37.95342,6984.5584464,150.055,-1.123,181.492
5.4609,128.18176,37.953373,6984.3484392,152.578,-1.154,181.476
5.4776,128.181758,37.953325,6984.1378224,155.126,-1.184,181.46
5.4943,128.181756,37.953278,6983.926596,157.697,-1.213,181.443
5.511,128.181754,37.953231,6983.715064800001,160.289,-1.24,181.426
5.5277,128.181753,37.953184,6983.5026192000005,162.9,-1.265,181.408
5.5443,128.181751,37.953137,6983.2898688000005,165.529,-1.289,181.39
5.5611,128.181749,37.95309,6983.076813600001,168.173,-1.312,181.372
5.5778,128.181748,37.953042,6982.862844,170.832,-1.332,181.353
5.5945,128.181746,37.952995,6982.648569600001,173.504,-1.351,181.334
5.6112,128.181744,37.952948,6982.4333808,176.188,-1.371,181.316
5.6278,128.181742,37.952901,6982.2175824000005,178.882,-1.396,181.297
5.6445,128.181741,37.952854,6982.000564800001,-178.415,-1.434,181.279
5.6613,128.181739,37.952807,6981.782632800001,-175.705,-1.487,181.259
5.678,128.181737,37.952759,6981.5631768,-172.989,-1.557,181.237
5.6947,128.181736,37.952712,6981.342501600001,-170.268,-1.646,181.211
5.7114,128.181734,37.952665,6981.119997600001,-167.546,-1.752,181.18
5.728,128.181732,37.952618,6980.894750400001,-164.834,-1.875,181.142
5.7448,128.18173,37.95257,6980.6664552,-162.142,-2.014,181.096
5.7615,128.181729,37.952523,6980.4348072,-159.481,-2.167,181.043
5.7782,128.181727,37.952476,6980.199501600001,-156.86,-2.332,180.98
5.7949,128.181725,37.952429,6979.959624000001,-154.285,-2.505,180.907
5.8115,128.181723,37.952381,6979.715784000001,-151.759,-2.686,180.823
5.8282,128.181722,37.952334,6979.4667624,-149.284,-2.869,180.73
5.845,128.18172,37.952287,6979.213168800001,-146.862,-3.054,180.626
5.8617,128.181718,37.95224,6978.9543936,-144.491,-3.236,180.512
5.8784,128.181717,37.952193,6978.690132000001,-142.171,-3.415,180.39
5.8951,128.181715,37.952145,6978.4206888,-139.899,-3.588,180.261
5.9117,128.181713,37.952098,6978.145759200001,-137.673,-3.755,180.125
5.9285,128.181712,37.952051,6977.8653432,-135.491,-3.913,179.983
5.9452,128.18171,37.952004,6977.579136,-133.351,-4.063,179.837
5.9619,128.181709,37.951956,6977.287442400001,-131.251,-4.204,179.687
5.9786,128.181707,37.951909,6976.9899576,-129.189,-4.335,179.533
5.9952,128.181706,37.951862,6976.6863768,-127.163,-4.458,179.378
6.0119,128.181704,37.951815,6976.3773096,-125.174,-4.572,179.219
6.0287,128.181703,37.951767,6976.0621464000005,-123.22,-4.678,179.058
6.0454,128.181702,37.95172,6975.741192,-121.303,-4.776,178.896
6.0621,128.1817,37.951673,6975.414751200001,-119.42,-4.867,178.731
6.0788,128.181699,37.951626,6975.0825192,-117.573,-4.949,178.566
6.0954,128.181698,37.951579,6974.744496,-115.762,-5.025,178.4
6.1121,128.181697,37.951531,6974.4006816,-113.988,-5.093,178.232
6.1289,128.181696,37.951484,6974.0516856,-112.251,-5.155,178.064
6.1456,128.181695,37.951437,6973.6968984,-110.552,-5.21,177.896
6.1623,128.181694,37.95139,6973.3369296,-108.891,-5.259,177.727
6.179,128.181693,37.951342,6972.971779200001,-107.27,-5.301,177.558
6.1956,128.181693,37.951295,6972.6017520000005,-105.689,-5.338,177.388
6.2124,128.181692,37.951248,6972.2262384000005,-104.151,-5.37,177.216
6.2291,128.181691,37.951201,6971.8461528,-102.657,-5.396,177.044
6.2458,128.181691,37.951154,6971.4614952,-101.205,-5.418,176.871
6.2625,128.18169,37.951107,6971.072265600001,-99.797,-5.434,176.698
6.2791,128.18169,37.951059,6970.6787688,-98.435,-5.445,176.525
6.2958,128.18169,37.951012,6970.2807,-97.116,-5.452,176.353
6.3126,128.18169,37.950965,6969.878973600001,-95.84,-5.453,176.183
6.3293,128.18169,37.950918,6969.4732848,-94.607,-5.45,176.015
6.346,128.18169,37.950871,6969.063633600001,-93.419,-5.442,175.849
6.3627,128.18169,37.950824,6968.6506296,-92.274,-5.43,175.684
6.3793,128.18169,37.950777,6968.2342728,-91.174,-5.415,175.521
6.3961,128.181691,37.950729,6967.814868,-90.117,-5.395,175.36
6.4128,128.181691,37.950682,6967.392110400001,-89.104,-5.373,175.2
6.4295,128.181692,37.950635,6966.9666096,-88.137,-5.347,175.042
6.4462,128.181692,37.950588,6966.538365600001,-87.215,-5.319,174.885
6.4628,128.181693,37.950541,6966.107683200001,-86.336,-5.287,174.73
6.4795,128.181694,37.950494,6965.6745624000005,-85.501,-5.253,174.577
6.4963,128.181695,37.950447,6965.2390032,-84.71,-5.217,174.427
6.513,128.181696,37.9504,6964.801310400001,-83.962,-5.178,174.28
6.5297,128.181697,37.950353,6964.3617888,-83.258,-5.138,174.132
6.5464,128.181699,37.950306,6963.9204384,-82.597,-5.096,173.987
6.5631,128.1817,37.950259,6963.4772592,-81.978,-5.052,173.845
6.5798,128.181702,37.950212,6963.0319464,-81.323,-5.003,173.706
6.5965,128.181703,37.950165,6962.585109600001,-80.644,-4.948,173.57
6.6132,128.181705,37.950118,6962.1367488,-79.957,-4.891,173.435
6.6299,128.181707,37.950071,6961.6871688,-79.28,-4.834,173.301
6.6466,128.181709,37.950024,6961.236674400001,-78.628,-4.779,173.167
6.6633,128.181711,37.949977,6960.7852656000005,-78.016,-4.725,173.032
6.68,128.181713,37.94993,6960.333247200001,-77.454,-4.673,172.893
6.6967,128.181716,37.949883,6959.880924000001,-76.947,-4.622,172.748
6.7134,128.181718,37.949836,6959.4279912,-76.497,-4.573,172.602
6.7301,128.181721,37.949789,6958.9747536,-76.102,-4.523,172.454
6.7468,128.181723,37.949742,6958.521211200001,-75.756,-4.475,172.305
6.7635,128.181726,37.949695,6958.0676688,-75.452,-4.429,172.156
6.7802,128.181729,37.949648,6957.6138216,-75.186,-4.386,172.011
6.7969,128.181732,37.949601,6957.1599744000005,-74.956,-4.347,171.874
6.8136,128.181735,37.949554,6956.7058224,-74.766,-4.314,171.747
6.8303,128.181739,37.949507,6956.2519752,-74.621,-4.284,171.633
6.847,128.181742,37.949461,6955.798128,-74.527,-4.26,171.53
6.8637,128.181746,37.949414,6955.3445856,-74.491,-4.239,171.435
6.8804,128.181749,37.949367,6954.891348,-74.52,-4.222,171.348
6.8971,128.181753,37.94932,6954.438415200001,-74.618,-4.208,171.269
6.9138,128.181757,37.949273,6953.986092000001,-74.792,-4.198,171.193
6.9305,128.181761,37.949227,6953.533768800001,-75.045,-4.19,171.121
6.9472,128.181765,37.94918,6953.0820552000005,-75.379,-4.184,171.048
6.9639,128.18177,37.949133,6952.6303416,-75.794,-4.18,170.975
6.9806,128.181774,37.949086,6952.1789328,-76.287,-4.177,170.9
6.9973,128.181779,37.94904,6951.727524000001,-76.856,-4.175,170.821
7.014,128.181783,37.948993,6951.2758104,-77.493,-4.173,170.737
7.0307,128.181788,37.948946,6950.824096800001,-78.195,-4.171,170.649
7.0474,128.181793,37.9489,6950.371773600001,-78.958,-4.17,170.558
7.0641,128.181798,37.948853,6949.9188408,-79.775,-4.17,170.463
7.0808,128.181803,37.948806,6949.4652984,-80.64,-4.171,170.364
7.0975,128.181809,37.94876,6949.0108416,-81.545,-4.172,170.261
7.1142,128.181814,37.948713,6948.555165600001,-82.48,-4.174,170.151
7.1309,128.18182,37.948667,6948.098270400001,-83.441,-4.177,170.036
7.1476,128.181826,37.94862,6947.6398512000005,-84.42,-4.182,169.915
7.1643,128.181831,37.948574,6947.179908,-85.406,-4.188,169.787
7.181,128.181837,37.948527,6946.718136,-86.405,-4.196,169.655
7.1977,128.181843,37.948481,6946.2545352,-87.407,-4.207,169.521
7.2144,128.181849,37.948434,6945.788800800001,-88.406,-4.22,169.38
7.2311,128.181856,37.948388,6945.3209328,-89.399,-4.236,169.236
7.2478,128.181862,37.948341,6944.8506264,-90.379,-4.255,169.087
7.2645,128.181868,37.948295,6944.3778816,-91.346,-4.276,168.933
7.2812,128.181875,37.948248,6943.9023936,-92.3,-4.302,168.777
7.2979,128.181882,37.948202,6943.4244672,-93.242,-4.331,168.62
7.3146,128.181888,37.948156,6942.943188000001,-94.164,-4.363,168.46
7.3313,128.181895,37.948109,6942.459165600001,-95.057,-4.401,168.294
7.348,128.181902,37.948063,6941.9717904,-95.921,-4.443,168.123
7.3647,128.181909,37.948017,6941.4813672,-96.759,-4.489,167.948
7.3814,128.181917,37.94797,6940.987286400001,-97.572,-4.54,167.771
7.3981,128.181924,37.947924,6940.4898528,-98.353,-4.596,167.589
7.4148,128.181931,37.947878,6939.9887616,-99.104,-4.655,167.403
7.4315,128.181939,37.947832,6939.483708,-99.826,-4.718,167.215
7.4482,128.181947,37.947785,6938.974692000001,-100.519,-4.785,167.025
7.4649,128.181954,37.947739,6938.461713600001,-101.181,-4.854,166.83
7.4816,128.181962,37.947693,6937.944468000001,-101.819,-4.926,166.634
7.4983,128.18197,37.947647,6937.422955200001,-102.426,-5.0,166.434
7.515,128.181978,37.947601,6936.8971752,-103.003,-5.078,166.23
7.5317,128.181986,37.947554,6936.366823200001,-103.551,-5.16,166.022
7.5484,128.181995,37.947508,6935.8318992,-104.07,-5.245,165.81
7.5651,128.182003,37.947462,6935.2924032,-104.556,-5.334,165.591
7.5818,128.182012,37.947416,6934.7480304,-105.011,-5.428,165.366
7.5985,128.18202,37.94737,6934.1984760000005,-105.436,-5.524,165.14
7.6152,128.182029,37.947324,6933.6443496,-105.835,-5.623,164.916
7.6319,128.182038,37.947278,6933.0850416,-106.21,-5.723,164.695
7.6486,128.182047,37.947232,6932.520247200001,-106.561,-5.824,164.48
7.6653,128.182056,37.947186,6931.950576,-106.888,-5.925,164.27
7.682,128.182065,37.94714,6931.375418400001,-107.195,-6.026,164.067
7.6987,128.182075,37.947094,6930.794774400001,-107.483,-6.128,163.87
7.7154,128.182084,37.947049,6930.2083391999995,-107.755,-6.229,163.678
7.7321,128.182094,37.947003,6929.6164176,-108.011,-6.331,163.493
7.7488,128.182103,37.946957,6929.019009600001,-108.249,-6.432,163.312
7.7655,128.182113,37.946911,6928.415810400001,-108.474,-6.532,163.136
7.7822,128.182123,37.946865,6927.806820000001,-108.686,-6.632,162.965
7.7989,128.182133,37.94682,6927.191733600001,-108.887,-6.732,162.798
7.8156,128.182143,37.946774,6926.570856,-109.076,-6.832,162.634
7.8323,128.182154,37.946728,6925.943882400001,-109.257,-6.931,162.474
7.849,128.182164,37.946683,6925.3108128,-109.428,-7.03,162.318
7.8657,128.182175,37.946637,6924.671952000001,-109.592,-7.129,162.164
7.8824,128.182185,37.946592,6924.0266904,-109.749,-7.227,162.013
7.8991,128.182196,37.946546,6923.3753328,-109.9,-7.326,161.865
7.9158,128.182207,37.946501,6922.717574400001,-110.046,-7.423,161.719
7.9325,128.182218,37.946455,6922.053720000001,-110.187,-7.521,161.574
7.9492,128.182229,37.94641,6921.3834648,-110.325,-7.617,161.432
7.9659,128.18224,37.946364,6920.7068088000005,-110.46,-7.713,161.29
7.9826,128.182252,37.946319,6920.024056800001,-110.592,-7.808,161.15
7.9993,128.182263,37.946274,6919.3345992,-110.72,-7.904,161.012
8.016,128.182275,37.946228,6918.6387408,-110.848,-7.998,160.873
8.0327,128.182287,37.946183,6917.936481600001,-110.973,-8.091,160.736
8.0494,128.182299,37.946138,6917.2275168,-111.095,-8.185,160.6
8.0661,128.182311,37.946093,6916.5121512000005,-111.216,-8.279,160.464
8.0828,128.182323,37.946048,6915.7903848,-111.334,-8.373,160.329
8.0994,128.182335,37.946003,6915.0619128,-111.452,-8.466,160.194
8.1161,128.182348,37.945958,6914.3267352,-111.569,-8.559,160.059
8.1329,128.18236,37.945913,6913.585156800001,-111.684,-8.652,159.925
8.1496,128.182373,37.945868,6912.8368728000005,-111.797,-8.746,159.791
8.1663,128.182385,37.945823,6912.0818832,-111.909,-8.84,159.658
8.183,128.182398,37.945778,6911.320188000001,-112.021,-8.934,159.525
8.1997,128.182411,37.945733,6910.5514824,-112.131,-9.028,159.392
8.2164,128.182425,37.945688,6909.776376,-112.241,-9.123,159.259
8.2331,128.182438,37.945643,6908.9945640000005,-112.35,-9.218,159.127
8.2498,128.182451,37.945599,6908.205741600001,-112.458,-9.313,158.994
8.2665,128.182465,37.945554,6907.4102136,-112.566,-9.407,158.862
8.2831,128.182478,37.945509,6906.60798,-112.674,-9.503,158.73
8.2998,128.182492,37.945465,6905.7984312,-112.781,-9.598,158.598
8.3166,128.182506,37.94542,6904.9824816,-112.887,-9.694,158.466
8.3333,128.18252,37.945376,6904.1595216000005,-112.992,-9.79,158.334
8.35,128.182534,37.945331,6903.3295512,-113.097,-9.887,158.203
8.3667,128.182548,37.945287,6902.492570400001,-113.202,-9.984,158.071
8.3834,128.182562,37.945242,6901.648884000001,-113.305,-10.081,157.94
8.4001,128.182577,37.945198,6900.798187200001,-113.408,-10.18,157.809
8.4168,128.182591,37.945154,6899.940175199999,-113.511,-10.278,157.678
8.4335,128.182606,37.945109,6899.0754576,-113.615,-10.376,157.547
8.4502,128.182621,37.945065,6898.203424800001,-113.718,-10.475,157.416
8.4668,128.182636,37.945021,6897.3246864,-113.821,-10.573,157.285
8.4835,128.182651,37.944977,6896.438632800001,-113.923,-10.673,157.154
8.5003,128.182666,37.944933,6895.5455688,-114.025,-10.773,157.023
8.517,128.182681,37.944889,6894.6451896,-114.126,-10.873,156.893
8.5337,128.182697,37.944845,6893.737800000001,-114.228,-10.973,156.762
8.5504,128.182712,37.944801,6892.8234,-114.328,-11.074,156.632
8.5671,128.182728,37.944757,6891.90138,-114.428,-11.176,156.502
8.5838,128.182744,37.944713,6890.9726544000005,-114.528,-11.278,156.372
8.6005,128.18276,37.944669,6890.0363088,-114.628,-11.381,156.243
8.6172,128.182776,37.944626,6889.0929528,-114.727,-11.483,156.113
8.6339,128.182792,37.944582,6888.1422816,-114.827,-11.586,155.983
8.6505,128.182808,37.944538,6887.184295200001,-114.926,-11.69,155.854
8.6672,128.182824,37.944495,6886.2189935999995,-115.025,-11.793,155.724
8.684,128.182841,37.944451,6885.2463768,-115.124,-11.898,155.595
8.7007,128.182857,37.944407,6884.2664448000005,-115.222,-12.003,155.466
8.7174,128.182874,37.944364,6883.278892800001,-115.32,-12.109,155.338
8.7341,128.182891,37.944321,6882.2843304,-115.417,-12.216,155.209
8.7508,128.182908,37.944277,6881.282148,-115.514,-12.323,155.081
8.7675,128.182925,37.944234,6880.2726504,-115.612,-12.43,154.953
8.7842,128.182942,37.944191,6879.255532800001,-115.71,-12.538,154.825
8.8009,128.182959,37.944147,6878.2311,-115.808,-12.646,154.697
8.8176,128.182976,37.944104,6877.199047200001,-115.907,-12.754,154.569
8.8342,128.182994,37.944061,6876.159374400001,-116.005,-12.862,154.441
8.8509,128.183011,37.944018,6875.1123864,-116.103,-12.97,154.313
8.8676,128.183029,37.943975,6874.057778400001,-116.202,-13.079,154.186
8.8844,128.183047,37.943932,6872.995550400001,-116.3,-13.188,154.058
8.9011,128.183065,37.943889,6871.9257024,-116.398,-13.297,153.93
8.9178,128.183083,37.943846,6870.8482343999995,-116.496,-13.406,153.802
8.9345,128.183101,37.943803,6869.763146400001,-116.594,-13.516,153.675
8.9512,128.183119,37.943761,6868.6704384,-116.692,-13.626,153.547
8.9679,128.183137,37.943718,6867.570110400001,-116.791,-13.736,153.42
8.9846,128.183156,37.943675,6866.4618576,-116.889,-13.846,153.292
9.0013,128.183175,37.943633,6865.3459848,-116.987,-13.956,153.165
9.0179,128.183193,37.94359,6864.222492000001,-117.086,-14.067,153.037
9.0346,128.183212,37.943548,6863.091074400001,-117.184,-14.178,152.91
9.0513,128.183231,37.943505,6861.9520368,-117.283,-14.289,152.783
9.0681,128.18325,37.943463,6860.805074400001,-117.383,-14.4,152.655
9.0848,128.183269,37.94342,6859.650492000001,-117.482,-14.512,152.528
9.1015,128.183288,37.943378,6858.4879848,-117.581,-14.624,152.401
9.1182,128.183308,37.943336,6857.3175528,-117.68,-14.735,152.274
9.1349,128.183327,37.943294,6856.139196,-117.779,-14.847,152.146
9.1516,128.183347,37.943252,6854.952914400001,-117.877,-14.96,152.019
9.1683,128.183366,37.943209,6853.758708,-117.976,-15.072,151.892
9.185,128.183386,37.943167,6852.556576800001,-118.075,-15.185,151.765
9.2016,128.183406,37.943126,6851.3465208,-118.175,-15.298,151.638
9.2183,128.183426,37.943084,6850.12854,-118.274,-15.411,151.511
9.235,128.183446,37.943042,6848.902634399999,-118.373,-15.525,151.384
9.2518,128.183466,37.943,6847.668804,-118.472,-15.638,151.257
9.2685,128.183486,37.942958,6846.426744,-118.571,-15.752,151.13
9.2852,128.183507,37.942917,6845.176454400001,-118.67,-15.866,151.003
9.3019,128.183527,37.942875,6843.9185448,-118.77,-15.98,150.876
9.3186,128.183548,37.942833,6842.652100800001,-118.869,-16.095,150.75
9.3353,128.183569,37.942792,6841.377732000001,-118.968,-16.209,150.623
9.352,128.18359,37.942751,6840.095438400001,-119.068,-16.324,150.496
9.3687,128.18361,37.942709,6838.8046104000005,-119.167,-16.439,150.369
9.3854,128.183631,37.942668,6837.5058576,-119.267,-16.554,150.243
9.402,128.183653,37.942627,6836.19918,-119.366,-16.67,150.116
9.4187,128.183674,37.942585,6834.883968,-119.465,-16.786,149.99
9.4355,128.183695,37.942544,6833.5605264000005,-119.565,-16.902,149.863
9.4522,128.183717,37.942503,6832.228855200001,-119.664,-17.018,149.737
9.4689,128.183738,37.942462,6830.8889544,-119.763,-17.134,149.61
9.4856,128.18376,37.942421,6829.540824000001,-119.862,-17.251,149.484
9.5023,128.183782,37.94238,6828.184464000001,-119.962,-17.368,149.357
9.519,128.183803,37.94234,6826.819874400001,-120.061,-17.485,149.231
9.5357,128.183825,37.942299,6825.4467504,-120.16,-17.602,149.104
9.5524,128.183847,37.942258,6824.065396800001,-120.259,-17.719,148.978
9.5691,128.183869,37.942217,6822.675813600001,-120.358,-17.837,148.852
9.5857,128.183892,37.942177,6821.277696,-120.458,-17.955,148.726
9.6024,128.183914,37.942136,6819.871044,-120.557,-18.073,148.6
9.6192,128.183936,37.942096,6818.4561624,-120.656,-18.192,148.473
9.6359,128.183959,37.942056,6817.0327464,-120.755,-18.31,148.347
9.6526,128.183982,37.942015,6815.6011008000005,-120.855,-18.429,148.221
9.6693,128.184004,37.941975,6814.160616,-120.954,-18.548,148.095
9.686,128.184027,37.941935,6812.711901600001,-121.053,-18.667,147.969
9.7027,128.18405,37.941895,6811.2546528,-121.152,-18.787,147.844
9.7194,128.184073,37.941855,6809.788869600001,-121.251,-18.906,147.718
9.7361,128.184096,37.941815,6808.314552000001,-121.35,-19.026,147.592
9.7528,128.184119,37.941775,6806.831700000001,-121.449,-19.146,147.466
9.7694,128.184143,37.941735,6805.340313600001,-121.548,-19.267,147.34
9.7861,128.184166,37.941695,6803.840392800001,-121.647,-19.387,147.215
9.8029,128.18419,37.941655,6802.331937600001,-121.745,-19.508,147.089
9.8196,128.184213,37.941616,6800.814643199999,-121.844,-19.629,146.963
9.8363,128.184237,37.941576,6799.288814400001,-121.942,-19.75,146.838
9.853,128.184261,37.941536,6797.7541464000005,-122.04,-19.871,146.712
9.8697,128.184284,37.941497,6796.2112488,-122.139,-19.993,146.587
9.8864,128.184308,37.941458,6794.6592072,-122.237,-20.115,146.461
9.9031,128.184332,37.941418,6793.0986312,-122.335,-20.237,146.336
9.9198,128.184357,37.941379,6791.5295208,-122.433,-20.359,146.21
9.9365,128.184381,37.94134,6789.9515712,-122.531,-20.482,146.085
9.9531,128.184405,37.941301,6788.364782400001,-122.628,-20.604,145.96
9.9698,128.184429,37.941262,6786.769459200001,-122.726,-20.727,145.834
9.9865,128.184454,37.941223,6785.164992000001,-122.823,-20.85,145.709
10.0033,128.184479,37.941184,6783.5519904,-122.92,-20.973,145.584
10.02,128.184503,37.941145,6781.9301496,-123.017,-21.097,145.459
10.0367,128.184528,37.941106,6780.2994696000005,-123.114,-21.221,145.334
10.0534,128.184553,37.941067,6778.6599504000005,-123.211,-21.345,145.209
10.0701,128.184578,37.941029,6777.011592000001,-123.308,-21.469,145.084
10.0868,128.184603,37.94099,6775.3543944,-123.404,-21.593,144.959
10.1035,128.184628,37.940952,6773.6883576,-123.5,-21.718,144.834
10.1202,128.184653,37.940913,6772.0134816,-123.596,-21.842,144.709
10.1368,128.184678,37.940875,6770.3294616,-123.692,-21.967,144.584
10.1535,128.184704,37.940837,6768.6366024,-123.788,-22.093,144.459
10.1702,128.184729,37.940798,6766.934904000001,-123.883,-22.218,144.335
10.187,128.184755,37.94076,6765.2243664,-123.978,-22.343,144.21
10.2037,128.18478,37.940722,6763.5046848,-124.073,-22.469,144.085
10.2204,128.184806,37.940684,6761.7758592,-124.167,-22.595,143.96
10.2371,128.184832,37.940646,6760.0381944,-124.262,-22.721,143.836
10.2538,128.184858,37.940608,6758.2916904,-124.356,-22.848,143.711
10.2705,128.184884,37.940571,6756.536042400001,-124.449,-22.974,143.587
10.2872,128.18491,37.940533,6754.7712504,-124.542,-23.101,143.462
10.3039,128.184936,37.940495,6752.9973144000005,-124.635,-23.228,143.338
10.3205,128.184962,37.940458,6751.2145392,-124.728,-23.355,143.213
10.3372,128.184988,37.94042,6749.422620000001,-124.821,-23.482,143.089
10.3539,128.185015,37.940383,6747.621556800001,-124.913,-23.61,142.964
10.3707,128.185041,37.940346,6745.8116544,-125.005,-23.737,142.84
10.3874,128.185068,37.940308,6743.9923032,-125.097,-23.865,142.716
10.4041,128.185094,37.940271,6742.1641128,-125.188,-23.993,142.591
10.4208,128.185121,37.940234,6740.3264736,-125.279,-24.121,142.467
10.4375,128.185148,37.940197,6738.4799952,-125.37,-24.25,142.343
10.4542,128.185175,37.94016,6736.624068,-125.46,-24.378,142.219
10.4709,128.185201,37.940123,6734.758996800001,-125.55,-24.507,142.094
10.4876,128.185228,37.940086,6732.885086400001,-125.64,-24.636,141.97
10.5042,128.185256,37.94005,6731.0017272000005,-125.729,-24.765,141.846
10.5209,128.185283,37.940013,6729.108919200001,-125.818,-24.894,141.722
10.5376,128.18531,37.939976,6727.207272000001,-125.907,-25.024,141.598
10.5544,128.185337,37.93994,6725.296176,-125.995,-25.153,141.474
10.5711,128.185365,37.939904,6723.375936,-126.083,-25.283,141.35
10.5878,128.185392,37.939867,6721.446552000001,-126.17,-25.413,141.226
10.6045,128.18542,37.939831,6719.507719200001,-126.257,-25.543,141.102
10.6212,128.185447,37.939795,6717.559437600001,-126.344,-25.673,140.978
10.6379,128.185475,37.939759,6715.6023168,-126.43,-25.804,140.854
10.6546,128.185503,37.939723,6713.635442400001,-126.515,-25.934,140.73
10.6713,128.18553,37.939687,6711.659424,-126.601,-26.065,140.606
10.6879,128.185558,37.939651,6709.6742616,-126.686,-26.196,140.482
10.7046,128.185586,37.939615,6707.6796504,-126.771,-26.327,140.359
10.7213,128.185614,37.939579,6705.6755904,-126.855,-26.458,140.235
10.7381,128.185642,37.939544,6703.6623864,-126.939,-26.589,140.111
10.7548,128.185671,37.939508,6701.639733600001,-127.022,-26.721,139.987
10.7715,128.185699,37.939473,6699.607632,-127.105,-26.852,139.864
10.7882,128.185727,37.939437,6697.566386400001,-127.188,-26.984,139.74
10.8049,128.185755,37.939402,6695.515387200001,-127.27,-27.116,139.616
10.8216,128.185784,37.939367,6693.455244,-127.351,-27.248,139.492
10.8383,128.185812,37.939332,6691.385652000001,-127.432,-27.38,139.369
10.855,128.185841,37.939297,6689.306611200001,-127.513,-27.513,139.245
10.8717,128.18587,37.939262,6687.2181216,-127.594,-27.645,139.121
10.8883,128.185898,37.939227,6685.120183200001,-127.674,-27.778,138.997
10.905,128.185927,37.939192,6683.013100800001,-127.754,-27.91,138.874
10.9218,128.185956,37.939157,6680.896264800001,-127.833,-28.043,138.75
10.9385,128.185985,37.939123,6678.76998,-127.912,-28.176,138.626
10.9552,128.186014,37.939088,6676.634246400001,-127.99,-28.309,138.502
10.9719,128.186043,37.939054,6674.489064,-128.068,-28.443,138.379
10.9886,128.186072,37.939019,6672.3344328,-128.145,-28.576,138.255
11.0053,128.186101,37.938985,6670.1703528,-128.222,-28.71,138.131
11.022,128.18613,37.938951,6667.996824000001,-128.299,-28.843,138.007
11.0387,128.18616,37.938916,6665.8135416000005,-128.375,-28.977,137.883
11.0554,128.186189,37.938882,6663.6211152000005,-128.451,-29.111,137.759
11.072,128.186218,37.938848,6661.4189352,-128.526,-29.245,137.636
11.0887,128.186248,37.938815,6659.207306400001,-128.6,-29.379,137.512
11.1054,128.186277,37.938781,6656.9859240000005,-128.674,-29.514,137.388
11.1222,128.186307,37.938747,6654.755397600001,-128.747,-29.648,137.264
11.1389,128.186337,37.938713,6652.5151176,-128.82,-29.783,137.14
11.1556,128.186366,37.93868,6650.2653887999995,-128.892,-29.917,137.016
11.1723,128.186396,37.938646,6648.005906400001,-128.964,-30.052,136.891
11.189,128.186426,37.938613,6645.7369751999995,-129.035,-30.187,136.767
11.2057,128.186456,37.93858,6643.458595200001,-129.106,-30.322,136.643
11.2224,128.186486,37.938547,6641.1704616,-129.176,-30.457,136.519
11.2391,128.186516,37.938513,6638.872879200001,-129.245,-30.592,136.395
11.2557,128.186546,37.93848,6636.565543199999,-129.314,-30.727,136.27
11.2724,128.186576,37.938447,6634.2487584,-129.383,-30.863,136.146
11.2891,128.186606,37.938415,6631.922524800001,-129.451,-30.998,136.021
11.3059,128.186636,37.938382,6629.586537600001,-129.519,-31.134,135.897
11.3226,128.186667,37.938349,6627.241101600001,-129.585,-31.27,135.772
11.3393,128.186697,37.938317,6624.885912,-129.652,-31.405,135.648
11.356,128.186727,37.938284,6622.5209688,-129.717,-31.541,135.523
11.3727,128.186758,37.938252,6620.1465768,-129.782,-31.677,135.398
11.3894,128.186788,37.938219,6617.762736000001,-129.846,-31.813,135.274
11.4061,128.186819,37.938187,6615.3691416,-129.91,-31.949,135.149
11.4228,128.186849,37.938155,6612.9657936,-129.973,-32.086,135.024
11.4394,128.18688,37.938123,6610.552996800001,-130.036,-32.222,134.899
11.4561,128.186911,37.938091,6608.1304464,-130.097,-32.358,134.774
11.4728,128.186942,37.938059,6605.6984472,-130.159,-32.495,134.648
11.4896,128.186972,37.938027,6603.2566944,-130.219,-32.631,134.523
11.5063,128.187003,37.937996,6600.805492800001,-130.279,-32.768,134.398
11.523,128.187034,37.937964,6598.344232800001,-130.339,-32.905,134.272
11.5397,128.187065,37.937932,6595.8738288,-130.397,-33.042,134.147
11.5564,128.187096,37.937901,6593.3933664,-130.456,-33.178,134.021
11.5731,128.187127,37.93787,6590.9034552,-130.513,-33.315,133.896
11.5898,128.187158,37.937838,6588.403790400001,-130.57,-33.452,133.77
11.6065,128.187189,37.937807,6585.8946768000005,-130.626,-33.59,133.644
11.6231,128.18722,37.937776,6583.3758096,-130.682,-33.727,133.518
11.6398,128.187252,37.937745,6580.8471887999995,-130.738,-33.864,133.392
11.6565,128.187283,37.937714,6578.3091192,-130.793,-34.001,133.265
11.6733,128.187314,37.937684,6575.760991200001,-130.944,-34.145,133.146
11.69,128.187345,37.937653,6573.2028048,-131.189,-34.295,133.033
11.7067,128.187377,37.937622,6570.634255200001,-131.527,-34.45,132.924
11.7234,128.187408,37.937592,6568.055037600001,-131.959,-34.608,132.817
11.7401,128.18744,37.937561,6565.464542400001,-132.482,-34.769,132.712
11.7568,128.187471,37.937531,6562.863074400001,-133.094,-34.931,132.608
11.7735,128.187503,37.937501,6560.250328800001,-133.793,-35.095,132.504
11.7902,128.187534,37.937471,6557.625696,-134.575,-35.262,132.4
11.8068,128.187566,37.937441,6554.9888712,-135.44,-35.432,132.298
11.8235,128.187598,37.937411,6552.3401592,-136.383,-35.605,132.196
11.8402,128.18763,37.937382,6549.6795600000005,-137.403,-35.782,132.095
11.857,128.187661,37.937352,6547.0061592,-138.327,-35.938,131.989
11.8737,128.187693,37.937323,6544.3214808,-139.163,-36.063,131.888
11.8904,128.187725,37.937293,6541.6258296,-139.915,-36.152,131.809
11.9071,128.187757,37.937264,6538.919510400001,-140.586,-36.196,131.769
11.9238,128.187788,37.937235,6536.202828,-141.177,-36.201,131.768
11.9405,128.18782,37.937206,6533.476087200001,-141.682,-36.179,131.796
11.9572,128.187852,37.937177,6530.7398976,-142.097,-36.142,131.84
11.9739,128.187884,37.937148,6527.9939544,-142.422,-36.098,131.894
11.9905,128.187916,37.937119,6525.2394768,-142.655,-36.054,131.95
12.0072,128.187948,37.93709,6522.47616,-142.801,-36.011,132.005
12.0239,128.18798,37.937061,6519.7046136,-142.86,-35.973,132.058
12.0407,128.188012,37.937033,6516.9251424,-142.836,-35.94,132.106
12.0574,128.188044,37.937004,6514.138356,-142.731,-35.912,132.149
12.0741,128.188076,37.936975,6511.3439496,-142.548,-35.89,132.187
12.0908,128.188108,37.936947,6508.5425328,-142.289,-35.873,132.22
12.1075,128.18814,37.936918,6505.734715200001,-141.958,-35.862,132.247
12.1242,128.188172,37.93689,6502.9201920000005,-141.555,-35.855,132.27
12.1409,128.188204,37.936861,6500.099572800001,-141.084,-35.853,132.287
12.1576,128.188236,37.936833,6497.2725528,-140.547,-35.855,132.3
12.1743,128.188268,37.936804,6494.439132,-139.946,-35.86,132.308
12.1909,128.1883,37.936776,6491.599920000001,-139.283,-35.869,132.312
12.2076,128.188332,37.936748,6488.7543072,-138.559,-35.882,132.31
12.2243,128.188365,37.936719,6485.9025984,-137.776,-35.897,132.305
12.2411,128.188397,37.936691,6483.0447936,-136.936,-35.914,132.295
12.2578,128.188429,37.936663,6480.181197600001,-136.041,-35.934,132.28
12.2745,128.188461,37.936635,6477.311505600001,-135.091,-35.956,132.262
12.2912,128.188493,37.936606,6474.4363272,-134.277,-36.006,132.243
12.3079,128.188526,37.936578,6471.5544432,-133.586,-36.092,132.214
12.3246,128.188558,37.93655,6468.6658536,-133.014,-36.217,132.157
12.3413,128.18859,37.936522,6465.7699488,-132.556,-36.383,132.057
12.358,128.188623,37.936494,6462.8670336000005,-132.208,-36.585,131.908
12.3746,128.188655,37.936466,6459.9558888,-131.975,-36.814,131.72
12.3913,128.188687,37.936439,6457.0368192000005,-131.857,-37.06,131.502
12.408,128.18872,37.936411,6454.1089104,-131.854,-37.316,131.266
12.4248,128.188752,37.936383,6451.1724672,-131.966,-37.576,131.02
12.4415,128.188785,37.936356,6448.2271848,-132.192,-37.835,130.771
12.4582,128.188817,37.936328,6445.2721488,-132.528,-38.09,130.526
12.4749,128.18885,37.936301,6442.307968800001,-132.972,-38.341,130.286
12.4916,128.188883,37.936273,6439.3334256,-133.519,-38.587,130.054
12.5083,128.188915,37.936246,6436.3491288000005,-134.165,-38.828,129.832
12.525,128.188948,37.936219,6433.354164,-134.907,-39.065,129.619
12.5417,128.18898,37.936192,6430.3482264,-135.739,-39.299,129.416
12.5583,128.189013,37.936165,6427.331316,-136.66,-39.53,129.223
12.575,128.189046,37.936139,6424.3031280000005,-137.665,-39.76,129.039
12.5917,128.189079,37.936112,6421.2636624,-138.752,-39.988,128.865
12.6085,128.189111,37.936085,6418.2126144,-139.917,-40.216,128.7
12.6252,128.189144,37.936059,6415.149679200001,-141.158,-40.445,128.544
12.6419,128.189177,37.936033,6412.0751616,-142.288,-40.65,128.388
12.6586,128.18921,37.936007,6408.9893664,-143.318,-40.817,128.243
12.6753,128.189242,37.93598,6405.8929032,-144.254,-40.94,128.128
12.692,128.189275,37.935954,6402.7863816,-145.102,-41.011,128.06
12.7087,128.189308,37.935929,6399.670106400001,-145.868,-41.024,128.046
12.7254,128.189341,37.935903,6396.543772800001,-146.545,-40.997,128.073
12.742,128.189373,37.935877,6393.4082952,-147.129,-40.942,128.128
12.7587,128.189406,37.935851,6390.2639784,-147.616,-40.875,128.198
12.7754,128.189439,37.935825,6387.111127200001,-148.004,-40.806,128.272
12.7922,128.189472,37.9358,6383.9500464,-148.296,-40.74,128.345
12.8089,128.189505,37.935774,6380.7813456,-148.492,-40.68,128.413
12.8256,128.189537,37.935749,6377.604720000001,-148.598,-40.627,128.476
12.8423,128.18957,37.935723,6374.4213887999995,-148.616,-40.58,128.534
12.859,128.189603,37.935698,6371.231047200001,-148.551,-40.54,128.586
12.8757,128.189636,37.935672,6368.0343048,-148.404,-40.506,128.633
12.8924,128.189668,37.935647,6364.8314664,-148.18,-40.478,128.675
12.9091,128.189701,37.935622,6361.6228368,-147.882,-40.455,128.713
12.9257,128.189734,37.935596,6358.408416,-147.511,-40.437,128.746
12.9424,128.189767,37.935571,6355.188204,-147.071,-40.424,128.774
12.9591,128.1898,37.935546,6351.9625056,-146.563,-40.415,128.799
12.9759,128.189833,37.935521,6348.730711200001,-145.991,-40.41,128.82
12.9926,128.189865,37.935495,6345.4937352,-145.356,-40.408,128.836
13.0093,128.189898,37.93547,6342.2512728,-144.659,-40.411,128.849
13.026,128.189931,37.935445,6339.0030192,-143.904,-40.416,128.858
13.0427,128.189964,37.93542,6335.749279200001,-143.091,-40.425,128.863
13.0594,128.189997,37.935395,6332.4903576,-142.222,-40.436,128.864
13.0761,128.19003,37.93537,6329.2256448,-141.299,-40.45,128.861
13.0928,128.190063,37.935345,6325.9557504,-140.323,-40.467,128.854
13.1095,128.190096,37.93532,6322.6806744000005,-139.295,-40.486,128.843
13.1262,128.190129,37.935295,6319.400112,-138.217,-40.507,128.828
13.1429,128.190162,37.93527,6316.1143680000005,-137.291,-40.556,128.817
13.1596,128.190195,37.935245,6312.822528000001,-136.501,-40.644,128.794
13.1763,128.190228,37.93522,6309.5248968000005,-135.841,-40.773,128.742
13.193,128.190261,37.935195,6306.220560000001,-135.303,-40.946,128.642
13.2097,128.190294,37.93517,6302.9092128,-134.878,-41.167,128.48
13.2264,128.190327,37.935146,6299.5908552,-134.567,-41.423,128.264
13.2431,128.19036,37.935121,6296.264877600001,-134.371,-41.704,128.006
13.2598,128.190393,37.935097,6292.930670400001,-134.293,-42.002,127.72
13.2765,128.190426,37.935072,6289.587928800001,-134.336,-42.302,127.422
13.2932,128.190459,37.935048,6286.2369576,-134.502,-42.599,127.123
13.3099,128.190492,37.935023,6282.876842400001,-134.789,-42.889,126.831
13.3266,128.190525,37.934999,6279.5075832,-135.192,-43.17,126.55
13.3433,128.190558,37.934975,6276.1288752,-135.708,-43.443,126.281
13.36,128.190591,37.934951,6272.740108800001,-136.332,-43.708,126.025
13.3767,128.190625,37.934927,6269.3415888,-137.059,-43.966,125.782
13.3934,128.190658,37.934904,6265.9324008,-137.885,-44.218,125.553
13.4101,128.190691,37.93488,6262.5125448,-138.804,-44.465,125.336
13.4268,128.190724,37.934856,6259.081716,-139.815,-44.709,125.132
13.4435,128.190757,37.934833,6255.6402192000005,-140.912,-44.951,124.94
13.4602,128.19079,37.93481,6252.1874448,-142.093,-45.191,124.76
13.4769,128.190823,37.934787,6248.7233928000005,-143.355,-45.43,124.591
13.4936,128.190856,37.934764,6245.248063200001,-144.497,-45.642,124.422
13.5103,128.190889,37.934741,6241.762065600001,-145.533,-45.815,124.266
13.527,128.190923,37.934718,6238.2657048,-146.471,-45.939,124.144
13.5437,128.190956,37.934695,6234.7595904,-147.321,-46.006,124.075
13.5604,128.190989,37.934672,6231.244332,-148.093,-46.003,124.073
13.5771,128.191022,37.93465,6227.719624800001,-148.78,-45.948,124.123
13.5938,128.191055,37.934627,6224.186078400001,-149.376,-45.855,124.212
13.6105,128.191088,37.934604,6220.6443024,-149.875,-45.74,124.322
13.6272,128.191121,37.934582,6217.094296800001,-150.274,-45.619,124.44
13.6439,128.191154,37.93456,6213.5366712,-150.567,-45.507,124.549
13.6606,128.191187,37.934537,6209.9717304,-150.756,-45.411,124.647
13.6773,128.191219,37.934515,6206.400084000001,-150.846,-45.328,124.732
13.694,128.191252,37.934493,6202.821732,-150.841,-45.258,124.807
13.7107,128.191285,37.934471,6199.236979200001,-150.747,-45.198,124.873
13.7274,128.191318,37.934448,6195.6461304,-150.568,-45.147,124.931
13.7441,128.191351,37.934426,6192.0497952000005,-150.307,-45.103,124.983
13.7608,128.191384,37.934404,6188.4479736,-149.968,-45.066,125.029
13.7775,128.191417,37.934382,6184.8409704000005,-149.553,-45.035,125.071
13.7942,128.19145,37.93436,6181.2284808,-149.067,-45.009,125.107
13.8109,128.191483,37.934338,6177.6105048,-148.51,-44.989,125.14
13.8276,128.191516,37.934316,6173.987652000001,-147.887,-44.973,125.168
13.8443,128.191549,37.934294,6170.3596176,-147.198,-44.961,125.192
13.861,128.191582,37.934272,6166.726401600001,-146.447,-44.953,125.212
13.8777,128.191615,37.93425,6163.088004,-145.635,-44.949,125.229
13.8944,128.191648,37.934228,6159.4447296,-144.764,-44.948,125.241
13.9111,128.191681,37.934206,6155.796273600001,-143.836,-44.95,125.25
13.9278,128.191714,37.934184,6152.1426360000005,-142.853,-44.955,125.255
13.9445,128.191747,37.934162,6148.4844264,-141.816,-44.963,125.256
13.9612,128.19178,37.93414,6144.8210352,-140.727,-44.973,125.253
13.9779,128.191813,37.934119,6141.1527672,-139.801,-45.013,125.256
13.9946,128.191846,37.934097,6137.4790128,-139.02,-45.094,125.248
14.0113,128.191879,37.934075,6133.799772,-138.375,-45.22,125.208
14.028,128.191912,37.934053,6130.1144352,-137.857,-45.394,125.115
14.0447,128.191945,37.934032,6126.422697600001,-137.452,-45.619,124.952
14.0614,128.191978,37.93401,6122.7242544,-137.157,-45.89,124.723
14.0781,128.192011,37.933989,6119.018191200001,-136.973,-46.195,124.439
14.0948,128.192044,37.933967,6115.3048128,-136.903,-46.524,124.114
14.1115,128.192077,37.933946,6111.5835096,-136.951,-46.863,123.767
14.1282,128.19211,37.933925,6107.853672,-137.124,-47.2,123.416
14.1449,128.192143,37.933904,6104.1156048,-137.426,-47.526,123.078
14.1616,128.192176,37.933883,6100.3683936,-137.854,-47.836,122.758
14.1783,128.192209,37.933862,6096.611733600001,-138.403,-48.134,122.457
14.195,128.192242,37.933841,6092.8459296,-139.068,-48.419,122.176
14.2117,128.192275,37.93382,6089.0700672,-139.842,-48.696,121.912
14.2284,128.192308,37.9338,6085.2844512,-140.72,-48.964,121.665
14.2451,128.192341,37.933779,6081.4881672,-141.698,-49.227,121.435
14.2618,128.192374,37.933759,6077.681520000001,-142.771,-49.484,121.219
14.2785,128.192407,37.933738,6073.8642048,-143.935,-49.739,121.018
14.2952,128.19244,37.933718,6070.0362216,-145.187,-49.991,120.831
14.3119,128.192473,37.933698,6066.197265600001,-146.311,-50.213,120.645
14.3286,128.192505,37.933678,6062.3479464,-147.324,-50.392,120.472
14.3453,128.192538,37.933658,6058.4888736,-148.236,-50.519,120.339
14.362,128.192571,37.933639,6054.620352000001,-149.061,-50.582,120.266
14.3787,128.192604,37.933619,6050.743296000001,-149.81,-50.569,120.27
14.3954,128.192636,37.933599,6046.857096000001,-150.476,-50.497,120.335
14.4121,128.192669,37.93358,6042.9623616,-151.051,-50.383,120.443
14.4288,128.192702,37.93356,6039.0597024,-151.528,-50.244,120.576
14.4455,128.192734,37.933541,6035.149728,-151.9,-50.096,120.717
14.4622,128.192767,37.933522,6031.232438400001,-152.163,-49.957,120.85
14.4789,128.192799,37.933502,6027.308138400001,-152.313,-49.837,120.966
14.4956,128.192832,37.933483,6023.377437600001,-152.356,-49.736,121.065
14.5123,128.192864,37.933464,6019.4406408,-152.298,-49.65,121.15
14.529,128.192897,37.933445,6015.497748,-152.145,-49.578,121.223
14.5457,128.192929,37.933426,6011.549064000001,-151.901,-49.515,121.288
14.5624,128.192962,37.933406,6007.5955032,-151.571,-49.461,121.345
14.5791,128.192994,37.933387,6003.636456000001,-151.159,-49.415,121.396
14.5958,128.193027,37.933368,5999.6725320000005,-150.668,-49.375,121.441
14.6125,128.193059,37.933349,5995.7037312,-150.102,-49.341,121.481
14.6292,128.193092,37.93333,5991.7297488,-149.462,-49.313,121.516
14.6459,128.193124,37.933311,5987.7508896,-148.752,-49.289,121.547
14.6626,128.193157,37.933292,5983.767458400001,-147.975,-49.27,121.574
14.6793,128.193189,37.933273,5979.779150400001,-147.131,-49.255,121.596
14.696,128.193222,37.933254,5975.785965600001,-146.225,-49.244,121.614
14.7127,128.193254,37.933235,5971.787904,-145.258,-49.236,121.629
14.7294,128.193287,37.933216,5967.785270400001,-144.231,-49.232,121.639
14.7461,128.193319,37.933198,5963.778064800001,-143.147,-49.231,121.646
14.7628,128.193352,37.933179,5959.7659824,-142.007,-49.232,121.648
14.7795,128.193384,37.93316,5955.749632800001,-141.042,-49.265,121.66
14.7962,128.193417,37.933141,5951.728101600001,-140.232,-49.342,121.661
14.8129,128.19345,37.933122,5947.701084000001,-139.562,-49.469,121.626
14.8296,128.193482,37.933104,5943.66858,-139.022,-49.647,121.53
14.8463,128.193515,37.933085,5939.62998,-138.595,-49.881,121.355
14.863,128.193547,37.933066,5935.585284000001,-138.273,-50.169,121.095
14.8797,128.19358,37.933048,5931.5332728,-138.057,-50.497,120.767
14.8964,128.193612,37.93303,5927.4739464,-137.95,-50.856,120.385
14.9131,128.193645,37.933011,5923.407,-137.957,-51.231,119.968
14.9298,128.193677,37.932993,5919.331824000001,-138.088,-51.607,119.54
14.9465,128.193709,37.932975,5915.2484184,-138.354,-51.971,119.124
14.9632,128.193742,37.932957,5911.1561736,-138.76,-52.312,118.74
14.9799,128.193774,37.932939,5907.0550896,-139.303,-52.63,118.39
14.9966,128.193807,37.932921,5902.9448616,-139.974,-52.929,118.069
15.0133,128.193839,37.932903,5898.8251848,-140.764,-53.216,117.773
15.03,128.193871,37.932886,5894.6954496,-141.665,-53.493,117.499
15.0467,128.193904,37.932868,5890.5559608,-142.671,-53.763,117.244
15.0634,128.193936,37.932851,5886.405804,-143.776,-54.028,117.007
15.0801,128.193968,37.932834,5882.2458936,-144.978,-54.289,116.786
