Time,Longitude,Latitude,Altitude,Roll (deg),Pitch (deg),Yaw (deg)
0.0,128.181881,37.923646,7000.146528,0.0,-0.003,0.0
0.0167,128.181881,37.923691,7000.1605488000005,0.0,-0.012,0.0
0.0334,128.181881,37.923736,7000.172740800001,0.087,-0.026,0.011
0.0501,128.181881,37.923781,7000.183104000001,0.258,-0.043,0.034
0.0668,128.181881,37.923826,7000.190724000001,0.516,-0.062,0.064
0.0834,128.181881,37.923871,7000.1959056000005,0.864,-0.082,0.097
0.1002,128.181881,37.923916,7000.1980392,1.3,-0.102,0.132
0.1169,128.181881,37.923961,7000.196820000001,1.824,-0.122,0.167
0.1336,128.181881,37.924006,7000.1919431999995,2.433,-0.139,0.201
0.1503,128.181881,37.924051,7000.183104000001,3.123,-0.154,0.235
0.1669,128.181881,37.924096,7000.169692800001,3.891,-0.166,0.267
0.1837,128.181881,37.924141,7000.152928800001,4.734,-0.173,0.299
0.2004,128.181881,37.924186,7000.1325072,5.649,-0.175,0.331
0.2171,128.181881,37.924231,7000.108123200001,6.633,-0.172,0.362
0.2338,128.181881,37.924276,7000.0803864,7.682,-0.163,0.393
0.2505,128.181881,37.924321,7000.048992000001,8.794,-0.147,0.424
0.2672,128.181881,37.924366,7000.014244800001,9.966,-0.125,0.456
0.2839,128.181881,37.924411,6999.9761448,11.195,-0.095,0.489
0.3006,128.181881,37.924457,6999.9353016000005,12.48,-0.059,0.523
0.3172,128.181881,37.924502,6999.891105600001,13.817,-0.016,0.559
0.3339,128.181881,37.924547,6999.8444712,15.204,0.033,0.598
0.3507,128.181881,37.924592,6999.7947888,16.64,0.089,0.639
0.3674,128.181881,37.924637,6999.742972800001,18.122,0.152,0.682
0.3841,128.181881,37.924683,6999.688718400001,19.648,0.22,0.73
0.4008,128.181881,37.924728,6999.6320256,21.218,0.295,0.781
0.4175,128.181881,37.924773,6999.573504,22.828,0.375,0.837
0.4342,128.181881,37.924819,6999.5131536,24.478,0.459,0.897
0.4509,128.181881,37.924864,6999.4512792000005,26.167,0.548,0.962
0.4676,128.181881,37.924909,6999.387576,27.892,0.64,1.033
0.4843,128.181881,37.924954,6999.3229584,29.654,0.736,1.109
0.501,128.181881,37.925,6999.2568168,31.45,0.834,1.191
0.5176,128.181881,37.925045,6999.189760800001,33.28,0.933,1.279
0.5344,128.181881,37.925091,6999.1217904000005,35.143,1.034,1.373
0.5511,128.181881,37.925136,6999.0529056000005,37.039,1.135,1.473
0.5678,128.181881,37.925181,6998.983716,38.966,1.235,1.579
0.5845,128.181881,37.925227,6998.9139168,40.925,1.333,1.691
0.6012,128.181881,37.925272,6998.843508,42.913,1.425,1.806
0.6179,128.181881,37.925318,6998.7727944,44.932,1.51,1.922
0.6345,128.181881,37.925363,6998.7014712,46.981,1.586,2.037
0.6513,128.181882,37.925408,6998.6304528,49.053,1.652,2.15
0.6679,128.181882,37.925454,6998.5591296,51.144,1.706,2.259
0.6847,128.181882,37.925499,6998.488111200001,53.248,1.753,2.367
0.7014,128.181882,37.925545,6998.416788,55.363,1.791,2.472
0.7181,128.181883,37.92559,6998.345464800001,57.488,1.819,2.572
0.7348,128.181883,37.925636,6998.274141600001,59.621,1.836,2.664
0.7514,128.181883,37.925681,6998.2019040000005,61.599,1.845,2.73
0.7682,128.181884,37.925727,6998.1296664,63.426,1.842,2.759
0.7848,128.181884,37.925773,6998.057124000001,65.103,1.819,2.739
0.8016,128.181885,37.925818,6997.9842768,66.634,1.779,2.679
0.8183,128.181885,37.925864,6997.9114296,68.021,1.728,2.594
0.835,128.181886,37.925909,6997.8379728,69.272,1.672,2.495
0.8517,128.181887,37.925955,6997.764516,70.392,1.613,2.388
0.8684,128.181888,37.926,6997.6907544000005,71.387,1.554,2.28
0.8851,128.181888,37.926046,6997.616688000001,72.265,1.498,2.174
0.9018,128.181889,37.926091,6997.542012,73.03,1.444,2.071
0.9185,128.18189,37.926137,6997.4670312,73.687,1.393,1.973
0.9352,128.181891,37.926183,6997.3914408,74.239,1.345,1.881
0.9519,128.181892,37.926228,6997.314936000001,74.699,1.305,1.794
0.9686,128.181893,37.926274,6997.2381264000005,75.084,1.271,1.712
0.9853,128.181895,37.926319,6997.1604024,75.415,1.239,1.637
1.002,128.181896,37.926365,6997.0820688,75.708,1.206,1.568
1.0187,128.181897,37.926411,6997.002516,75.979,1.17,1.505
1.0353,128.181898,37.926456,6996.921744,76.242,1.132,1.449
1.0521,128.1819,37.926502,6996.8397528,76.507,1.091,1.399
1.0688,128.181901,37.926547,6996.755932800001,76.781,1.048,1.354
1.0855,128.181902,37.926593,6996.6708935999995,77.069,1.003,1.313
1.1022,128.181904,37.926639,6996.5840256,77.373,0.959,1.276
1.1189,128.181905,37.926684,6996.4956336000005,77.693,0.915,1.243
1.1356,128.181907,37.92673,6996.4054128,78.029,0.871,1.213
1.1522,128.181908,37.926776,6996.313668000001,78.379,0.829,1.186
1.169,128.18191,37.926821,6996.2200944,78.742,0.788,1.162
1.1857,128.181911,37.926867,6996.1243872000005,79.116,0.749,1.14
1.2024,128.181913,37.926913,6996.027460800001,79.501,0.71,1.121
1.2191,128.181915,37.926958,6995.9284008,79.895,0.672,1.103
1.2358,128.181916,37.927004,6995.8272072,80.299,0.636,1.088
1.2525,128.181918,37.92705,6995.7244896,80.714,0.6,1.074
1.2691,128.181919,37.927096,6995.619943199999,81.139,0.564,1.063
1.2859,128.181921,37.927141,6995.5132632,81.576,0.528,1.052
1.3026,128.181923,37.927187,6995.404449600001,82.026,0.493,1.044
1.3193,128.181924,37.927233,6995.2938072,82.431,0.462,1.036
1.3359,128.181926,37.927279,6995.181336000001,82.789,0.435,1.03
1.3527,128.181928,37.927324,6995.0667312000005,83.106,0.411,1.025
1.3694,128.18193,37.92737,6994.9506024,83.384,0.387,1.022
1.386,128.181931,37.927416,6994.8326448,83.629,0.364,1.02
1.4028,128.181933,37.927462,6994.7125536,83.845,0.34,1.02
1.4195,128.181935,37.927508,6994.590633600001,84.038,0.315,1.022
1.4362,128.181937,37.927553,6994.4668848,84.213,0.29,1.024
1.4528,128.181939,37.927599,6994.3410023999995,84.374,0.265,1.028
1.4696,128.181941,37.927645,6994.213291200001,84.526,0.239,1.032
1.4863,128.181943,37.927691,6994.083446400001,84.674,0.213,1.038
1.5029,128.181945,37.927737,6993.951468,84.82,0.187,1.045
1.5197,128.181947,37.927782,6993.8176608,84.961,0.16,1.052
1.5364,128.181949,37.927828,6993.6817200000005,85.1,0.131,1.061
1.5531,128.181951,37.927874,6993.543645600001,85.238,0.1,1.07
1.5697,128.181953,37.92792,6993.403742400001,85.377,0.069,1.08
1.5865,128.181955,37.927966,6993.261400800001,85.52,0.039,1.09
1.6032,128.181957,37.928012,6993.1169256,85.669,0.009,1.101
1.6198,128.181959,37.928058,6992.9703168,85.823,-0.018,1.112
1.6366,128.181961,37.928103,6992.821879200001,85.983,-0.044,1.123
1.6533,128.181963,37.928149,6992.6710032,86.15,-0.069,1.134
1.67,128.181965,37.928195,6992.5176888,86.325,-0.092,1.146
1.6867,128.181967,37.928241,6992.3625456,86.508,-0.114,1.158
1.7034,128.18197,37.928287,6992.2049640000005,86.699,-0.134,1.17
1.7201,128.181972,37.928333,6992.0455536,86.9,-0.154,1.183
1.7368,128.181974,37.928379,6991.8837048000005,87.113,-0.172,1.195
1.7535,128.181976,37.928425,6991.7194176,87.337,-0.19,1.208
1.7702,128.181978,37.928471,6991.553301600001,87.576,-0.207,1.221
1.7869,128.18198,37.928517,6991.3850520000005,87.829,-0.224,1.233
1.8036,128.181983,37.928563,6991.214364,88.098,-0.241,1.247
1.8203,128.181985,37.928609,6991.041542400001,88.384,-0.258,1.26
1.837,128.181987,37.928655,6990.8665872,88.689,-0.276,1.273
1.8537,128.181989,37.928701,6990.6894984,89.014,-0.294,1.286
1.8704,128.181992,37.928747,6990.510276,89.358,-0.312,1.3
1.8871,128.181994,37.928793,6990.328615200001,89.72,-0.331,1.313
1.9038,128.181996,37.928839,6990.1448208,90.1,-0.349,1.327
1.9205,128.181998,37.928885,6989.958892800001,90.496,-0.367,1.341
1.9372,128.182001,37.928931,6989.770526400001,90.907,-0.385,1.355
1.9539,128.182003,37.928977,6989.5803312,91.332,-0.403,1.369
1.9706,128.182005,37.929023,6989.387697600001,91.77,-0.42,1.383
1.9873,128.182008,37.929069,6989.1926256,92.219,-0.438,1.398
2.004,128.18201,37.929115,6988.995724800001,92.678,-0.455,1.413
2.0207,128.182012,37.929161,6988.796385600001,93.146,-0.473,1.428
2.0374,128.182015,37.929207,6988.5949128,93.62,-0.49,1.443
2.0541,128.182017,37.929254,6988.391001600001,94.099,-0.507,1.459
2.0707,128.182019,37.9293,6988.184956800001,94.581,-0.524,1.474
2.0875,128.182022,37.929346,6987.976473600001,95.064,-0.541,1.491
2.1042,128.182024,37.929392,6987.765856800001,95.547,-0.557,1.507
2.1208,128.182026,37.929438,6987.552801600001,96.027,-0.574,1.524
2.1376,128.182029,37.929484,6987.3376128,96.502,-0.59,1.542
2.1543,128.182031,37.92953,6987.1199856,96.971,-0.607,1.559
2.171,128.182034,37.929577,6986.899615200001,97.347,-0.618,1.578
2.1877,128.182036,37.929623,6986.676806400001,97.633,-0.623,1.599
2.2044,128.182039,37.929669,6986.451559200001,97.828,-0.627,1.62
2.2211,128.182041,37.929715,6986.223873600001,97.937,-0.629,1.643
2.2378,128.182044,37.929761,6985.9934448,97.979,-0.633,1.666
2.2544,128.182046,37.929807,6985.760882400001,97.973,-0.64,1.689
2.2712,128.182049,37.929854,6985.5261864,97.931,-0.651,1.712
2.2879,128.182052,37.9299,6985.288747200001,97.864,-0.665,1.735
2.3045,128.182054,37.929946,6985.049174400001,97.778,-0.681,1.758
2.3213,128.182057,37.929992,6984.8068584,97.674,-0.698,1.78
2.338,128.18206,37.930039,6984.5624088,97.554,-0.715,1.803
2.3546,128.182062,37.930085,6984.315216,97.412,-0.732,1.826
2.3714,128.182065,37.930131,6984.0658896,97.245,-0.748,1.849
2.3881,128.182068,37.930177,6983.8135152,97.047,-0.763,1.872
2.4048,128.182071,37.930223,6983.5590071999995,96.814,-0.778,1.896
2.4215,128.182073,37.93027,6983.301756000001,96.541,-0.791,1.92
2.4382,128.182076,37.930316,6983.0420664,96.223,-0.803,1.944
2.4549,128.182079,37.930362,6982.779938400001,95.853,-0.814,1.968
2.4716,128.182082,37.930408,6982.5150672,95.427,-0.825,1.993
2.4882,128.182085,37.930455,6982.2477576,94.938,-0.834,2.018
2.505,128.182088,37.930501,6981.9780096,94.389,-0.842,2.043
2.5217,128.182091,37.930547,6981.705823200001,93.78,-0.85,2.068
2.5383,128.182094,37.930593,6981.4311984,93.115,-0.858,2.093
2.5551,128.182098,37.93064,6981.15444,92.396,-0.866,2.118
2.5718,128.182101,37.930686,6980.8752432,91.625,-0.874,2.143
2.5884,128.182104,37.930732,6980.5939128,90.804,-0.883,2.167
2.6052,128.182107,37.930778,6980.3104488,89.937,-0.891,2.191
2.6219,128.182111,37.930825,6980.025765600001,89.228,-0.913,2.214
2.6386,128.182114,37.930871,6979.7389488,88.673,-0.947,2.237
2.6553,128.182117,37.930917,6979.4503032,88.276,-0.989,2.259
2.6719,128.182121,37.930963,6979.159219200001,88.036,-1.033,2.28
2.6887,128.182124,37.93101,6978.8660016,87.932,-1.077,2.301
2.7054,128.182128,37.931056,6978.570650400001,87.947,-1.119,2.321
2.722,128.182131,37.931102,6978.2731656000005,88.063,-1.156,2.34
2.7388,128.182134,37.931149,6977.9732424,88.266,-1.19,2.359
2.7555,128.182138,37.931195,6977.6711856,88.541,-1.221,2.377
2.7721,128.182141,37.931241,6977.3669952,88.877,-1.249,2.396
2.7889,128.182145,37.931288,6977.0606712,89.264,-1.275,2.413
2.8056,128.182148,37.931334,6976.752213600001,89.693,-1.299,2.431
2.8222,128.182152,37.93138,6976.441622400001,90.156,-1.322,2.448
2.839,128.182155,37.931427,6976.128288000001,90.536,-1.336,2.465
2.8557,128.182159,37.931473,6975.812820000001,90.835,-1.343,2.483
2.8724,128.182162,37.931519,6975.4952184,91.049,-1.346,2.502
2.8891,128.182166,37.931566,6975.175483200001,91.179,-1.346,2.521
2.9057,128.182169,37.931612,6974.853614400001,91.226,-1.347,2.54
2.9225,128.182173,37.931659,6974.5299168,91.192,-1.348,2.56
2.9392,128.182177,37.931705,6974.2037808000005,91.08,-1.35,2.581
2.9558,128.18218,37.931752,6973.875816,90.892,-1.352,2.602
2.9726,128.182184,37.931798,6973.5457176,90.633,-1.355,2.624
2.9893,128.182188,37.931844,6973.2134856,90.306,-1.359,2.646
3.0059,128.182192,37.931891,6972.8791200000005,89.914,-1.363,2.669
3.0227,128.182195,37.931937,6972.5426208,89.461,-1.366,2.691
3.0394,128.182199,37.931984,6972.204292800001,88.949,-1.369,2.714
3.056,128.182203,37.93203,6971.8638312,88.38,-1.372,2.737
3.0728,128.182207,37.932076,6971.5215408,87.757,-1.375,2.76
3.0895,128.182211,37.932123,6971.1774216,87.082,-1.378,2.783
3.1062,128.182215,37.932169,6970.8311688,86.357,-1.383,2.806
3.1229,128.182219,37.932216,6970.483392000001,85.584,-1.387,2.828
3.1395,128.182224,37.932262,6970.133786400001,84.766,-1.392,2.849
3.1563,128.182228,37.932309,6969.782656800001,83.905,-1.397,2.871
3.173,128.182232,37.932355,6969.4306128,83.209,-1.416,2.892
3.1896,128.182236,37.932401,6969.07674,82.672,-1.447,2.915
3.2064,128.18224,37.932448,6968.7213432,82.297,-1.486,2.937
3.2231,128.182245,37.932494,6968.3641176,82.084,-1.528,2.959
3.2397,128.182249,37.932541,6968.0050632,82.032,-1.571,2.98
3.2565,128.182253,37.932587,6967.6438751999995,82.126,-1.612,3.0
3.2732,128.182258,37.932634,6967.2808584,82.348,-1.652,3.02
3.2899,128.182262,37.93268,6966.915708,82.678,-1.688,3.039
3.3066,128.182266,37.932727,6966.5487288,83.101,-1.721,3.057
3.3233,128.182271,37.932773,6966.1793112000005,83.601,-1.751,3.075
3.34,128.182275,37.93282,6965.807760000001,84.166,-1.778,3.092
3.3567,128.182279,37.932866,6965.433770400001,84.651,-1.795,3.108
3.3734,128.182284,37.932913,6965.057952000001,85.056,-1.803,3.124
3.3901,128.182288,37.932959,6964.6803048,85.379,-1.805,3.141
3.4068,128.182293,37.933006,6964.300524,85.617,-1.805,3.157
3.4235,128.182297,37.933053,6963.9189144,85.772,-1.804,3.175
3.4402,128.182302,37.933099,6963.5357808,85.845,-1.804,3.193
3.4569,128.182306,37.933146,6963.1505136000005,85.838,-1.804,3.211
3.4736,128.182311,37.933192,6962.7637224,85.756,-1.805,3.231
3.4903,128.182315,37.933239,6962.3754072,85.601,-1.807,3.251
3.507,128.18232,37.933285,6961.9849584,85.377,-1.809,3.271
3.5237,128.182324,37.933332,6961.5932904,85.086,-1.812,3.293
3.5404,128.182329,37.933379,6961.1997936,84.731,-1.815,3.315
3.5571,128.182334,37.933425,6960.8047728,84.316,-1.819,3.337
3.5738,128.182339,37.933472,6960.4079232,83.842,-1.823,3.359
3.5905,128.182344,37.933518,6960.0095496,83.313,-1.827,3.381
3.6072,128.182348,37.933565,6959.609956800001,82.73,-1.832,3.403
3.6239,128.182353,37.933612,6959.2085352,82.096,-1.838,3.425
3.6406,128.182358,37.933658,6958.8058944,81.414,-1.843,3.446
3.6573,128.182363,37.933705,6958.4017296,80.686,-1.85,3.467
3.674,128.182368,37.933751,6957.996040800001,79.913,-1.856,3.488
3.6907,128.182373,37.933798,6957.589437600001,79.098,-1.863,3.508
3.7074,128.182378,37.933845,6957.1813104,78.243,-1.87,3.528
3.7241,128.182384,37.933891,6956.7719640000005,77.35,-1.878,3.546
3.7408,128.182389,37.933938,6956.3617032,76.42,-1.886,3.564
3.7575,128.182394,37.933984,6955.951137600001,75.663,-1.907,3.584
3.7742,128.182399,37.934031,6955.539048,75.074,-1.941,3.606
3.7909,128.182405,37.934078,6955.126044,74.653,-1.983,3.629
3.8076,128.18241,37.934124,6954.7112112,74.402,-2.028,3.651
3.8243,128.182415,37.934171,6954.2951592,74.318,-2.073,3.673
3.841,128.182421,37.934218,6953.877583200001,74.395,-2.117,3.694
3.8577,128.182426,37.934264,6953.4581784,74.628,-2.161,3.715
3.8744,128.182431,37.934311,6953.0369448,75.002,-2.203,3.734
3.8911,128.182437,37.934358,6952.6135776,75.496,-2.242,3.753
3.9078,128.182442,37.934404,6952.1883816,76.093,-2.278,3.771
3.9245,128.182448,37.934451,6951.761052000001,76.776,-2.311,3.788
3.9412,128.182453,37.934498,6951.331284000001,77.379,-2.332,3.802
3.9579,128.182458,37.934545,6950.899687200001,77.903,-2.342,3.815
3.9746,128.182464,37.934591,6950.4665663999995,78.341,-2.345,3.828
3.9913,128.182469,37.934638,6950.0319216,78.693,-2.345,3.84
4.008,128.182475,37.934685,6949.595448,78.957,-2.344,3.854
4.0247,128.18248,37.934732,6949.157755200001,79.136,-2.344,3.868
4.0414,128.182486,37.934778,6948.718843199999,79.233,-2.343,3.884
4.058,128.182491,37.934825,6948.2784071999995,79.251,-2.344,3.901
4.0748,128.182497,37.934872,6947.836752000001,79.192,-2.345,3.918
4.0915,128.182503,37.934919,6947.3938776,79.061,-2.346,3.937
4.1082,128.182508,37.934966,6946.9500888,78.86,-2.348,3.957
4.1249,128.182514,37.935012,6946.504776,78.593,-2.35,3.977
4.1415,128.18252,37.935059,6946.058244,78.261,-2.353,3.998
4.1583,128.182526,37.935106,6945.610797600001,77.869,-2.356,4.019
4.175,128.182531,37.935153,6945.162132,77.418,-2.359,4.04
4.1917,128.182537,37.935199,6944.712247200001,76.912,-2.363,4.061
4.2084,128.182543,37.935246,6944.261448,76.352,-2.367,4.083
4.2251,128.182549,37.935293,6943.8097344,75.741,-2.371,4.104
4.2417,128.182555,37.93534,6943.356801600001,75.081,-2.376,4.125
4.2585,128.182561,37.935387,6942.9029544,74.374,-2.382,4.145
4.2752,128.182567,37.935433,6942.448497600001,73.623,-2.387,4.165
4.2919,128.182573,37.93548,6941.9928216,72.829,-2.393,4.184
4.3086,128.18258,37.935527,6941.5365360000005,71.995,-2.4,4.203
4.3252,128.182586,37.935574,6941.079640800001,71.122,-2.407,4.221
4.342,128.182592,37.935621,6940.622136,70.212,-2.415,4.238
4.3587,128.182598,37.935668,6940.1637168,69.267,-2.423,4.254
4.3754,128.182605,37.935714,6939.7052976,68.288,-2.431,4.27
4.3921,128.182611,37.935761,6939.245964000001,67.277,-2.441,4.284
4.4088,128.182618,37.935808,6938.7866304,66.235,-2.45,4.298
4.4254,128.182624,37.935855,6938.327601600001,65.375,-2.473,4.315
4.4422,128.18263,37.935902,6937.8676584,64.69,-2.509,4.338
4.4589,128.182637,37.935949,6937.4071056,64.182,-2.552,4.362
4.4756,128.182644,37.935995,6936.9456384000005,63.851,-2.599,4.387
4.4923,128.18265,37.936042,6936.483256800001,63.483,-2.633,4.406
4.5089,128.182657,37.936089,6936.020570400001,63.081,-2.652,4.424
4.5256,128.182663,37.936136,6935.557884000001,62.638,-2.66,4.444
4.5424,128.18267,37.936183,6935.095197600001,62.147,-2.662,4.466
4.5591,128.182677,37.93623,6934.632815999999,61.606,-2.659,4.493
4.5758,128.182684,37.936277,6934.1704344,61.016,-2.654,4.525
4.5925,128.18269,37.936324,6933.7086624,60.376,-2.646,4.562
4.6091,128.182697,37.93637,6933.246890400001,59.69,-2.635,4.604
4.6259,128.182704,37.936417,6932.785728000001,58.959,-2.621,4.653
4.6426,128.182711,37.936464,6932.3251752,58.185,-2.603,4.707
4.6593,128.182718,37.936511,6931.865232,57.371,-2.582,4.766
4.676,128.182725,37.936558,6931.4058984,56.517,-2.557,4.83
4.6927,128.182732,37.936605,6930.947479200001,55.627,-2.529,4.899
4.7093,128.182739,37.936652,6930.490279200001,54.701,-2.496,4.973
4.7261,128.182747,37.936699,6930.0342984,53.742,-2.46,5.05
4.7428,128.182754,37.936746,6929.579232,52.75,-2.419,5.132
4.7595,128.182761,37.936793,6929.1259944,51.727,-2.373,5.219
4.7762,128.182768,37.93684,6928.6745856,50.674,-2.323,5.308
4.7928,128.182776,37.936886,6928.2247008,49.592,-2.268,5.4
4.8096,128.182783,37.936933,6927.7769496,48.483,-2.209,5.495
4.8263,128.182791,37.93698,6927.3316368000005,47.346,-2.147,5.591
4.843,128.182798,37.937027,6926.8884576,46.183,-2.08,5.688
4.8597,128.182806,37.937074,6926.4483264,44.994,-2.01,5.787
4.8764,128.182813,37.937121,6926.010938400001,43.78,-1.935,5.885
4.893,128.182821,37.937168,6925.5765984,42.542,-1.858,5.983
4.9098,128.182829,37.937215,6925.1456112000005,41.28,-1.778,6.08
4.9265,128.182837,37.937262,6924.7182816,39.994,-1.696,6.174
4.9432,128.182845,37.937309,6924.2949144,38.685,-1.61,6.268
4.9599,128.182852,37.937356,6923.8755096,37.353,-1.522,6.359
4.9765,128.18286,37.937403,6923.4603720000005,35.997,-1.43,6.45
4.9932,128.182868,37.93745,6923.049196800001,34.651,-1.337,6.541
5.01,128.182876,37.937497,6922.6422888,33.38,-1.244,6.635
5.0267,128.182885,37.937544,6922.239648,32.223,-1.154,6.734
5.0434,128.182893,37.937591,6921.840664800001,31.214,-1.066,6.839
5.0601,128.182901,37.937638,6921.445644,30.371,-0.979,6.949
5.0767,128.182909,37.937685,6921.0542808,29.685,-0.895,7.06
5.0935,128.182917,37.937732,6920.666270400001,29.145,-0.813,7.169
5.1102,128.182926,37.937779,6920.2813080000005,28.727,-0.736,7.271
5.1269,128.182934,37.937826,6919.8990888,28.412,-0.666,7.365
5.1436,128.182942,37.937873,6919.5196128,28.171,-0.607,7.446
5.1602,128.182951,37.93792,6919.1431848,27.989,-0.558,7.515
5.1769,128.182959,37.937967,6918.7701096,27.821,-0.521,7.57
5.1937,128.182967,37.938014,6918.400692,27.626,-0.498,7.607
5.2104,128.182976,37.938061,6918.0352368,27.362,-0.489,7.628
5.2271,128.182984,37.938108,6917.6740488000005,27.027,-0.496,7.634
5.2438,128.182993,37.938155,6917.317128000001,26.619,-0.518,7.628
5.2604,128.183001,37.938202,6916.965084000001,26.138,-0.552,7.615
5.2772,128.18301,37.938249,6916.6182216,25.586,-0.591,7.6
5.2939,128.183019,37.938297,6916.2765408000005,24.964,-0.631,7.583
5.3106,128.183027,37.938344,6915.9406512000005,24.274,-0.668,7.569
5.3273,128.183036,37.938391,6915.6108576,23.519,-0.697,7.558
5.3439,128.183045,37.938438,6915.2865504,22.701,-0.715,7.552
5.3606,128.183054,37.938485,6914.967120000001,21.854,-0.72,7.554
5.3774,128.183063,37.938532,6914.6528712,21.038,-0.713,7.568
5.3941,128.183071,37.938579,6914.3431944,20.265,-0.694,7.591
5.4108,128.18308,37.938626,6914.03748,19.544,-0.667,7.622
5.4275,128.183089,37.938673,6913.7360328,18.894,-0.633,7.657
5.4441,128.183098,37.938721,6913.437938400001,18.326,-0.592,7.697
5.4609,128.183107,37.938768,6913.1435016000005,17.837,-0.548,7.739
5.4776,128.183116,37.938815,6912.8515032,17.396,-0.505,7.779
5.4943,128.183125,37.938862,6912.5643816,16.954,-0.467,7.81
5.511,128.183134,37.938909,6912.2809176,16.484,-0.436,7.832
5.5277,128.183143,37.938956,6912.0023304,15.959,-0.412,7.844
5.5443,128.183152,37.939004,6911.728620000001,15.364,-0.398,7.849
5.5611,128.183161,37.939051,6911.459786400001,14.7,-0.394,7.847
5.5778,128.18317,37.939098,6911.1964392,13.965,-0.399,7.841
5.5945,128.183179,37.939145,6910.939188000001,13.161,-0.413,7.833
5.6112,128.183188,37.939192,6910.687728000001,12.289,-0.431,7.823
5.6278,128.183198,37.93924,6910.441754400001,11.352,-0.448,7.814
5.6445,128.183207,37.939287,6910.2012672,10.352,-0.463,7.805
5.6613,128.183216,37.939334,6909.966876,9.29,-0.473,7.797
5.678,128.183225,37.939381,6909.7376664,8.169,-0.477,7.79
5.6947,128.183234,37.939429,6909.513333600001,7.02,-0.475,7.786
5.7114,128.183243,37.939476,6909.2935728,5.882,-0.466,7.787
5.728,128.183253,37.939523,6909.0780792000005,4.734,-0.452,7.79
5.7448,128.183262,37.93957,6908.8662432,3.597,-0.434,7.794
5.7615,128.183271,37.939618,6908.6601984,2.422,-0.415,7.796
5.7782,128.18328,37.939665,6908.4584208,1.2,-0.409,7.791
5.7949,128.18329,37.939712,6908.2621296,-0.068,-0.413,7.779
5.8115,128.183299,37.939759,6908.0716296,-1.386,-0.421,7.764
5.8282,128.183308,37.939807,6907.886311200001,-2.754,-0.425,7.747
5.845,128.183317,37.939854,6907.706174400001,-4.172,-0.421,7.729
5.8617,128.183326,37.939901,6907.531828800001,-5.639,-0.406,7.71
5.8784,128.183336,37.939948,6907.362664800001,-7.154,-0.379,7.689
5.8951,128.183345,37.939996,6907.1986824000005,-8.716,-0.338,7.665
5.9117,128.183354,37.940043,6907.0404912,-10.322,-0.284,7.639
5.9285,128.183363,37.94009,6906.887481600001,-11.972,-0.216,7.608
5.9452,128.183372,37.940137,6906.7402632,-13.663,-0.137,7.574
5.9619,128.183381,37.940185,6906.5985312,-15.394,-0.045,7.534
5.9786,128.18339,37.940232,6906.4622856000005,-17.163,0.055,7.488
5.9952,128.183399,37.940279,6906.3318312,-18.969,0.167,7.436
6.0119,128.183408,37.940326,6906.207168,-20.812,0.287,7.377
6.0287,128.183417,37.940374,6906.0879912,-22.688,0.414,7.31
6.0454,128.183426,37.940421,6905.9749104,-24.599,0.548,7.235
6.0621,128.183435,37.940468,6905.8676208,-26.542,0.688,7.152
6.0788,128.183444,37.940515,6905.7661224,-28.517,0.832,7.06
6.0954,128.183453,37.940563,6905.670720000001,-30.524,0.98,6.959
6.1121,128.183462,37.94061,6905.5811088,-32.56,1.131,6.849
6.1289,128.18347,37.940657,6905.4972888,-34.627,1.284,6.728
6.1456,128.183479,37.940705,6905.4195648,-36.723,1.439,6.597
6.1623,128.183488,37.940752,6905.347632,-38.848,1.594,6.456
6.179,128.183496,37.940799,6905.281490400001,-41.002,1.748,6.304
6.1956,128.183504,37.940846,6905.2208352,-43.185,1.902,6.14
6.2124,128.183513,37.940894,6905.1659712,-45.395,2.053,5.965
6.2291,128.183521,37.940941,6905.1165936,-47.633,2.202,5.779
6.2458,128.183529,37.940988,6905.072397600001,-49.899,2.348,5.581
6.2625,128.183537,37.941036,6905.033383200001,-52.192,2.489,5.37
6.2791,128.183545,37.941083,6904.999550400001,-54.513,2.625,5.148
6.2958,128.183553,37.94113,6904.9702896,-56.86,2.756,4.913
6.3126,128.183561,37.941177,6904.945296000001,-59.235,2.879,4.665
6.3293,128.183568,37.941225,6904.924569600001,-61.637,2.995,4.405
6.346,128.183576,37.941272,6904.907805600001,-64.067,3.103,4.132
6.3627,128.183583,37.941319,6904.8946992,-66.523,3.201,3.847
6.3793,128.18359,37.941367,6904.8846408,-69.006,3.288,3.548
6.3961,128.183597,37.941414,6904.8770208,-71.491,3.366,3.237
6.4128,128.183604,37.941461,6904.8709248000005,-73.946,3.434,2.917
6.4295,128.183611,37.941509,6904.8666576,-76.337,3.491,2.591
6.4462,128.183618,37.941556,6904.863,-78.638,3.537,2.264
6.4628,128.183624,37.941603,6904.860256800001,-80.829,3.571,1.939
6.4795,128.183631,37.941651,6904.8572088,-82.893,3.592,1.618
6.4963,128.183637,37.941698,6904.8541608000005,-84.821,3.601,1.301
6.513,128.183644,37.941746,6904.8505032,-86.609,3.596,0.989
6.5297,128.18365,37.941793,6904.8459312,-88.257,3.579,0.683
6.5464,128.183656,37.94184,6904.8404448,-89.767,3.55,0.383
6.5631,128.183662,37.941888,6904.8334343999995,-91.144,3.51,0.09
6.5798,128.183667,37.941935,6904.824595200001,-92.396,3.46,359.803
6.5965,128.183673,37.941983,6904.814232000001,-93.53,3.4,359.522
6.6132,128.183679,37.94203,6904.8017352,-94.555,3.331,359.249
6.6299,128.183684,37.942077,6904.787104800001,-95.48,3.255,358.983
6.6466,128.183689,37.942125,6904.770340800001,-96.314,3.172,358.725
6.6633,128.183695,37.942172,6904.750833600001,-97.066,3.084,358.474
6.68,128.1837,37.94222,6904.728888000001,-97.742,2.991,358.231
6.6967,128.183705,37.942267,6904.7038944000005,-98.353,2.894,357.995
6.7134,128.18371,37.942315,6904.6761576,-98.905,2.794,357.767
6.7301,128.183714,37.942362,6904.645068000001,-99.407,2.693,357.546
6.7468,128.183719,37.94241,6904.6109304,-99.868,2.591,357.332
6.7635,128.183724,37.942457,6904.5728304,-100.295,2.491,357.123
6.7802,128.183728,37.942505,6904.5313776,-100.696,2.394,356.92
6.7969,128.183732,37.942552,6904.4862672,-101.073,2.299,356.722
6.8136,128.183737,37.9426,6904.4371944,-101.425,2.206,356.529
6.8303,128.183741,37.942647,6904.384464000001,-101.751,2.115,356.341
6.847,128.183745,37.942695,6904.3277712,-102.05,2.023,356.158
6.8637,128.183748,37.942742,6904.2674208,-102.321,1.933,355.978
6.8804,128.183752,37.94279,6904.203108,-102.559,1.842,355.803
6.8971,128.183755,37.942837,6904.1345280000005,-102.764,1.753,355.631
6.9138,128.183759,37.942885,6904.0622904,-102.933,1.664,355.465
6.9305,128.183762,37.942932,6903.9857856,-103.061,1.578,355.305
6.9472,128.183765,37.94298,6903.9053184,-103.146,1.494,355.155
6.9639,128.183768,37.943027,6903.8208888,-103.184,1.413,355.016
6.9806,128.183771,37.943075,6903.7324968,-103.173,1.336,354.886
6.9973,128.183774,37.943122,6903.6401424000005,-103.109,1.262,354.768
7.014,128.183777,37.94317,6903.5438256,-102.992,1.192,354.66
7.0307,128.183779,37.943218,6903.443546400001,-102.82,1.125,354.558
7.0474,128.183782,37.943265,6903.339304800001,-102.593,1.061,354.461
7.0641,128.183784,37.943313,6903.231100800001,-102.314,0.998,354.369
7.0808,128.183787,37.94336,6903.1192392,-101.985,0.938,354.279
7.0975,128.183789,37.943408,6903.003415200001,-101.609,0.88,354.192
7.1142,128.183791,37.943455,6902.883628800001,-101.189,0.823,354.106
7.1309,128.183793,37.943503,6902.7601848,-100.734,0.767,354.017
7.1476,128.183794,37.94355,6902.6330832,-100.246,0.712,353.926
7.1643,128.183796,37.943598,6902.5020192,-99.733,0.657,353.831
7.181,128.183798,37.943646,6902.367297600001,-99.197,0.604,353.734
7.1977,128.183799,37.943693,6902.2289184,-98.647,0.551,353.633
7.2144,128.1838,37.943741,6902.0871864,-98.087,0.5,353.526
7.2311,128.183801,37.943788,6901.941796800001,-97.521,0.449,353.416
7.2478,128.183802,37.943836,6901.7930544,-96.954,0.399,353.3
7.2645,128.183803,37.943883,6901.6406544,-96.394,0.35,353.177
7.2812,128.183804,37.943931,6901.485206400001,-95.843,0.303,353.049
7.2979,128.183804,37.943978,6901.326405600001,-95.307,0.258,352.917
7.3146,128.183805,37.944026,6901.1642520000005,-94.786,0.214,352.782
7.3313,128.183805,37.944073,6900.9993552000005,-94.283,0.173,352.646
7.348,128.183805,37.944121,6900.831410400001,-93.8,0.133,352.51
7.3647,128.183805,37.944168,6900.6604176,-93.339,0.096,352.373
7.3814,128.183805,37.944216,6900.4866816,-92.902,0.06,352.237
7.3981,128.183805,37.944263,6900.3102024,-92.491,0.027,352.102
7.4148,128.183804,37.944311,6900.1312848,-92.105,-0.004,351.968
7.4315,128.183803,37.944358,6899.949624000001,-91.746,-0.035,351.834
7.4482,128.183803,37.944406,6899.765220000001,-91.416,-0.063,351.701
7.4649,128.183802,37.944453,6899.578682400001,-91.112,-0.091,351.568
7.4816,128.183801,37.944501,6899.390011200001,-90.835,-0.118,351.436
7.4983,128.183799,37.944548,6899.198596800001,-90.585,-0.145,351.304
7.515,128.183798,37.944596,6899.0053536000005,-90.362,-0.173,351.172
7.5317,128.183796,37.944643,6898.809672,-90.166,-0.2,351.04
7.5484,128.183795,37.94469,6898.611856800001,-89.996,-0.226,350.908
7.5651,128.183793,37.944738,6898.411908,-89.851,-0.252,350.775
7.5818,128.183791,37.944785,6898.2095208,-89.73,-0.278,350.643
7.5985,128.183789,37.944833,6898.0053048,-89.634,-0.303,350.509
7.6152,128.183786,37.94488,6897.799260000001,-89.559,-0.327,350.375
7.6319,128.183784,37.944927,6897.590776800001,-89.505,-0.351,350.241
7.6486,128.183781,37.944975,6897.3804648000005,-89.47,-0.375,350.106
7.6653,128.183778,37.945022,6897.1680192,-89.453,-0.399,349.971
7.682,128.183775,37.945069,6896.95344,-89.452,-0.422,349.835
7.6987,128.183772,37.945117,6896.7367272,-89.466,-0.446,349.698
7.7154,128.183769,37.945164,6896.5181856,-89.493,-0.47,349.561
7.7321,128.183766,37.945211,6896.2978152000005,-89.529,-0.495,349.423
7.7488,128.183762,37.945258,6896.0750064,-89.573,-0.522,349.284
7.7655,128.183759,37.945306,6895.850673600001,-89.622,-0.551,349.146
7.7822,128.183755,37.945353,6895.6239024,-89.676,-0.582,349.006
7.7989,128.183751,37.9454,6895.3956072,-89.735,-0.616,348.866
7.8156,128.183747,37.945447,6895.164873600001,-89.797,-0.653,348.726
7.8323,128.183742,37.945494,6894.932311200001,-89.865,-0.691,348.586
7.849,128.183738,37.945542,6894.697310400001,-89.94,-0.731,348.445
7.8657,128.183733,37.945589,6894.460176,-90.021,-0.771,348.304
7.8824,128.183729,37.945636,6894.2212128,-90.111,-0.812,348.162
7.8991,128.183724,37.945683,6893.979811200001,-90.209,-0.853,348.021
7.9158,128.183719,37.94573,6893.7359712,-90.316,-0.895,347.878
7.9325,128.183714,37.945777,6893.4903024,-90.432,-0.937,347.736
7.9492,128.183708,37.945824,6893.241890400001,-90.557,-0.979,347.593
7.9659,128.183703,37.945871,6892.9916496000005,-90.693,-1.023,347.45
7.9826,128.183697,37.945918,6892.738665600001,-90.838,-1.066,347.306
7.9993,128.183691,37.945965,6892.483548,-90.994,-1.111,347.162
8.016,128.183686,37.946012,6892.225992000001,-91.161,-1.156,347.019
8.0327,128.18368,37.946059,6891.965997600001,-91.341,-1.202,346.874
8.0494,128.183673,37.946106,6891.70326,-91.532,-1.248,346.73
8.0661,128.183667,37.946153,6891.4383888,-91.736,-1.296,346.585
8.0828,128.183661,37.9462,6891.1707744000005,-91.953,-1.344,346.441
8.0994,128.183654,37.946247,6890.9004168,-92.182,-1.393,346.296
8.1161,128.183647,37.946293,6890.6276208,-92.423,-1.443,346.151
8.1329,128.18364,37.94634,6890.3517768,-92.678,-1.494,346.005
8.1496,128.183633,37.946387,6890.0734944000005,-92.945,-1.546,345.86
8.1663,128.183626,37.946434,6889.792164,-93.225,-1.598,345.715
8.183,128.183619,37.94648,6889.508090400001,-93.517,-1.652,345.569
8.1997,128.183611,37.946527,6889.2209688,-93.82,-1.707,345.423
8.2164,128.183603,37.946574,6888.9307992,-94.134,-1.763,345.278
8.2331,128.183596,37.94662,6888.6375816,-94.459,-1.819,345.132
8.2498,128.183588,37.946667,6888.341011200001,-94.793,-1.877,344.986
8.2665,128.18358,37.946713,6888.041392800001,-95.136,-1.936,344.84
8.2831,128.183571,37.94676,6887.7384216,-95.488,-1.997,344.693
8.2998,128.183563,37.946806,6887.432097600001,-95.847,-2.058,344.547
8.3166,128.183554,37.946853,6887.1224208,-96.213,-2.121,344.401
8.3333,128.183546,37.946899,6886.8090864000005,-96.584,-2.184,344.255
8.35,128.183537,37.946946,6886.4923992,-96.961,-2.249,344.109
8.3667,128.183528,37.946992,6886.1717496,-97.342,-2.316,343.962
8.3834,128.183519,37.947038,6885.847442400001,-97.727,-2.383,343.816
8.4001,128.18351,37.947084,6885.519477600001,-98.116,-2.452,343.67
8.4168,128.1835,37.947131,6885.187550400001,-98.505,-2.522,343.524
8.4335,128.183491,37.947177,6884.851356000001,-98.897,-2.593,343.378
8.4502,128.183481,37.947223,6884.511504,-99.289,-2.666,343.233
8.4668,128.183472,37.947269,6884.1673848,-99.68,-2.74,343.088
8.4835,128.183462,37.947316,6883.8189984,-100.068,-2.816,342.944
8.5003,128.183452,37.947362,6883.4663448,-100.453,-2.895,342.8
8.517,128.183441,37.947408,6883.109424,-100.836,-2.976,342.657
8.5337,128.183431,37.947454,6882.748236,-101.216,-3.058,342.514
8.5504,128.183421,37.9475,6882.3821712,-101.594,-3.141,342.371
8.5671,128.18341,37.947546,6882.0115344,-101.971,-3.224,342.228
8.5838,128.183399,37.947592,6881.6363255999995,-102.348,-3.307,342.086
8.6005,128.183388,37.947638,6881.25624,-102.72,-3.391,341.943
8.6172,128.183377,37.947684,6880.8712776,-103.09,-3.475,341.801
8.6339,128.183366,37.94773,6880.4817432,-103.454,-3.561,341.659
8.6505,128.183355,37.947776,6880.0870272,-103.813,-3.647,341.518
8.6672,128.183344,37.947821,6879.6871296,-104.168,-3.735,341.377
8.684,128.183332,37.947867,6879.282355200001,-104.518,-3.824,341.236
8.7007,128.18332,37.947913,6878.8723992000005,-104.863,-3.914,341.096
8.7174,128.183309,37.947959,6878.4572616,-105.203,-4.005,340.956
8.7341,128.183297,37.948004,6878.036637600001,-105.537,-4.096,340.817
8.7508,128.183285,37.94805,6877.610832,-105.866,-4.189,340.678
8.7675,128.183273,37.948096,6877.17954,-106.19,-4.283,340.539
8.7842,128.18326,37.948141,6876.7427615999995,-106.508,-4.377,340.402
8.8009,128.183248,37.948187,6876.300192000001,-106.821,-4.473,340.264
8.8176,128.183235,37.948233,6875.852136,-107.128,-4.569,340.127
8.8342,128.183222,37.948278,6875.3985936,-107.432,-4.667,339.991
8.8509,128.18321,37.948324,6874.939260000001,-107.731,-4.765,339.854
8.8676,128.183197,37.948369,6874.4738304,-108.026,-4.864,339.719
8.8844,128.183184,37.948415,6874.002914400001,-108.316,-4.964,339.583
8.9011,128.18317,37.94846,6873.525597600001,-108.602,-5.065,339.448
8.9178,128.183157,37.948505,6873.0427944,-108.884,-5.166,339.314
8.9345,128.183143,37.948551,6872.5535904,-109.161,-5.268,339.18
8.9512,128.18313,37.948596,6872.0582904,-109.434,-5.371,339.046
8.9679,128.183116,37.948641,6871.5568944,-109.703,-5.474,338.912
8.9846,128.183102,37.948687,6871.0494024,-109.968,-5.578,338.779
9.0013,128.183088,37.948732,6870.5355096,-110.229,-5.683,338.647
9.0179,128.183074,37.948777,6870.0155208,-110.486,-5.788,338.515
9.0346,128.18306,37.948822,6869.4888264,-110.738,-5.894,338.383
9.0513,128.183046,37.948867,6868.955731200001,-110.986,-6.0,338.251
9.0681,128.183031,37.948913,6868.4162352,-111.23,-6.107,338.121
9.0848,128.183016,37.948958,6867.870338400001,-111.47,-6.215,337.99
9.1015,128.183002,37.949003,6867.317736,-111.707,-6.323,337.86
9.1182,128.182987,37.949048,6866.758428,-111.94,-6.431,337.73
9.1349,128.182972,37.949093,6866.1927192,-112.169,-6.54,337.601
9.1516,128.182957,37.949138,6865.620000000001,-112.396,-6.649,337.472
9.1683,128.182941,37.949182,6865.0405752,-112.619,-6.759,337.344
9.185,128.182926,37.949227,6864.454444800001,-112.84,-6.869,337.216
9.2016,128.182911,37.949272,6863.861304,-113.057,-6.98,337.089
9.2183,128.182895,37.949317,6863.2611528,-113.271,-7.091,336.961
9.235,128.182879,37.949362,6862.653991200001,-113.482,-7.202,336.835
9.2518,128.182863,37.949406,6862.040124000001,-113.69,-7.314,336.708
9.2685,128.182847,37.949451,6861.418941600001,-113.896,-7.426,336.582
9.2852,128.182831,37.949496,6860.7907488,-114.098,-7.538,336.457
9.3019,128.182815,37.94954,6860.155545600001,-114.298,-7.651,336.331
9.3186,128.182799,37.949585,6859.513027200001,-114.495,-7.764,336.206
9.3353,128.182782,37.949629,6858.8631936,-114.689,-7.877,336.082
9.352,128.182766,37.949674,6858.2063496,-114.881,-7.991,335.957
9.3687,128.182749,37.949718,6857.541885600001,-115.07,-8.105,335.833
9.3854,128.182732,37.949763,6856.8704112000005,-115.257,-8.219,335.709
9.402,128.182715,37.949807,6856.1913168,-115.44,-8.334,335.586
9.4187,128.182698,37.949851,6855.505212,-115.622,-8.449,335.462
9.4355,128.182681,37.949896,6854.811487200001,-115.801,-8.564,335.339
9.4522,128.182664,37.94994,6854.110142400001,-115.977,-8.679,335.217
9.4689,128.182646,37.949984,6853.401177600001,-116.152,-8.795,335.094
9.4856,128.182629,37.950028,6852.684897600001,-116.324,-8.911,334.972
9.5023,128.182611,37.950072,6851.960997600001,-116.494,-9.027,334.85
9.519,128.182594,37.950116,6851.229477600001,-116.662,-9.143,334.728
9.5357,128.182576,37.950161,6850.4903376,-116.828,-9.26,334.606
9.5524,128.182558,37.950205,6849.7432728,-116.992,-9.376,334.485
9.5691,128.18254,37.950248,6848.988892800001,-117.154,-9.493,334.364
9.5857,128.182521,37.950292,6848.226283200001,-117.314,-9.61,334.243
9.6024,128.182503,37.950336,6847.4560536,-117.472,-9.728,334.123
9.6192,128.182485,37.95038,6846.678204,-117.629,-9.845,334.002
9.6359,128.182466,37.950424,6845.892124800001,-117.783,-9.963,333.882
9.6526,128.182447,37.950468,6845.0984256,-117.935,-10.081,333.762
9.6693,128.182429,37.950511,6844.296496800001,-118.086,-10.199,333.643
9.686,128.18241,37.950555,6843.486948,-118.235,-10.317,333.523
9.7027,128.182391,37.950598,6842.669169600001,-118.382,-10.435,333.404
9.7194,128.182372,37.950642,6841.8434664,-118.527,-10.554,333.285
9.7361,128.182352,37.950685,6841.0095336,-118.671,-10.673,333.166
9.7528,128.182333,37.950729,6840.167676,-118.813,-10.791,333.047
9.7694,128.182314,37.950772,6839.3175888,-118.953,-10.91,332.929
9.7861,128.182294,37.950816,6838.4595768,-119.092,-11.029,332.81
9.8029,128.182274,37.950859,6837.5930304,-119.229,-11.148,332.692
9.8196,128.182255,37.950902,6836.7185592000005,-119.364,-11.268,332.574
9.8363,128.182235,37.950945,6835.8358584,-119.499,-11.387,332.456
9.853,128.182215,37.950989,6834.9446232,-119.631,-11.507,332.339
9.8697,128.182195,37.951032,6834.0454632,-119.762,-11.626,332.221
9.8864,128.182174,37.951075,6833.1377688,-119.892,-11.746,332.104
9.9031,128.182154,37.951118,6832.2215400000005,-120.02,-11.866,331.987
9.9198,128.182134,37.951161,6831.297081600001,-120.147,-11.986,331.869
9.9365,128.182113,37.951204,6830.3643936,-120.273,-12.106,331.752
9.9531,128.182092,37.951247,6829.4231712,-120.398,-12.226,331.635
9.9698,128.182072,37.951289,6828.4734144,-120.522,-12.345,331.518
9.9865,128.182051,37.951332,6827.515123200001,-120.645,-12.465,331.401
10.0033,128.18203,37.951375,6826.548297600001,-120.767,-12.584,331.284
10.02,128.182009,37.951418,6825.572937600001,-120.888,-12.703,331.167
10.0367,128.181988,37.95146,6824.5893479999995,-121.008,-12.822,331.049
10.0534,128.181966,37.951503,6823.5966144,-121.126,-12.941,330.932
10.0701,128.181945,37.951545,6822.5956512,-121.244,-13.06,330.815
10.0868,128.181923,37.951588,6821.5861536,-121.361,-13.178,330.697
10.1035,128.181902,37.95163,6820.5678168,-121.477,-13.297,330.58
10.1202,128.18188,37.951673,6819.5406408,-121.592,-13.415,330.462
10.1368,128.181858,37.951715,6818.5049304,-121.706,-13.533,330.345
10.1535,128.181836,37.951757,6817.4603808,-121.819,-13.651,330.227
10.1702,128.181814,37.951799,6816.407296800001,-121.931,-13.769,330.109
10.187,128.181792,37.951842,6815.3453736,-122.042,-13.887,329.992
10.2037,128.18177,37.951884,6814.2746112,-122.152,-14.004,329.874
10.2204,128.181748,37.951926,6813.1950096,-122.262,-14.122,329.756
10.2371,128.181725,37.951968,6812.106568800001,-122.37,-14.239,329.638
10.2538,128.181703,37.95201,6811.0092888,-122.478,-14.357,329.52
10.2705,128.18168,37.952052,6809.903169600001,-122.586,-14.474,329.402
10.2872,128.181657,37.952093,6808.788211200001,-122.692,-14.591,329.283
10.3039,128.181635,37.952135,6807.6644136,-122.799,-14.707,329.165
10.3205,128.181612,37.952177,6806.531472000001,-122.904,-14.824,329.047
10.3372,128.181589,37.952219,6805.3896912,-123.009,-14.941,328.928
10.3539,128.181566,37.95226,6804.2387664,-123.114,-15.057,328.81
10.3707,128.181542,37.952302,6803.0790024,-123.218,-15.174,328.691
10.3874,128.181519,37.952343,6801.9103992,-123.321,-15.29,328.572
10.4041,128.181496,37.952385,6800.732347200001,-123.424,-15.406,328.453
10.4208,128.181472,37.952426,6799.545760800001,-123.526,-15.522,328.334
10.4375,128.181448,37.952467,6798.3497256,-123.628,-15.638,328.215
10.4542,128.181425,37.952509,6797.144851200001,-123.73,-15.753,328.096
10.4709,128.181401,37.95255,6795.930528000001,-123.83,-15.869,327.976
10.4876,128.181377,37.952591,6794.707365600001,-123.931,-15.985,327.857
10.5042,128.181353,37.952632,6793.4750592,-124.03,-16.1,327.737
10.5209,128.181329,37.952673,6792.2336088,-124.129,-16.216,327.618
10.5376,128.181305,37.952714,6790.983014400001,-124.228,-16.331,327.498
10.5544,128.18128,37.952755,6789.723276,-124.325,-16.446,327.378
10.5711,128.181256,37.952796,6788.4543936,-124.423,-16.561,327.258
10.5878,128.181231,37.952837,6787.1763672,-124.519,-16.676,327.138
10.6045,128.181207,37.952877,6785.888892000001,-124.615,-16.791,327.018
10.6212,128.181182,37.952918,6784.5922728000005,-124.711,-16.906,326.898
10.6379,128.181157,37.952959,6783.2865096000005,-124.805,-17.02,326.777
10.6546,128.181133,37.952999,6781.970992800001,-124.825,-17.122,326.665
10.6713,128.181108,37.95304,6780.646941600001,-124.775,-17.203,326.571
10.6879,128.181083,37.95308,6779.314356000001,-124.656,-17.268,326.494
10.7046,128.181057,37.953121,6777.973236,-124.463,-17.324,326.427
10.7213,128.181032,37.953161,6776.6241912000005,-124.198,-17.374,326.367
10.7381,128.181007,37.953202,6775.2669168,-123.861,-17.42,326.31
10.7548,128.180982,37.953242,6773.9023272,-123.453,-17.466,326.254
10.7715,128.180956,37.953282,6772.5301176,-122.977,-17.511,326.197
10.7882,128.180931,37.953323,6771.150288000001,-122.433,-17.555,326.139
10.8049,128.180905,37.953363,6769.7631432,-121.824,-17.6,326.079
10.8216,128.180879,37.953403,6768.3683784,-121.152,-17.645,326.015
10.8383,128.180854,37.953443,6766.9675176,-120.592,-17.713,325.948
10.855,128.180828,37.953483,6765.558427200001,-120.138,-17.808,325.87
10.8717,128.180802,37.953523,6764.1417168,-119.795,-17.922,325.781
10.8883,128.180776,37.953563,6762.7167768,-119.569,-18.047,325.682
10.905,128.18075,37.953603,6761.283912,-119.461,-18.178,325.574
10.9218,128.180723,37.953643,6759.842208,-119.47,-18.312,325.46
10.9385,128.180697,37.953683,6758.3919696,-119.593,-18.447,325.342
10.9552,128.180671,37.953723,6756.933196800001,-119.826,-18.583,325.221
10.9719,128.180644,37.953763,6755.4649752,-120.165,-18.719,325.099
10.9886,128.180618,37.953802,6753.987914400001,-120.606,-18.855,324.975
11.0053,128.180591,37.953842,6752.5011,-121.146,-18.991,324.851
11.022,128.180564,37.953881,6751.004836800001,-121.78,-19.129,324.728
11.0387,128.180537,37.953921,6749.498515200001,-122.505,-19.267,324.605
11.0554,128.18051,37.95396,6747.9818304,-123.318,-19.408,324.484
11.072,128.180483,37.953999,6746.4547824,-124.215,-19.551,324.363
11.0887,128.180455,37.954039,6744.9167615999995,-125.194,-19.696,324.244
11.1054,128.180428,37.954078,6743.3674632,-126.077,-19.82,324.126
11.1222,128.180401,37.954117,6741.807801600001,-126.87,-19.915,324.021
11.1389,128.180373,37.954156,6740.2380816,-127.568,-19.987,323.933
11.1556,128.180345,37.954195,6738.658608,-128.166,-20.044,323.858
11.1723,128.180318,37.954234,6737.069076,-128.661,-20.093,323.794
11.189,128.18029,37.954272,6735.4700952,-129.054,-20.14,323.737
11.2057,128.180262,37.954311,6733.861970400001,-129.347,-20.185,323.684
11.2224,128.180234,37.95435,6732.244701600001,-129.543,-20.232,323.634
11.2391,128.180206,37.954389,6730.618288799999,-129.647,-20.28,323.584
11.2557,128.180178,37.954427,6728.983646400001,-129.661,-20.331,323.533
11.2724,128.18015,37.954466,6727.340469600001,-129.589,-20.383,323.482
11.2891,128.180121,37.954505,6725.6890632,-129.435,-20.437,323.429
11.3059,128.180093,37.954543,6724.029732,-129.201,-20.493,323.374
11.3226,128.180065,37.954582,6722.362476,-128.891,-20.551,323.317
11.3393,128.180036,37.95462,6720.688209600001,-128.508,-20.61,323.257
11.356,128.180008,37.954658,6719.0063232,-128.053,-20.67,323.195
11.3727,128.179979,37.954697,6717.3168168,-127.529,-20.73,323.13
11.3894,128.179951,37.954735,6715.619995200001,-126.938,-20.792,323.062
11.4061,128.179922,37.954773,6713.9155536,-126.283,-20.854,322.991
11.4228,128.179893,37.954812,6712.2041016,-125.565,-20.916,322.917
11.4394,128.179864,37.95485,6710.4853344,-124.787,-20.978,322.84
11.4561,128.179836,37.954888,6708.759252000001,-123.949,-21.039,322.759
11.4728,128.179807,37.954926,6707.025854400001,-123.053,-21.101,322.674
11.4896,128.179778,37.954965,6705.2854464,-122.101,-21.161,322.586
11.5063,128.179749,37.955003,6703.538028000001,-121.094,-21.221,322.494
11.523,128.179719,37.955041,6701.7835992,-120.034,-21.279,322.397
11.5397,128.17969,37.955079,6700.023074400001,-119.106,-21.359,322.296
11.5564,128.179661,37.955117,6698.2552344,-118.301,-21.465,322.178
11.5731,128.179632,37.955155,6696.480079200001,-117.622,-21.592,322.042
11.5898,128.179602,37.955193,6694.697304,-117.073,-21.731,321.891
11.6065,128.179573,37.95523,6692.906908800001,-116.655,-21.875,321.729
11.6231,128.179543,37.955268,6691.1085888,-116.368,-22.021,321.56
11.6398,128.179513,37.955306,6689.3020392,-116.208,-22.165,321.386
11.6565,128.179483,37.955343,6687.487564800001,-116.171,-22.308,321.21
11.6733,128.179453,37.955381,6685.664556000001,-116.251,-22.448,321.034
11.69,128.179423,37.955418,6683.8330128,-116.445,-22.587,320.859
11.7067,128.179393,37.955456,6681.9926304,-116.747,-22.723,320.686
11.7234,128.179363,37.955493,6680.1434088000005,-117.153,-22.858,320.516
11.7401,128.179333,37.95553,6678.285347999999,-117.658,-22.992,320.349
11.7568,128.179302,37.955567,6676.417533600001,-118.259,-23.126,320.186
11.7735,128.179272,37.955604,6674.5405752,-118.951,-23.26,320.025
11.7902,128.179241,37.955641,6672.6535584,-119.732,-23.396,319.868
11.8068,128.17921,37.955678,6670.756178400001,-120.597,-23.533,319.713
11.8235,128.179179,37.955715,6668.84874,-121.544,-23.672,319.561
11.8402,128.179148,37.955752,6666.930633600001,-122.571,-23.815,319.412
11.857,128.179117,37.955788,6665.002164,-123.674,-23.96,319.265
11.8737,128.179086,37.955825,6663.0624168,-124.851,-24.11,319.121
11.8904,128.179055,37.955861,6661.111087200001,-125.917,-24.238,318.98
11.9071,128.179023,37.955898,6659.1493944,-126.882,-24.336,318.857
11.9238,128.178992,37.955934,6657.177338400001,-127.745,-24.405,318.76
11.9405,128.178961,37.95597,6655.195224000001,-128.499,-24.453,318.687
11.9572,128.178929,37.956006,6653.2027464,-129.142,-24.49,318.631
11.9739,128.178897,37.956042,6651.200820000001,-129.673,-24.522,318.584
11.9905,128.178866,37.956078,6649.18914,-130.093,-24.554,318.544
12.0072,128.178834,37.956114,6647.168011200001,-130.407,-24.588,318.505
12.0239,128.178802,37.95615,6645.1380432,-130.619,-24.625,318.466
12.0407,128.17877,37.956186,6643.0989312,-130.732,-24.664,318.426
12.0574,128.178738,37.956221,6641.0512848,-130.751,-24.707,318.384
12.0741,128.178706,37.956257,6638.9951040000005,-130.68,-24.753,318.34
12.0908,128.178674,37.956293,6636.9309984,-130.521,-24.801,318.292
12.1075,128.178642,37.956328,6634.858663200001,-130.278,-24.852,318.242
12.1242,128.17861,37.956364,6632.778708,-129.955,-24.904,318.189
12.1409,128.178577,37.956399,6630.691132800001,-129.554,-24.958,318.133
12.1576,128.178545,37.956435,6628.596242400001,-129.078,-25.014,318.075
12.1743,128.178513,37.95647,6626.494341600001,-128.53,-25.07,318.013
12.1909,128.17848,37.956506,6624.3851256,-127.912,-25.127,317.948
12.2076,128.178448,37.956541,6622.2688992,-127.226,-25.185,317.881
12.2243,128.178415,37.956576,6620.1453576,-126.474,-25.242,317.81
12.2411,128.178383,37.956612,6618.014500800001,-125.659,-25.3,317.737
12.2578,128.17835,37.956647,6615.876938400001,-124.782,-25.357,317.66
12.2745,128.178317,37.956682,6613.732060800001,-123.844,-25.413,317.579
12.2912,128.178285,37.956717,6611.5804776,-122.848,-25.469,317.496
12.3079,128.178252,37.956752,6609.421884000001,-121.795,-25.523,317.409
12.3246,128.178219,37.956787,6607.25628,-120.687,-25.576,317.319
12.3413,128.178186,37.956823,6605.083970400001,-119.524,-25.628,317.225
12.358,128.178153,37.956858,6602.90526,-118.308,-25.677,317.128
12.3746,128.17812,37.956893,6600.7207584,-117.233,-25.75,317.025
12.3913,128.178087,37.956927,6598.5292464,-116.288,-25.851,316.904
12.408,128.178054,37.956962,6596.331028800001,-115.473,-25.976,316.753
12.4248,128.178021,37.956997,6594.125191200001,-114.792,-26.116,316.577
12.4415,128.177987,37.957032,6591.9123432,-114.25,-26.262,316.382
12.4582,128.177954,37.957066,6589.691570400001,-113.846,-26.41,316.174
12.4749,128.17792,37.957101,6587.4634824,-113.576,-26.558,315.959
12.4916,128.177887,37.957135,6585.2274696,-113.436,-26.702,315.741
12.5083,128.177853,37.95717,6582.983532,-113.422,-26.843,315.523
12.525,128.177819,37.957204,6580.731669600001,-113.529,-26.98,315.309
12.5417,128.177785,37.957238,6578.4715776,-113.751,-27.115,315.099
12.5583,128.177751,37.957273,6576.203256000001,-114.084,-27.247,314.893
12.575,128.177717,37.957307,6573.9260952,-114.521,-27.378,314.693
12.5917,128.177683,37.95734,6571.6404,-115.06,-27.508,314.497
12.6085,128.177649,37.957374,6569.345865600001,-115.695,-27.637,314.306
12.6252,128.177614,37.957408,6567.041882400001,-116.423,-27.768,314.119
12.6419,128.17758,37.957442,6564.728450400001,-117.239,-27.899,313.936
12.6586,128.177545,37.957475,6562.405264800001,-118.141,-28.033,313.757
12.6753,128.177511,37.957509,6560.0723256,-119.125,-28.169,313.58
12.692,128.177476,37.957542,6557.729328,-120.189,-28.309,313.408
12.7087,128.177441,37.957575,6555.376272,-121.33,-28.452,313.238
12.7254,128.177406,37.957608,6553.0128528,-122.545,-28.599,313.071
12.742,128.177371,37.957641,6550.6375464,-123.643,-28.723,312.909
12.7587,128.177336,37.957674,6548.252486400001,-124.636,-28.815,312.767
12.7754,128.177301,37.957707,6545.857368,-125.525,-28.873,312.663
12.7922,128.177266,37.957739,6543.452496000001,-126.305,-28.905,312.595
12.8089,128.17723,37.957772,6541.0378704,-126.969,-28.924,312.552
12.8256,128.177195,37.957805,6538.6141008,-127.515,-28.937,312.522
12.8423,128.17716,37.957837,6536.180882400001,-127.944,-28.951,312.498
12.859,128.177124,37.957869,6533.738520000001,-128.259,-28.968,312.474
12.8757,128.177089,37.957902,6531.287623200001,-128.465,-28.988,312.449
12.8924,128.177053,37.957934,6528.828192000001,-128.565,-29.013,312.42
12.9091,128.177018,37.957966,6526.3602264,-128.564,-29.043,312.387
12.9257,128.176982,37.957998,6523.884336,-128.467,-29.076,312.349
12.9424,128.176946,37.95803,6521.4005208,-128.276,-29.112,312.307
12.9591,128.17691,37.958062,6518.9090856,-127.997,-29.151,312.261
12.9759,128.176875,37.958094,6516.4100304,-127.631,-29.192,312.211
12.9926,128.176839,37.958126,6513.903964800001,-127.184,-29.236,312.157
13.0093,128.176803,37.958158,6511.3908888,-126.656,-29.28,312.101
13.026,128.176767,37.95819,6508.8711072,-126.053,-29.326,312.04
13.0427,128.176731,37.958222,6506.344315200001,-125.375,-29.372,311.977
13.0594,128.176695,37.958253,6503.8105128,-124.626,-29.419,311.911
13.0761,128.176659,37.958285,6501.269700000001,-123.808,-29.465,311.842
13.0928,128.176623,37.958317,6498.7224864,-122.922,-29.511,311.77
13.1095,128.176586,37.958349,6496.1682624000005,-121.972,-29.556,311.695
13.1262,128.17655,37.95838,6493.607637600001,-120.96,-29.6,311.617
13.1429,128.176514,37.958412,6491.0403072,-119.886,-29.643,311.537
13.1596,128.176477,37.958443,6488.4662712,-118.752,-29.683,311.455
13.1763,128.176441,37.958475,6485.8861392,-117.561,-29.722,311.37
13.193,128.176405,37.958506,6483.299301600001,-116.314,-29.759,311.284
13.2097,128.176368,37.958537,6480.7075872000005,-115.214,-29.821,311.191
13.2264,128.176331,37.958569,6478.109472,-114.246,-29.914,311.077
13.2431,128.176295,37.9586,6475.504346400001,-113.41,-30.034,310.925
13.2598,128.176258,37.958631,6472.892820000001,-112.709,-30.172,310.734
13.2765,128.176221,37.958662,6470.2739784000005,-112.149,-30.319,310.512
13.2932,128.176184,37.958693,6467.6481264,-111.73,-30.469,310.269
13.3099,128.176148,37.958724,6465.014959200001,-111.449,-30.618,310.015
13.3266,128.176111,37.958755,6462.374476800001,-111.305,-30.765,309.756
13.3433,128.176073,37.958785,6459.726374400001,-111.293,-30.907,309.499
13.36,128.176036,37.958816,6457.070956800001,-111.407,-31.046,309.246
13.3767,128.175999,37.958847,6454.407614400001,-111.642,-31.182,309.0
13.3934,128.175962,37.958877,6451.736347200001,-111.993,-31.315,308.76
13.4101,128.175924,37.958907,6449.0568504,-112.455,-31.447,308.527
13.4268,128.175887,37.958937,6446.369124000001,-113.021,-31.577,308.301
13.4435,128.175849,37.958968,6443.6728632,-113.688,-31.707,308.081
13.4602,128.175811,37.958997,6440.968068,-114.451,-31.838,307.867
13.4769,128.175774,37.959027,6438.254128800001,-115.306,-31.971,307.657
13.4936,128.175736,37.959057,6435.5307408,-116.249,-32.105,307.452
13.5103,128.175698,37.959087,6432.7982088,-117.278,-32.243,307.252
13.527,128.17566,37.959116,6430.0559232000005,-118.388,-32.383,307.055
13.5437,128.175622,37.959145,6427.303884000001,-119.578,-32.527,306.863
13.5604,128.175584,37.959175,6424.5405672,-120.647,-32.646,306.677
13.5771,128.175545,37.959204,6421.768106400001,-121.611,-32.731,306.515
13.5938,128.175507,37.959233,6418.985892000001,-122.471,-32.781,306.398
13.6105,128.175469,37.959262,6416.194533600001,-123.224,-32.801,306.332
13.6272,128.17543,37.95929,6413.3940312,-123.862,-32.804,306.303
13.6439,128.175392,37.959319,6410.5849944,-124.379,-32.8,306.294
13.6606,128.175353,37.959348,6407.7668136,-124.774,-32.797,306.291
13.6773,128.175315,37.959376,6404.9404032,-125.049,-32.797,306.287
13.694,128.175276,37.959405,6402.1054584,-125.208,-32.803,306.278
13.7107,128.175238,37.959433,6399.2625888,-125.255,-32.814,306.263
13.7274,128.175199,37.959461,6396.4117944,-125.196,-32.83,306.241
13.7441,128.17516,37.95949,6393.55338,-125.034,-32.85,306.211
13.7608,128.175121,37.959518,6390.6876504,-124.775,-32.875,306.176
13.7775,128.175083,37.959546,6387.8146056000005,-124.422,-32.902,306.135
13.7942,128.175044,37.959574,6384.9348552,-123.978,-32.932,306.089
13.8109,128.175005,37.959602,6382.0480944,-123.449,-32.963,306.038
13.8276,128.174966,37.95963,6379.154628,-122.836,-32.996,305.984
13.8443,128.174927,37.959658,6376.255065600001,-122.144,-33.029,305.927
13.861,128.174888,37.959686,6373.348797600001,-121.375,-33.063,305.866
13.8777,128.174849,37.959714,6370.436433600001,-120.532,-33.096,305.803
13.8944,128.17481,37.959741,6367.517364,-119.618,-33.129,305.738
13.9111,128.174771,37.959769,6364.5921984,-118.635,-33.161,305.67
13.9278,128.174731,37.959797,6361.660632,-117.585,-33.191,305.601
13.9445,128.174692,37.959825,6358.723274400001,-116.471,-33.22,305.531
13.9612,128.174653,37.959852,6355.779516,-115.295,-33.246,305.459
13.9779,128.174614,37.95988,6352.8299664,-114.058,-33.27,305.388
13.9946,128.174574,37.959907,6349.8746255999995,-112.763,-33.291,305.316
14.0113,128.174535,37.959935,6346.914408,-111.623,-33.339,305.237
14.028,128.174495,37.959962,6343.948704,-110.62,-33.419,305.133
14.0447,128.174456,37.959989,6340.976904,-109.752,-33.526,304.987
14.0614,128.174416,37.960017,6337.999008,-109.017,-33.654,304.783
14.0781,128.174376,37.960044,6335.0147112,-108.421,-33.792,304.533
14.0948,128.174337,37.960071,6332.0240136,-107.969,-33.934,304.251
14.1115,128.174297,37.960098,6329.0263056,-107.66,-34.076,303.951
14.1282,128.174257,37.960125,6326.0221968000005,-107.493,-34.215,303.643
14.1449,128.174217,37.960151,6323.011382400001,-107.465,-34.35,303.337
14.1616,128.174177,37.960178,6319.9935576,-107.571,-34.481,303.038
14.1783,128.174137,37.960205,6316.969027200001,-107.804,-34.609,302.747
14.195,128.174097,37.960231,6313.9371816,-108.16,-34.734,302.466
14.2117,128.174057,37.960257,6310.8980208,-108.631,-34.857,302.194
14.2284,128.174016,37.960283,6307.85124,-109.213,-34.98,301.931
14.2451,128.173976,37.960309,6304.797144,-109.9,-35.103,301.675
14.2618,128.173935,37.960335,6301.7348184,-110.688,-35.227,301.427
14.2785,128.173895,37.960361,6298.664568,-111.571,-35.352,301.184
14.2952,128.173854,37.960387,6295.585783200001,-112.546,-35.48,300.948
14.3119,128.173813,37.960412,6292.498464,-113.609,-35.611,300.716
14.3286,128.173773,37.960438,6289.4026104,-114.756,-35.746,300.489
14.3453,128.173732,37.960463,6286.2976128,-115.985,-35.884,300.267
14.362,128.173691,37.960488,6283.181947200001,-117.087,-35.997,300.055
14.3787,128.17365,37.960513,6280.0577472,-118.079,-36.074,299.871
14.3954,128.173609,37.960538,6276.9244032,-118.966,-36.117,299.74
14.4121,128.173568,37.960562,6273.7828296,-119.751,-36.126,299.68
14.4288,128.173527,37.960587,6270.6327216,-120.422,-36.114,299.673
14.4455,128.173486,37.960612,6267.474384000001,-120.97,-36.093,299.696
14.4622,128.173445,37.960636,6264.3081216,-121.39,-36.072,299.728
14.4789,128.173404,37.96066,6261.1339344,-121.68,-36.057,299.754
14.4956,128.173362,37.960685,6257.9518224,-121.843,-36.049,299.769
14.5123,128.173321,37.960709,6254.7623952,-121.886,-36.049,299.772
14.529,128.17328,37.960733,6251.5656528,-121.813,-36.055,299.763
14.5457,128.173238,37.960757,6248.3615952,-121.631,-36.065,299.744
14.5624,128.173197,37.960781,6245.150832,-121.344,-36.08,299.717
14.5791,128.173156,37.960805,6241.9333632,-120.959,-36.098,299.684
14.5958,128.173114,37.960829,6238.7094936,-120.478,-36.118,299.645
14.6125,128.173073,37.960852,6235.479528000001,-119.907,-36.14,299.601
14.6292,128.173031,37.960876,6232.2434664,-119.248,-36.163,299.554
14.6459,128.17299,37.9609,6229.0013088000005,-118.507,-36.186,299.504
14.6626,128.172948,37.960923,6225.753055200001,-117.687,-36.209,299.451
14.6793,128.172907,37.960947,6222.499010400001,-116.789,-36.231,299.396
14.696,128.172865,37.960971,6219.239174400001,-115.818,-36.252,299.341
14.7127,128.172823,37.960994,6215.973547200001,-114.777,-36.272,299.284
14.7294,128.172781,37.961018,6212.7021288000005,-113.667,-36.29,299.228
14.7461,128.17274,37.961041,6209.4252240000005,-112.492,-36.306,299.173
14.7628,128.172698,37.961064,6206.1428328,-111.254,-36.319,299.119
14.7795,128.172656,37.961088,6202.8549552,-109.955,-36.329,299.067
14.7962,128.172614,37.961111,6199.561896,-108.598,-36.336,299.018
14.8129,128.172572,37.961134,6196.264874400001,-107.404,-36.371,298.962
14.8296,128.17253,37.961157,6192.9626712,-106.353,-36.441,298.877
14.8463,128.172488,37.96118,6189.6552864000005,-105.442,-36.537,298.742
14.863,128.172446,37.961203,6186.342720000001,-104.666,-36.65,298.538
14.8797,128.172404,37.961226,6183.0246672,-104.028,-36.775,298.266
14.8964,128.172362,37.961249,6179.700823200001,-103.532,-36.903,297.942
14.9131,128.172319,37.961271,6176.3708832,-103.182,-37.032,297.587
14.9298,128.172277,37.961294,6173.035456800001,-102.979,-37.158,297.22
14.9465,128.172235,37.961316,6169.6939344,-102.923,-37.28,296.855
14.9632,128.172192,37.961339,6166.346316,-103.011,-37.398,296.499
14.9799,128.17215,37.961361,6162.992906400001,-103.236,-37.513,296.156
14.9966,128.172107,37.961383,6159.6334008,-103.592,-37.625,295.826
15.0133,128.172065,37.961405,6156.2674944,-104.071,-37.736,295.507
15.03,128.172022,37.961427,6152.895187200001,-104.667,-37.846,295.2
15.0467,128.171979,37.961448,6149.516174400001,-105.374,-37.957,294.903
15.0634,128.171936,37.96147,6146.130456000001,-106.187,-38.07,294.615
15.0801,128.171893,37.961491,6142.7377272,-107.1,-38.185,294.333
15.0968,128.17185,37.961512,6139.3376832,-108.108,-38.302,294.059
15.1135,128.171807,37.961533,6135.930019200001,-109.208,-38.423,293.791
15.1302,128.171764,37.961554,6132.5147352,-110.396,-38.549,293.528
15.1469,128.171721,37.961575,6129.0915264000005,-111.668,-38.679,293.27
15.1636,128.171678,37.961596,6125.6582592,-112.807,-38.78,293.027
15.1803,128.171635,37.961616,6122.217372,-113.833,-38.846,292.818
15.197,128.171592,37.961637,6118.76856,-114.751,-38.879,292.671
15.2137,128.171548,37.961657,6115.311823200001,-115.568,-38.88,292.61
15.2304,128.171505,37.961677,6111.8474664,-116.274,-38.858,292.622
15.2471,128.171462,37.961697,6108.3757944,-116.859,-38.824,292.682
15.2638,128.171418,37.961717,6104.8968072,-117.314,-38.787,292.763
15.2805,128.171375,37.961737,6101.4108096,-117.633,-38.753,292.841
15.2972,128.171331,37.961756,6097.9178016000005,-117.811,-38.731,292.897
15.3139,128.171288,37.961776,6094.4177832000005,-117.854,-38.718,292.928
