Time,Longitude,Latitude,Altitude,Roll (deg),Pitch (deg),Yaw (deg)
0.0,128.181881,37.968643,7002.8955192,0.0,-0.003,0.0
0.0167,128.181881,37.968688,7002.909540000001,0.0,-0.012,0.0
0.0334,128.181881,37.968733,7002.922036800001,0.087,-0.013,0.011
0.0501,128.181881,37.968778,7002.9333144,0.258,0.007,0.034
0.0668,128.181881,37.968823,7002.9430680000005,0.516,0.062,0.064
0.0834,128.181881,37.968868,7002.9534312000005,0.689,0.164,0.076
0.1002,128.181881,37.968913,7002.964404,0.783,0.326,0.067
0.1169,128.181881,37.968958,7002.977510400001,0.789,0.554,0.045
0.1336,128.181881,37.969003,7002.99336,0.702,0.856,0.017
0.1503,128.181881,37.969048,7003.0128672,0.518,1.233,359.985
0.1669,128.181881,37.969093,7003.036641600001,0.238,1.675,359.951
0.1837,128.181881,37.969138,7003.065597600001,-0.134,2.166,359.916
0.2004,128.181881,37.969183,7003.098516,-0.424,2.696,359.904
0.2171,128.181881,37.969228,7003.136006400001,-0.632,3.245,359.912
0.2338,128.181881,37.969273,7003.1786784000005,-0.75,3.798,359.933
0.2505,128.181881,37.969318,7003.226227200001,-0.771,4.337,359.962
0.2672,128.181881,37.969363,7003.278348,-0.693,4.845,359.994
0.2839,128.181881,37.969408,7003.3356504,-0.517,5.32,0.027
0.3006,128.181881,37.969453,7003.400268,-0.417,5.763,0.038
0.3172,128.181881,37.969498,7003.472200800001,-0.39,6.177,0.028
0.3339,128.181881,37.969543,7003.5520584000005,-0.444,6.564,0.003
0.3507,128.181881,37.969588,7003.640755200001,-0.584,6.926,359.97
0.3674,128.181881,37.969633,7003.738900800001,-0.812,7.267,359.932
0.3841,128.181881,37.969678,7003.8471048,-1.127,7.587,359.891
0.4008,128.181881,37.969723,7003.9659768,-1.528,7.889,359.85
0.4175,128.181881,37.969768,7004.0961264,-2.011,8.176,359.807
0.4342,128.181881,37.969813,7004.2378584,-2.573,8.447,359.762
0.4509,128.181881,37.969858,7004.391782400001,-3.211,8.706,359.716
0.4676,128.181881,37.969903,7004.5582032,-3.922,8.954,359.668
0.4843,128.181881,37.969948,7004.736816,-4.703,9.191,359.617
0.501,128.181881,37.969993,7004.9279256,-5.552,9.418,359.564
0.5176,128.181881,37.970037,7005.131532,-6.467,9.638,359.508
0.5344,128.181881,37.970082,7005.347940000001,-7.444,9.85,359.448
0.5511,128.181881,37.970127,7005.5768448,-8.482,10.055,359.384
0.5678,128.18188,37.970172,7005.8182464,-9.58,10.254,359.317
0.5845,128.18188,37.970217,7006.0721448,-10.735,10.447,359.245
0.6012,128.18188,37.970262,7006.3388448000005,-11.947,10.635,359.168
0.6179,128.18188,37.970307,7006.618041600001,-13.213,10.818,359.087
0.6345,128.18188,37.970351,7006.91004,-14.533,10.996,359.0
0.6513,128.181879,37.970396,7007.2142304,-15.905,11.17,358.908
0.6679,128.181879,37.970441,7007.5309176,-17.329,11.34,358.811
0.6847,128.181879,37.970486,7007.8597968,-18.803,11.505,358.707
0.7014,128.181878,37.970531,7008.201172800001,-20.326,11.666,358.598
0.7181,128.181878,37.970575,7008.5541312000005,-21.899,11.824,358.482
0.7348,128.181877,37.97062,7008.9192816,-23.52,11.977,358.359
0.7514,128.181877,37.970665,7009.2954048,-25.174,12.127,358.231
0.7682,128.181876,37.970709,7009.681891200001,-26.833,12.274,358.098
0.7848,128.181875,37.970754,7010.078436000001,-28.468,12.418,357.962
0.8016,128.181874,37.970799,7010.4844296,-30.055,12.561,357.824
0.8183,128.181873,37.970843,7010.8995672,-31.575,12.702,357.683
0.835,128.181872,37.970888,7011.3232392,-33.015,12.841,357.54
0.8517,128.181871,37.970932,7011.7551408,-34.363,12.978,357.393
0.8684,128.18187,37.970977,7012.1946624,-35.614,13.113,357.242
0.8851,128.181869,37.971022,7012.641804,-36.766,13.244,357.088
0.9018,128.181868,37.971066,7013.095956000001,-37.821,13.373,356.929
0.9185,128.181867,37.971111,7013.5565088,-38.782,13.497,356.767
0.9352,128.181865,37.971155,7014.0234624,-39.656,13.617,356.601
0.9519,128.181864,37.9712,7014.496512,-40.45,13.733,356.431
0.9686,128.181862,37.971244,7014.975048,-41.17,13.844,356.259
0.9853,128.181861,37.971289,7015.458765600001,-41.825,13.951,356.085
1.002,128.181859,37.971333,7015.9485792000005,-42.422,14.053,355.909
1.0187,128.181858,37.971378,7016.4444888,-42.968,14.15,355.731
1.0353,128.181856,37.971422,7016.9458848,-43.473,14.243,355.554
1.0521,128.181854,37.971467,7017.4533768,-43.943,14.334,355.378
1.0688,128.181852,37.971511,7017.966964800001,-44.383,14.422,355.204
1.0855,128.18185,37.971556,7018.486344,-44.798,14.507,355.032
1.1022,128.181848,37.9716,7019.012124000001,-45.191,14.59,354.862
1.1189,128.181846,37.971645,7019.544000000001,-45.564,14.67,354.694
1.1356,128.181844,37.971689,7020.081972,-45.92,14.749,354.528
1.1522,128.181841,37.971734,7020.62604,-46.261,14.825,354.364
1.169,128.181839,37.971778,7021.176204,-46.588,14.899,354.201
1.1857,128.181836,37.971823,7021.732464000001,-46.902,14.971,354.039
1.2024,128.181834,37.971867,7022.295124800001,-47.204,15.041,353.879
1.2191,128.181831,37.971911,7022.8635768,-47.494,15.109,353.719
1.2358,128.181828,37.971956,7023.4384296,-47.775,15.175,353.561
1.2525,128.181825,37.972,7024.0193784,-48.047,15.239,353.403
1.2691,128.181822,37.972044,7024.606423200001,-48.31,15.302,353.245
1.2859,128.181819,37.972089,7025.1995640000005,-48.566,15.363,353.089
1.3026,128.181816,37.972133,7025.798496,-48.815,15.422,352.933
1.3193,128.181813,37.972177,7026.403828800001,-49.057,15.48,352.777
1.3359,128.181809,37.972222,7027.0149528,-49.293,15.537,352.622
1.3527,128.181806,37.972266,7027.6321728,-49.524,15.593,352.468
1.3694,128.181802,37.97231,7028.2554887999995,-49.75,15.647,352.314
1.386,128.181799,37.972354,7028.884596000001,-49.971,15.701,352.161
1.4028,128.181795,37.972399,7029.5197992,-50.187,15.753,352.008
1.4195,128.181791,37.972443,7030.1607936,-50.399,15.805,351.855
1.4362,128.181787,37.972487,7030.807579200001,-50.607,15.856,351.703
1.4528,128.181783,37.972531,7031.460460800001,-50.812,15.906,351.551
1.4696,128.181779,37.972575,7032.1188288,-51.012,15.956,351.4
1.4863,128.181775,37.972619,7032.783292800001,-51.209,16.005,351.249
1.5029,128.181771,37.972663,7033.4532432,-51.403,16.053,351.098
1.5197,128.181766,37.972708,7034.1292896,-51.594,16.101,350.948
1.5364,128.181762,37.972752,7034.810822400001,-51.781,16.148,350.798
1.5531,128.181757,37.972796,7035.4981464,-51.966,16.194,350.648
1.5697,128.181752,37.97284,7036.190956800001,-52.148,16.241,350.498
1.5865,128.181747,37.972884,7036.8895584,-52.327,16.286,350.349
1.6032,128.181742,37.972928,7037.5939512,-52.504,16.332,350.2
1.6198,128.181737,37.972972,7038.3035256,-52.678,16.376,350.051
1.6366,128.181732,37.973016,7039.0188912,-52.849,16.421,349.902
1.6533,128.181727,37.97306,7039.740048,-53.019,16.465,349.754
1.67,128.181722,37.973103,7040.4663864,-53.185,16.509,349.606
1.6867,128.181716,37.973147,7041.1982112000005,-53.35,16.552,349.458
1.7034,128.181711,37.973191,7041.9355224,-53.513,16.595,349.31
1.7201,128.181705,37.973235,7042.678320000001,-53.673,16.638,349.162
1.7368,128.181699,37.973279,7043.426604,-53.831,16.681,349.014
1.7535,128.181693,37.973323,7044.180374400001,-53.988,16.723,348.867
1.7702,128.181687,37.973367,7044.9393264,-54.142,16.765,348.719
1.7869,128.181681,37.97341,7045.703460000001,-54.294,16.807,348.572
1.8036,128.181675,37.973454,7046.47308,-54.445,16.848,348.425
1.8203,128.181669,37.973498,7047.2481864,-54.594,16.89,348.278
1.837,128.181662,37.973541,7048.028169600001,-54.741,16.931,348.131
1.8537,128.181656,37.973585,7048.8136392,-54.887,16.972,347.984
1.8704,128.181649,37.973629,7049.6042904000005,-55.03,17.012,347.838
1.8871,128.181643,37.973672,7050.4001232,-55.173,17.053,347.691
1.9038,128.181636,37.973716,7051.201137600001,-55.313,17.093,347.544
1.9205,128.181629,37.97376,7052.0073336000005,-55.453,17.133,347.398
1.9372,128.181622,37.973803,7052.818406400001,-55.591,17.173,347.252
1.9539,128.181615,37.973847,7053.634965600001,-55.727,17.213,347.105
1.9706,128.181607,37.97389,7054.4564016,-55.862,17.253,346.959
1.9873,128.1816,37.973934,7055.2827144,-55.996,17.292,346.813
2.004,128.181592,37.973977,7056.114208800001,-56.128,17.332,346.667
2.0207,128.181585,37.97402,7056.9508848,-56.259,17.371,346.521
2.0374,128.181577,37.974064,7057.792437600001,-56.389,17.41,346.375
2.0541,128.181569,37.974107,7058.6388672,-56.517,17.449,346.229
2.0707,128.181561,37.974151,7059.4901736,-56.644,17.488,346.083
2.0875,128.181553,37.974194,7060.3466616,-56.771,17.526,345.937
2.1042,128.181545,37.974237,7061.2077216,-56.896,17.565,345.791
2.1208,128.181537,37.974281,7062.0739632,-57.02,17.603,345.646
2.1376,128.181529,37.974324,7062.9447768,-57.143,17.642,345.5
2.1543,128.18152,37.974367,7063.8204672,-57.264,17.68,345.354
2.171,128.181512,37.97441,7064.7010344,-57.385,17.718,345.208
2.1877,128.181503,37.974453,7065.5864784000005,-57.505,17.756,345.063
2.2044,128.181494,37.974496,7066.4764944,-57.624,17.794,344.917
2.2211,128.181485,37.97454,7067.371387200001,-57.742,17.831,344.771
2.2378,128.181476,37.974583,7068.271156800001,-57.859,17.869,344.625
2.2544,128.181467,37.974626,7069.1754984,-57.975,17.907,344.48
2.2712,128.181458,37.974669,7070.084412,-58.091,17.944,344.334
2.2879,128.181449,37.974712,7070.9982024,-58.205,17.982,344.188
2.3045,128.181439,37.974755,7071.916260000001,-58.319,18.019,344.043
2.3213,128.18143,37.974798,7072.8391944,-58.432,18.056,343.897
2.338,128.18142,37.974841,7073.766700800001,-58.544,18.093,343.751
2.3546,128.18141,37.974883,7074.698779200001,-58.655,18.13,343.606
2.3714,128.1814,37.974926,7075.6354296,-58.766,18.167,343.46
2.3881,128.18139,37.974969,7076.576652000001,-58.876,18.204,343.314
2.4048,128.18138,37.975012,7077.5224464,-58.985,18.24,343.169
2.4215,128.18137,37.975055,7078.472508,-59.093,18.277,343.023
2.4382,128.18136,37.975097,7079.427446400001,-59.201,18.314,342.877
2.4549,128.181349,37.97514,7080.386347200001,-59.308,18.35,342.731
2.4716,128.181339,37.975183,7081.350124800001,-59.414,18.386,342.586
2.4882,128.181328,37.975225,7082.318169600001,-59.52,18.423,342.44
2.505,128.181317,37.975268,7083.2904816,-59.625,18.459,342.294
2.5217,128.181306,37.97531,7084.267365600001,-59.73,18.495,342.148
2.5383,128.181295,37.975353,7085.2485168,-59.834,18.531,342.002
2.5551,128.181284,37.975395,7086.2339352,-59.937,18.567,341.856
2.5718,128.181273,37.975438,7087.2236207999995,-60.04,18.603,341.71
2.5884,128.181262,37.97548,7088.217878400001,-60.142,18.639,341.564
2.6052,128.18125,37.975523,7089.2160984,-60.244,18.674,341.418
2.6219,128.181239,37.975565,7090.2188904,-60.345,18.71,341.272
2.6386,128.181227,37.975607,7091.225949600001,-60.445,18.745,341.126
2.6553,128.181215,37.97565,7092.2369712,-60.545,18.781,340.98
2.6719,128.181203,37.975692,7093.25226,-60.645,18.816,340.834
2.6887,128.181191,37.975734,7094.2718159999995,-60.744,18.852,340.687
2.7054,128.181179,37.975776,7095.2956392,-60.842,18.887,340.541
2.722,128.181167,37.975819,7096.323424800001,-60.941,18.922,340.395
2.7388,128.181155,37.975861,7097.3554776,-61.038,18.957,340.248
2.7555,128.181142,37.975903,7098.3914928,-61.135,18.992,340.102
2.7721,128.18113,37.975945,7099.4317752,-61.232,19.027,339.955
2.7889,128.181117,37.975987,7100.476324800001,-61.329,19.061,339.809
2.8056,128.181104,37.976029,7101.524532,-61.424,19.096,339.662
2.8222,128.181091,37.976071,7102.577006400001,-61.52,19.131,339.516
2.839,128.181078,37.976113,7103.633443199999,-61.615,19.165,339.369
2.8557,128.181065,37.976155,7104.693842400001,-61.71,19.199,339.222
2.8724,128.181052,37.976196,7105.7585088000005,-61.804,19.234,339.075
2.8891,128.181039,37.976238,7106.8268328,-61.898,19.268,338.928
2.9057,128.181025,37.97628,7107.8991192,-61.991,19.302,338.781
2.9225,128.181011,37.976322,7108.9756728,-62.085,19.336,338.634
2.9392,128.180998,37.976363,7110.055884000001,-62.177,19.37,338.487
2.9558,128.180984,37.976405,7111.1400576,-62.27,19.404,338.34
2.9726,128.18097,37.976447,7112.2278888,-62.362,19.438,338.193
2.9893,128.180956,37.976488,7113.3199872000005,-62.454,19.471,338.046
3.0059,128.180942,37.97653,7114.4157432,-62.545,19.505,337.898
3.0227,128.180928,37.976571,7115.515156800001,-62.636,19.538,337.751
3.0394,128.180913,37.976613,7116.618837600001,-62.727,19.572,337.603
3.056,128.180899,37.976654,7117.7258712,-62.817,19.605,337.456
3.0728,128.180884,37.976695,7118.8368672,-62.908,19.638,337.308
3.0895,128.180869,37.976737,7119.9518256,-62.997,19.671,337.16
3.1062,128.180855,37.976778,7121.070136800001,-63.087,19.704,337.013
3.1229,128.18084,37.976819,7122.192410400001,-63.176,19.737,336.865
3.1395,128.180825,37.97686,7123.3183416,-63.265,19.77,336.717
3.1563,128.180809,37.976902,7124.4482352,-63.354,19.803,336.569
3.173,128.180794,37.976943,7125.5814816,-63.442,19.835,336.421
3.1896,128.180779,37.976984,7126.7183856,-63.53,19.868,336.273
3.2064,128.180763,37.977025,7127.859252000001,-63.618,19.9,336.125
3.2231,128.180748,37.977066,7129.0034712,-63.705,19.932,335.976
3.2397,128.180732,37.977107,7130.151348,-63.793,19.965,335.828
3.2565,128.180716,37.977148,7131.3028824,-63.88,19.997,335.679
3.2732,128.1807,37.977189,7132.4580744,-63.966,20.029,335.531
3.2899,128.180684,37.977229,7133.616619200001,-64.053,20.061,335.382
3.3066,128.180668,37.97727,7134.7788216,-64.139,20.092,335.234
3.3233,128.180652,37.977311,7135.9446816,-64.225,20.124,335.085
3.34,128.180635,37.977352,7137.1138944,-64.311,20.156,334.936
3.3567,128.180619,37.977392,7138.28646,-64.397,20.187,334.787
3.3734,128.180602,37.977433,7139.462988000001,-64.482,20.219,334.638
3.3901,128.180585,37.977473,7140.642564000001,-64.567,20.25,334.489
3.4068,128.180569,37.977514,7141.8257976,-64.652,20.281,334.34
3.4235,128.180552,37.977554,7143.012384000001,-64.737,20.312,334.191
3.4402,128.180535,37.977595,7144.2023232,-64.821,20.343,334.041
3.4569,128.180517,37.977635,7145.395615200001,-64.906,20.374,333.892
3.4736,128.1805,37.977676,7146.5925648,-64.99,20.405,333.742
3.4903,128.180483,37.977716,7147.7928672,-65.074,20.435,333.593
3.507,128.180465,37.977756,7148.9962176,-65.158,20.466,333.443
3.5237,128.180447,37.977796,7150.2032256,-65.241,20.496,333.293
3.5404,128.18043,37.977837,7151.4132816,-65.324,20.526,333.144
3.5571,128.180412,37.977877,7152.6269952,-65.408,20.556,332.994
3.5738,128.180394,37.977917,7153.843756800001,-65.491,20.586,332.844
3.5905,128.180376,37.977957,7155.0638712,-65.574,20.616,332.694
3.6072,128.180358,37.977997,7156.2870336000005,-65.656,20.646,332.543
3.6239,128.180339,37.978037,7157.5138536,-65.739,20.676,332.393
3.6406,128.180321,37.978077,7158.7434168,-65.821,20.705,332.243
3.6573,128.180302,37.978116,7159.976637600001,-65.903,20.735,332.092
3.674,128.180284,37.978156,7161.212906400001,-65.985,20.764,331.942
3.6907,128.180265,37.978196,7162.452223200001,-66.067,20.793,331.791
3.7074,128.180246,37.978236,7163.694892800001,-66.149,20.822,331.64
3.7241,128.180227,37.978275,7164.940610400001,-66.23,20.851,331.49
3.7408,128.180208,37.978315,7166.189376,-66.312,20.88,331.339
3.7575,128.180189,37.978354,7167.4414944,-66.393,20.909,331.188
3.7742,128.180169,37.978394,7168.696660800001,-66.474,20.938,331.037
3.7909,128.18015,37.978433,7169.9548752,-66.555,20.966,330.885
3.8076,128.18013,37.978473,7171.2161376,-66.636,20.995,330.734
3.8243,128.180111,37.978512,7172.480448,-66.717,21.023,330.583
3.841,128.180091,37.978551,7173.747806400001,-66.797,21.051,330.431
3.8577,128.180071,37.978591,7175.018212800001,-66.878,21.079,330.28
3.8744,128.180051,37.97863,7176.2916672,-66.958,21.107,330.128
3.8911,128.180031,37.978669,7177.5678648,-67.038,21.134,329.976
3.9078,128.180011,37.978708,7178.847415200001,-67.118,21.162,329.825
3.9245,128.179991,37.978747,7180.1297088,-67.198,21.19,329.673
3.9412,128.17997,37.978786,7181.415050400001,-67.278,21.217,329.521
3.9579,128.17995,37.978825,7182.70344,-67.357,21.244,329.369
3.9746,128.179929,37.978864,7183.9945728,-67.437,21.271,329.217
3.9913,128.179908,37.978903,7185.2887536,-67.516,21.298,329.064
4.008,128.179887,37.978942,7186.5856776,-67.596,21.325,328.912
4.0247,128.179866,37.97898,7187.8856496,-67.675,21.352,328.76
4.0414,128.179845,37.979019,7189.1883648,-67.754,21.378,328.607
4.058,128.179824,37.979058,7190.4938232,-67.833,21.405,328.454
4.0748,128.179803,37.979096,7191.8023296,-67.912,21.431,328.302
4.0915,128.179781,37.979135,7193.1135792000005,-67.991,21.457,328.149
4.1082,128.17976,37.979173,7194.4275720000005,-68.069,21.483,327.996
4.1249,128.179738,37.979212,7195.744308,-68.148,21.509,327.843
4.1415,128.179716,37.97925,7197.0640920000005,-68.226,21.535,327.69
4.1583,128.179695,37.979288,7198.386314400001,-68.305,21.561,327.537
4.175,128.179673,37.979327,7199.7115848,-68.383,21.586,327.383
4.1917,128.17965,37.979365,7201.0392936,-68.461,21.612,327.23
4.2084,128.179628,37.979403,7202.3697456,-68.539,21.637,327.077
4.2251,128.179606,37.979441,7203.703245600001,-68.617,21.662,326.923
4.2417,128.179584,37.979479,7205.039184000001,-68.695,21.687,326.769
4.2585,128.179561,37.979517,7206.3775608000005,-68.773,21.712,326.616
4.2752,128.179538,37.979555,7207.7189856,-68.85,21.736,326.462
4.2919,128.179516,37.979593,7209.0628488,-68.928,21.761,326.308
4.3086,128.179493,37.979631,7210.409455200001,-69.005,21.785,326.154
4.3252,128.17947,37.979668,7211.7585,-69.083,21.81,326.0
4.342,128.179447,37.979706,7213.110288000001,-69.16,21.834,325.846
4.3587,128.179424,37.979744,7214.4648192,-69.237,21.858,325.691
4.3754,128.1794,37.979781,7215.821484000001,-69.315,21.881,325.537
4.3921,128.179377,37.979819,7217.181196800001,-69.392,21.905,325.383
4.4088,128.179353,37.979856,7218.543043199999,-69.469,21.929,325.228
4.4254,128.17933,37.979894,7219.907632800001,-69.546,21.952,325.073
4.4422,128.179306,37.979931,7221.274660800001,-69.623,21.975,324.919
4.4589,128.179282,37.979968,7222.6441272,-69.699,21.999,324.764
4.4756,128.179258,37.980005,7224.0163368,-69.776,22.022,324.609
4.4923,128.179234,37.980043,7225.3906799999995,-69.853,22.044,324.454
4.5089,128.17921,37.98008,7226.7677664,-69.929,22.067,324.299
4.5256,128.179186,37.980117,7228.1469864,-70.006,22.09,324.144
4.5424,128.179162,37.980154,7229.5289496000005,-70.082,22.112,323.988
4.5591,128.179137,37.980191,7230.913046400001,-70.159,22.134,323.833
4.5758,128.179113,37.980228,7232.2995816,-70.235,22.156,323.678
4.5925,128.179088,37.980264,7233.6885552,-70.311,22.178,323.522
4.6091,128.179063,37.980301,7235.0799672,-70.387,22.2,323.366
4.6259,128.179038,37.980338,7236.4738176,-70.463,22.222,323.211
4.6426,128.179013,37.980375,7237.869801600001,-70.539,22.243,323.055
4.6593,128.178988,37.980411,7239.268224,-70.615,22.265,322.899
4.676,128.178963,37.980448,7240.66878,-70.691,22.286,322.743
4.6927,128.178937,37.980484,7242.072079200001,-70.767,22.307,322.587
4.7093,128.178912,37.98052,7243.4772072,-70.843,22.328,322.431
4.7261,128.178887,37.980557,7244.884773600001,-70.918,22.349,322.274
4.7428,128.178861,37.980593,7246.294473600001,-70.994,22.369,322.118
4.7595,128.178835,37.980629,7247.706612,-71.07,22.39,321.962
4.7762,128.178809,37.980665,7249.120884000001,-71.145,22.41,321.805
4.7928,128.178783,37.980702,7250.5372896,-71.221,22.43,321.649
4.8096,128.178757,37.980738,7251.956133600001,-71.296,22.45,321.492
4.8263,128.178731,37.980773,7253.3768064000005,-71.371,22.47,321.335
4.843,128.178705,37.980809,7254.7999176,-71.446,22.49,321.178
4.8597,128.178678,37.980845,7256.2251624,-71.522,22.509,321.021
4.8764,128.178652,37.980881,7257.652540800001,-71.597,22.529,320.864
4.893,128.178625,37.980917,7259.081748,-71.672,22.548,320.707
4.9098,128.178599,37.980952,7260.5133936,-71.747,22.567,320.55
4.9265,128.178572,37.980988,7261.947172800001,-71.822,22.586,320.393
4.9432,128.178545,37.981023,7263.382780800001,-71.897,22.605,320.235
4.9599,128.178518,37.981059,7264.8208272,-71.972,22.624,320.078
4.9765,128.178491,37.981094,7266.2607024,-72.046,22.642,319.92
4.9932,128.178464,37.98113,7267.702406400001,-72.121,22.66,319.763
5.01,128.178436,37.981165,7269.1465488,-72.196,22.679,319.605
5.0267,128.178409,37.9812,7270.592520000001,-72.271,22.697,319.447
5.0434,128.178381,37.981235,7272.040320000001,-72.345,22.714,319.289
5.0601,128.178354,37.98127,7273.4902536,-72.42,22.732,319.131
5.0767,128.178326,37.981305,7274.9423208,-72.494,22.75,318.973
5.0935,128.178298,37.98134,7276.3962168,-72.569,22.767,318.815
5.1102,128.17827,37.981375,7277.851941600001,-72.643,22.784,318.657
5.1269,128.178242,37.98141,7279.3098,-72.717,22.801,318.498
5.1436,128.178214,37.981445,7280.7694872,-72.792,22.818,318.34
5.1602,128.178186,37.981479,7282.2310032000005,-72.866,22.835,318.181
5.1769,128.178157,37.981514,7283.694348,-72.94,22.852,318.023
5.1937,128.178129,37.981548,7285.1598264,-73.014,22.868,317.864
5.2104,128.1781,37.981583,7286.626828800001,-73.088,22.884,317.705
5.2271,128.178072,37.981617,7288.095964800001,-73.162,22.901,317.546
5.2438,128.178043,37.981651,7289.566624800001,-73.236,22.917,317.387
5.2604,128.178014,37.981686,7291.039418400001,-73.31,22.932,317.228
5.2772,128.177985,37.98172,7292.513736,-73.384,22.948,317.069
5.2939,128.177956,37.981754,7293.990187200001,-73.458,22.964,316.91
5.3106,128.177927,37.981788,7295.4681624,-73.532,22.979,316.75
5.3273,128.177897,37.981822,7296.9479664,-73.606,22.994,316.591
5.3439,128.177868,37.981856,7298.4292944,-73.679,23.009,316.431
5.3606,128.177839,37.98189,7299.912756000001,-73.753,23.024,316.272
5.3774,128.177809,37.981924,7301.397436800001,-73.827,23.039,316.112
5.3941,128.177779,37.981957,7302.884251200001,-73.9,23.053,315.952
5.4108,128.17775,37.981991,7304.3725896,-73.974,23.068,315.792
5.4275,128.17772,37.982025,7305.862452000001,-74.047,23.082,315.632
5.4441,128.17769,37.982058,7307.3541432,-74.121,23.096,315.472
5.4609,128.17766,37.982091,7308.8476632,-74.194,23.11,315.312
5.4776,128.177629,37.982125,7310.3424024,-74.267,23.124,315.152
5.4943,128.177599,37.982158,7311.838970400001,-74.341,23.137,314.991
5.511,128.177569,37.982191,7313.3370624,-74.414,23.151,314.831
5.5277,128.177538,37.982224,7314.836983200001,-74.487,23.164,314.67
5.5443,128.177508,37.982257,7316.3381232,-74.56,23.177,314.51
5.5611,128.177477,37.98229,7317.841092000001,-74.633,23.19,314.349
5.5778,128.177446,37.982323,7319.3455848,-74.707,23.203,314.188
5.5945,128.177415,37.982356,7320.8516016,-74.78,23.216,314.027
5.6112,128.177384,37.982389,7322.358837600001,-74.853,23.228,313.866
5.6278,128.177353,37.982422,7323.8679024,-74.926,23.24,313.705
5.6445,128.177322,37.982454,7325.3784912,-74.998,23.253,313.544
5.6613,128.177291,37.982487,7326.8902992,-75.071,23.265,313.383
5.678,128.17726,37.982519,7328.4036312,-75.144,23.276,313.222
5.6947,128.177228,37.982552,7329.9184872000005,-75.217,23.288,313.06
5.7114,128.177197,37.982584,7331.434867200001,-75.29,23.3,312.899
5.728,128.177165,37.982616,7332.9524664,-75.362,23.311,312.737
5.7448,128.177133,37.982649,7334.4715896,-75.435,23.322,312.575
5.7615,128.177101,37.982681,7335.992236800001,-75.508,23.333,312.414
5.7782,128.177069,37.982713,7337.5141032,-75.58,23.344,312.252
5.7949,128.177037,37.982745,7339.0371888,-75.653,23.355,312.09
5.8115,128.177005,37.982777,7340.5617984,-75.725,23.365,311.928
5.8282,128.176973,37.982808,7342.087932,-75.797,23.375,311.766
5.845,128.176941,37.98284,7343.61498,-75.87,23.386,311.604
5.8617,128.176908,37.982872,7345.143552,-75.942,23.396,311.441
5.8784,128.176876,37.982903,7346.6733432,-76.014,23.406,311.279
5.8951,128.176843,37.982935,7348.2046584,-76.086,23.415,311.117
5.9117,128.17681,37.982966,7349.736888,-76.158,23.425,310.954
5.9285,128.176778,37.982998,7351.2706416,-76.231,23.434,310.792
5.9452,128.176745,37.983029,7352.8056144,-76.303,23.443,310.629
5.9619,128.176712,37.98306,7354.341501600001,-76.375,23.452,310.466
5.9786,128.176679,37.983091,7355.8789128,-76.447,23.461,310.303
5.9952,128.176645,37.983122,7357.4175432,-76.518,23.47,310.141
6.0119,128.176612,37.983153,7358.957088000001,-76.59,23.478,309.978
6.0287,128.176579,37.983184,7360.498156800001,-76.662,23.487,309.815
6.0454,128.176545,37.983215,7362.04014,-76.734,23.495,309.651
6.0621,128.176512,37.983246,7363.583342400001,-76.806,23.503,309.488
6.0788,128.176478,37.983276,7365.1274592,-76.877,23.511,309.325
6.0954,128.176444,37.983307,7366.6727952,-76.949,23.518,309.162
6.1121,128.176411,37.983338,7368.219350400001,-77.021,23.526,308.998
6.1289,128.176377,37.983368,7369.767124800001,-77.092,23.533,308.835
6.1456,128.176343,37.983398,7371.3158136,-77.164,23.541,308.671
6.1623,128.176309,37.983429,7372.8654168,-77.235,23.548,308.507
6.179,128.176274,37.983459,7374.4162392,-77.306,23.554,308.343
6.1956,128.17624,37.983489,7375.967976,-77.378,23.561,308.18
6.2124,128.176206,37.983519,7377.520932,-77.449,23.568,308.016
6.2291,128.176171,37.983549,7379.0748023999995,-77.52,23.574,307.852
6.2458,128.176137,37.983579,7380.629587200001,-77.591,23.58,307.687
6.2625,128.176102,37.983609,7382.1852864,-77.663,23.586,307.523
6.2791,128.176067,37.983638,7383.742204800001,-77.734,23.592,307.359
6.2958,128.176032,37.983668,7385.299732800001,-77.805,23.598,307.194
6.3126,128.175997,37.983697,7386.85848,-77.876,23.604,307.029
6.3293,128.175962,37.983727,7388.4181416,-77.947,23.609,306.864
6.346,128.175927,37.983756,7389.9787176,-78.017,23.614,306.699
6.3627,128.175892,37.983786,7391.5399032000005,-78.088,23.619,306.534
6.3793,128.175857,37.983815,7393.102308,-78.159,23.624,306.369
6.3961,128.175821,37.983844,7394.6653224,-78.229,23.629,306.203
6.4128,128.175786,37.983873,7396.2292512,-78.3,23.634,306.038
6.4295,128.17575,37.983902,7397.7940944,-78.37,23.638,305.872
6.4462,128.175715,37.983931,7399.3598520000005,-78.441,23.643,305.706
6.4628,128.175679,37.98396,7400.926524,-78.511,23.647,305.54
6.4795,128.175643,37.983988,7402.493805600001,-78.581,23.651,305.374
6.4963,128.175607,37.984017,7404.0616968,-78.651,23.655,305.208
6.513,128.175571,37.984046,7405.6305024,-78.721,23.659,305.042
6.5297,128.175535,37.984074,7407.200222400001,-78.791,23.662,304.875
6.5464,128.175499,37.984103,7408.770552000001,-78.861,23.666,304.709
6.5631,128.175463,37.984131,7410.341796000001,-78.93,23.669,304.542
6.5798,128.175427,37.984159,7411.9136496,-79.0,23.672,304.375
6.5965,128.17539,37.984187,7413.4861128,-79.069,23.675,304.208
6.6132,128.175354,37.984215,7415.0591856,-79.139,23.678,304.041
6.6299,128.175317,37.984243,7416.6331728000005,-79.208,23.68,303.874
6.6466,128.17528,37.984271,7418.207769600001,-79.277,23.683,303.707
6.6633,128.175244,37.984299,7419.782976,-79.346,23.685,303.539
6.68,128.175207,37.984327,7421.358792000001,-79.415,23.687,303.372
6.6967,128.17517,37.984354,7422.9355224,-79.484,23.689,303.204
6.7134,128.175133,37.984382,7424.5125576,-79.553,23.691,303.037
6.7301,128.175096,37.984409,7426.0902024,-79.622,23.693,302.869
6.7468,128.175058,37.984437,7427.6687616,-79.69,23.694,302.701
6.7635,128.175021,37.984464,7429.2476256,-79.759,23.695,302.533
6.7802,128.174984,37.984491,7430.8270992,-79.827,23.697,302.365
6.7969,128.174946,37.984518,7432.4068776,-79.896,23.698,302.196
6.8136,128.174909,37.984545,7433.987570400001,-79.964,23.699,302.028
6.8303,128.174871,37.984572,7435.568568000001,-80.032,23.699,301.859
6.847,128.174834,37.984599,7437.1501751999995,-80.1,23.7,301.691
6.8637,128.174796,37.984626,7438.732392000001,-80.168,23.7,301.522
6.8804,128.174758,37.984653,7440.3149136,-80.236,23.7,301.353
6.8971,128.17472,37.984679,7441.8980448,-80.304,23.7,301.184
6.9138,128.174682,37.984706,7443.4814808,-80.371,23.7,301.015
6.9305,128.174644,37.984732,7445.0655264,-80.439,23.7,300.846
6.9472,128.174606,37.984759,7446.6498768,-80.506,23.7,300.677
6.9639,128.174567,37.984785,7448.2348368,-80.574,23.699,300.508
6.9806,128.174529,37.984811,7449.820101600001,-80.641,23.698,300.338
6.9973,128.174491,37.984837,7451.4056712,-80.708,23.697,300.169
7.014,128.174452,37.984863,7452.991850400001,-80.775,23.696,299.999
7.0307,128.174414,37.984889,7454.5783344,-80.842,23.695,299.83
7.0474,128.174375,37.984915,7456.1648184000005,-80.909,23.694,299.66
7.0641,128.174336,37.984941,7457.7522168,-80.976,23.692,299.49
7.0808,128.174297,37.984966,7459.3396152000005,-81.043,23.69,299.32
7.0975,128.174258,37.984992,7460.9273184,-81.109,23.689,299.15
7.1142,128.174219,37.985017,7462.5153264,-81.176,23.687,298.98
7.1309,128.17418,37.985043,7464.1036392,-81.242,23.684,298.809
7.1476,128.174141,37.985068,7465.692256800001,-81.309,23.682,298.639
7.1643,128.174102,37.985093,7467.281179200001,-81.375,23.68,298.468
7.181,128.174063,37.985118,7468.870406400001,-81.441,23.677,298.298
7.1977,128.174023,37.985143,7470.459938400001,-81.508,23.674,298.127
7.2144,128.173984,37.985168,7472.049470400001,-81.574,23.671,297.956
7.2311,128.173944,37.985193,7473.639612,-81.64,23.668,297.785
7.2478,128.173905,37.985217,7475.2294488,-81.705,23.665,297.614
7.2645,128.173865,37.985242,7476.8198952,-81.771,23.661,297.443
7.2812,128.173825,37.985267,7478.410341600001,-81.837,23.658,297.272
7.2979,128.173785,37.985291,7480.001092800001,-81.903,23.654,297.101
7.3146,128.173746,37.985315,7481.591844,-81.968,23.65,296.929
7.3313,128.173706,37.98534,7483.1825952,-82.034,23.646,296.758
7.348,128.173666,37.985364,7484.773651200001,-82.099,23.642,296.586
7.3647,128.173625,37.985388,7486.365012,-82.164,23.637,296.415
7.3814,128.173585,37.985412,7487.956068,-82.23,23.633,296.243
7.3981,128.173545,37.985436,7489.547733600001,-82.295,23.628,296.071
7.4148,128.173504,37.98546,7491.1390944,-82.36,23.623,295.899
7.4315,128.173464,37.985483,7492.7304552000005,-82.425,23.618,295.727
7.4482,128.173424,37.985507,7494.3221207999995,-82.49,23.613,295.555
7.4649,128.173383,37.98553,7495.9137864,-82.554,23.607,295.383
7.4816,128.173342,37.985554,7497.505452000001,-82.619,23.602,295.21
7.4983,128.173302,37.985577,7499.0971176,-82.684,23.596,295.038
7.515,128.173261,37.9856,7500.688783200001,-82.748,23.59,294.865
7.5317,128.17322,37.985624,7502.2804488,-82.813,23.584,294.693
7.5484,128.173179,37.985647,7503.872114400001,-82.877,23.578,294.52
7.5651,128.173138,37.98567,7505.46378,-82.942,23.572,294.347
7.5818,128.173097,37.985692,7507.0554456,-83.006,23.565,294.174
7.5985,128.173056,37.985715,7508.646806400001,-83.07,23.559,294.001
7.6152,128.173014,37.985738,7510.238472,-83.134,23.552,293.828
7.6319,128.172973,37.98576,7511.829832800001,-83.198,23.545,293.655
7.6486,128.172932,37.985783,7513.4211936,-83.262,23.538,293.482
7.6653,128.17289,37.985805,7515.0122496,-83.326,23.53,293.308
7.682,128.172849,37.985827,7516.603305600001,-83.39,23.523,293.135
7.6987,128.172807,37.98585,7518.1943616,-83.453,23.515,292.961
7.7154,128.172766,37.985872,7519.7851128,-83.517,23.507,292.788
7.7321,128.172724,37.985894,7521.375559200001,-83.58,23.5,292.614
7.7488,128.172682,37.985916,7522.9660056,-83.644,23.491,292.44
7.7655,128.17264,37.985937,7524.556452000001,-83.707,23.483,292.266
7.7822,128.172598,37.985959,7526.1465935999995,-83.77,23.475,292.092
7.7989,128.172556,37.985981,7527.7364304,-83.834,23.466,291.918
7.8156,128.172514,37.986002,7529.3259624,-83.897,23.457,291.744
7.8323,128.172472,37.986024,7530.9154944,-83.96,23.449,291.569
7.849,128.17243,37.986045,7532.5047216,-84.023,23.44,291.395
7.8657,128.172388,37.986066,7534.093644,-84.085,23.43,291.22
7.8824,128.172345,37.986087,7535.6822616,-84.148,23.421,291.046
7.8991,128.172303,37.986108,7537.270879200001,-84.211,23.411,290.871
7.9158,128.17226,37.986129,7538.858887200001,-84.273,23.402,290.696
7.9325,128.172218,37.98615,7540.4465904,-84.336,23.392,290.522
7.9492,128.172175,37.986171,7542.0339888,-84.398,23.382,290.347
7.9659,128.172133,37.986191,7543.621387200001,-84.461,23.372,290.172
7.9826,128.17209,37.986212,7545.208176,-84.523,23.361,289.996
7.9993,128.172047,37.986232,7546.7946600000005,-84.585,23.351,289.821
8.016,128.172004,37.986253,7548.3805344,-84.647,23.34,289.646
8.0327,128.171961,37.986273,7549.9664088,-84.709,23.329,289.47
8.0494,128.171918,37.986293,7551.551673600001,-84.771,23.318,289.295
8.0661,128.171875,37.986313,7553.136633600001,-84.833,23.307,289.119
8.0828,128.171832,37.986333,7554.7212887999995,-84.895,23.296,288.944
8.0994,128.171789,37.986353,7556.3053344,-84.956,23.284,288.768
8.1161,128.171746,37.986372,7557.888770400001,-85.018,23.273,288.592
8.1329,128.171702,37.986392,7559.472206400001,-85.079,23.261,288.416
8.1496,128.171659,37.986412,7561.054728000001,-85.141,23.249,288.24
8.1663,128.171616,37.986431,7562.6372496,-85.202,23.237,288.064
8.183,128.171572,37.98645,7564.218856800001,-85.263,23.225,287.888
8.1997,128.171529,37.98647,7565.8001592,-85.324,23.212,287.712
8.2164,128.171485,37.986489,7567.380852000001,-85.385,23.2,287.535
8.2331,128.171441,37.986508,7568.9612400000005,-85.446,23.187,287.359
8.2498,128.171398,37.986527,7570.5410184,-85.507,23.174,287.182
8.2665,128.171354,37.986545,7572.1201872,-85.568,23.161,287.005
8.2831,128.17131,37.986564,7573.6987464,-85.629,23.148,286.829
8.2998,128.171266,37.986583,7575.276696000001,-85.689,23.134,286.652
8.3166,128.171222,37.986601,7576.854036000001,-85.75,23.121,286.475
8.3333,128.171178,37.98662,7578.4310712,-85.81,23.107,286.298
8.35,128.171134,37.986638,7580.007192000001,-85.87,23.093,286.121
8.3667,128.17109,37.986656,7581.5830080000005,-85.93,23.079,285.944
8.3834,128.171046,37.986674,7583.1579096000005,-85.99,23.065,285.767
8.4001,128.171001,37.986692,7584.732201600001,-86.05,23.051,285.591
8.4168,128.170957,37.98671,7586.305884000001,-86.109,23.036,285.414
8.4335,128.170913,37.986728,7587.878956800001,-86.169,23.022,285.237
8.4502,128.170868,37.986746,7589.4511152000005,-86.228,23.007,285.06
8.4668,128.170824,37.986763,7591.022968800001,-86.287,22.992,284.884
8.4835,128.170779,37.986781,7592.593908,-86.346,22.977,284.707
8.5003,128.170735,37.986798,7594.164237600001,-86.405,22.962,284.53
8.517,128.17069,37.986815,7595.7336528,-86.463,22.946,284.354
8.5337,128.170645,37.986832,7597.3024584,-86.522,22.931,284.177
8.5504,128.1706,37.986849,7598.870349600001,-86.58,22.915,284.001
8.5671,128.170556,37.986866,7600.4376312,-86.638,22.899,283.824
8.5838,128.170511,37.986883,7602.0039984,-86.696,22.883,283.648
8.6005,128.170466,37.9869,7603.569756000001,-86.754,22.867,283.471
8.6172,128.170421,37.986917,7605.134599200001,-86.811,22.851,283.295
8.6339,128.170376,37.986933,7606.698832800001,-86.869,22.835,283.118
8.6505,128.170331,37.98695,7608.262152000001,-86.926,22.818,282.942
8.6672,128.170286,37.986966,7609.824556800001,-86.983,22.802,282.765
8.684,128.170241,37.986982,7611.386047200001,-87.04,22.785,282.589
8.7007,128.170195,37.986998,7612.9466232,-87.097,22.768,282.413
8.7174,128.17015,37.987014,7614.5065896,-87.154,22.751,282.236
8.7341,128.170105,37.98703,7616.0656416,-87.21,22.733,282.06
8.7508,128.170059,37.987046,7617.623779200001,-87.267,22.716,281.883
8.7675,128.170014,37.987062,7619.180697600001,-87.323,22.698,281.707
8.7842,128.169968,37.987077,7620.737006400001,-87.379,22.681,281.531
8.8009,128.169923,37.987093,7622.292400800001,-87.435,22.663,281.354
8.8176,128.169877,37.987108,7623.8468808,-87.49,22.645,281.178
8.8342,128.169832,37.987123,7625.400141600001,-87.546,22.627,281.002
8.8509,128.169786,37.987138,7626.952792800001,-87.602,22.609,280.825
8.8676,128.16974,37.987153,7628.504224800001,-87.657,22.59,280.649
8.8844,128.169695,37.987168,7630.054742400001,-87.712,22.572,280.472
8.9011,128.169649,37.987183,7631.604345600001,-87.767,22.553,280.296
8.9178,128.169603,37.987198,7633.1527295999995,-87.822,22.534,280.119
8.9345,128.169557,37.987212,7634.7001992000005,-87.877,22.515,279.943
8.9512,128.169511,37.987227,7636.2467544,-87.931,22.496,279.766
8.9679,128.169465,37.987241,7637.7920904,-87.986,22.477,279.59
8.9846,128.169419,37.987256,7639.336512,-88.04,22.457,279.413
9.0013,128.169373,37.98727,7640.880019200001,-88.095,22.438,279.237
9.0179,128.169327,37.987284,7642.4223071999995,-88.149,22.418,279.06
9.0346,128.169281,37.987298,7643.963376,-88.203,22.398,278.884
9.0513,128.169234,37.987312,7645.5032256,-88.257,22.378,278.707
9.0681,128.169188,37.987326,7647.0424656000005,-88.311,22.358,278.531
9.0848,128.169142,37.987339,7648.5801816,-88.364,22.338,278.354
9.1015,128.169095,37.987353,7650.116678400001,-88.418,22.318,278.177
9.1182,128.169049,37.987366,7651.6522608000005,-88.471,22.297,278.001
9.1349,128.169003,37.987379,7653.186624000001,-88.524,22.277,277.824
9.1516,128.168956,37.987393,7654.720072800001,-88.578,22.256,277.647
9.1683,128.16891,37.987406,7656.251997600001,-88.631,22.235,277.47
9.185,128.168863,37.987419,7657.783008,-88.684,22.214,277.294
9.2016,128.168816,37.987432,7659.3124944,-88.737,22.193,277.117
9.2183,128.16877,37.987444,7660.8410664,-88.789,22.171,276.94
9.235,128.168723,37.987457,7662.3681144,-88.842,22.15,276.763
9.2518,128.168676,37.98747,7663.894248,-88.894,22.128,276.586
9.2685,128.16863,37.987482,7665.4188576,-88.947,22.107,276.41
9.2852,128.168583,37.987494,7666.9425528,-88.999,22.085,276.233
9.3019,128.168536,37.987507,7668.464724,-89.051,22.063,276.056
9.3186,128.168489,37.987519,7669.985676,-89.103,22.04,275.879
9.3353,128.168442,37.987531,7671.505408800001,-89.155,22.018,275.702
9.352,128.168395,37.987543,7673.0236176,-89.207,21.996,275.525
9.3687,128.168348,37.987554,7674.5406072,-89.258,21.973,275.348
9.3854,128.168301,37.987566,7676.056377600001,-89.31,21.95,275.171
9.402,128.168254,37.987578,7677.570928800001,-89.361,21.928,274.994
9.4187,128.168207,37.987589,7679.083956,-89.413,21.905,274.817
9.4355,128.16816,37.987601,7680.595764000001,-89.464,21.882,274.64
9.4522,128.168113,37.987612,7682.106048,-89.515,21.858,274.462
9.4689,128.168065,37.987623,7683.614808,-89.566,21.835,274.285
9.4856,128.168018,37.987634,7685.1226536,-89.617,21.811,274.108
9.5023,128.167971,37.987645,7686.628670400001,-89.667,21.788,273.931
9.519,128.167924,37.987656,7688.133468,-89.718,21.764,273.754
9.5357,128.167876,37.987666,7689.6367416,-89.768,21.74,273.576
9.5524,128.167829,37.987677,7691.138796,-89.819,21.716,273.399
9.5691,128.167781,37.987687,7692.6393264,-89.869,21.692,273.222
9.5857,128.167734,37.987698,7694.138332800001,-89.919,21.667,273.044
9.6024,128.167687,37.987708,7695.635815200001,-89.969,21.643,272.867
9.6192,128.167639,37.987718,7697.131773600001,-90.019,21.618,272.69
9.6359,128.167591,37.987728,7698.6265128000005,-90.068,21.593,272.512
9.6526,128.167544,37.987738,7700.119728000001,-90.118,21.569,272.335
9.6693,128.167496,37.987748,7701.611114400001,-90.167,21.543,272.157
9.686,128.167449,37.987757,7703.1012816,-90.217,21.518,271.98
9.7027,128.167401,37.987767,7704.5899248000005,-90.266,21.493,271.803
9.7194,128.167353,37.987777,7706.0767392,-90.315,21.468,271.625
9.7361,128.167306,37.987786,7707.5623344,-90.364,21.442,271.447
9.7528,128.167258,37.987795,7709.0461008,-90.413,21.416,271.27
9.7694,128.16721,37.987804,7710.5286479999995,-90.461,21.39,271.092
9.7861,128.167162,37.987813,7712.0093664,-90.51,21.365,270.915
9.8029,128.167114,37.987822,7713.4885608,-90.558,21.338,270.737
9.8196,128.167067,37.987831,7714.9662312,-90.607,21.312,270.559
9.8363,128.167019,37.98784,7716.4420728000005,-90.655,21.286,270.382
9.853,128.166971,37.987848,7717.916390400001,-90.703,21.259,270.204
9.8697,128.166923,37.987857,7719.389184000001,-90.751,21.233,270.026
9.8864,128.166875,37.987865,7720.8601488,-90.799,21.206,269.849
9.9031,128.166827,37.987873,7722.3295896,-90.846,21.179,269.671
9.9198,128.166779,37.987881,7723.7972016,-90.894,21.152,269.493
9.9365,128.166731,37.987889,7725.2632896000005,-90.941,21.125,269.315
9.9531,128.166683,37.987897,7726.7278536,-90.988,21.097,269.137
9.9698,128.166635,37.987905,7728.1905888,-91.035,21.07,268.96
9.9865,128.166587,37.987913,7729.651495200001,-91.082,21.042,268.782
10.0033,128.166538,37.98792,7731.1108776,-91.129,21.015,268.604
10.02,128.16649,37.987928,7732.5684312,-91.176,20.987,268.426
10.0367,128.166442,37.987935,7734.024156,-91.222,20.959,268.248
10.0534,128.166394,37.987942,7735.478052000001,-91.269,20.931,268.07
10.0701,128.166346,37.987949,7736.930424000001,-91.315,20.903,267.892
10.0868,128.166297,37.987956,7738.3809672,-91.361,20.874,267.714
10.1035,128.166249,37.987963,7739.8296816,-91.407,20.846,267.536
10.1202,128.166201,37.98797,7741.276872,-91.453,20.817,267.358
10.1368,128.166153,37.987977,7742.721928800001,-91.498,20.789,267.18
10.1535,128.166104,37.987983,7744.1654616,-91.544,20.76,267.002
10.1702,128.166056,37.98799,7745.6068608000005,-91.589,20.731,266.824
10.187,128.166008,37.987996,7747.046736,-91.635,20.702,266.646
10.2037,128.165959,37.988002,7748.484477600001,-91.68,20.672,266.467
10.2204,128.165911,37.988008,7749.9203904000005,-91.725,20.643,266.289
10.2371,128.165862,37.988014,7751.354779200001,-91.77,20.613,266.111
10.2538,128.165814,37.98802,7752.7870344,-91.814,20.584,265.933
10.2705,128.165766,37.988026,7754.2174608000005,-91.859,20.554,265.755
10.2872,128.165717,37.988031,7755.646058400001,-91.903,20.524,265.576
10.3039,128.165669,37.988037,7757.072522400001,-91.947,20.494,265.398
10.3205,128.16562,37.988042,7758.4974624,-91.992,20.464,265.22
10.3372,128.165572,37.988048,7759.9202688000005,-92.036,20.434,265.042
10.3539,128.165523,37.988053,7761.3409416,-92.079,20.403,264.863
10.3707,128.165474,37.988058,7762.7600904,-92.123,20.373,264.685
10.3874,128.165426,37.988063,7764.177105600001,-92.167,20.342,264.507
10.4041,128.165377,37.988068,7765.5919872,-92.21,20.311,264.328
10.4208,128.165329,37.988072,7767.00504,-92.253,20.28,264.15
10.4375,128.16528,37.988077,7768.416264,-92.296,20.249,263.971
10.4542,128.165232,37.988081,7769.8253544,-92.339,20.218,263.793
10.4709,128.165183,37.988086,7771.232311200001,-92.382,20.187,263.615
10.4876,128.165134,37.98809,7772.6374392,-92.424,20.155,263.436
10.5042,128.165086,37.988094,7774.040738400001,-92.467,20.124,263.258
10.5209,128.165037,37.988098,7775.4415992,-92.509,20.092,263.079
10.5376,128.164988,37.988102,7776.840631200001,-92.551,20.061,262.901
10.5544,128.16494,37.988106,7778.2378344,-92.593,20.029,262.722
10.5711,128.164891,37.98811,7779.6325992,-92.635,19.997,262.543
10.5878,128.164842,37.988113,7781.0255352,-92.677,19.965,262.365
10.6045,128.164794,37.988117,7782.416337600001,-92.718,19.932,262.186
10.6212,128.164745,37.98812,7783.805006400001,-92.76,19.9,262.008
10.6379,128.164696,37.988123,7785.1915416,-92.801,19.867,261.829
10.6546,128.164647,37.988126,7786.5759431999995,-92.842,19.835,261.65
10.6713,128.164599,37.988129,7787.958516,-92.883,19.802,261.472
10.6879,128.16455,37.988132,7789.338650400001,-92.923,19.769,261.293
10.7046,128.164501,37.988135,7790.716956000001,-92.964,19.736,261.114
10.7213,128.164453,37.988138,7792.092823200001,-93.004,19.703,260.936
10.7381,128.164404,37.98814,7793.4668616,-93.045,19.67,260.757
10.7548,128.164355,37.988143,7794.8384616,-93.085,19.637,260.578
10.7715,128.164306,37.988145,7796.207928000001,-93.125,19.603,260.399
10.7882,128.164257,37.988147,7797.575260800001,-93.164,19.57,260.221
10.8049,128.164209,37.988149,7798.940460000001,-93.204,19.536,260.042
10.8216,128.16416,37.988151,7800.3035256,-93.243,19.502,259.863
10.8383,128.164111,37.988153,7801.6641528,-93.283,19.468,259.684
10.855,128.164062,37.988155,7803.022646400001,-93.322,19.434,259.505
10.8717,128.164014,37.988156,7804.3790064,-93.361,19.4,259.326
10.8883,128.163965,37.988158,7805.732928,-93.4,19.366,259.148
10.905,128.163916,37.988159,7807.084716,-93.438,19.331,258.969
10.9218,128.163867,37.988161,7808.434370400001,-93.477,19.297,258.79
10.9385,128.163818,37.988162,7809.7818912,-93.515,19.262,258.611
10.9552,128.16377,37.988163,7811.1266688000005,-93.553,19.228,258.432
10.9719,128.163721,37.988164,7812.469617600001,-93.591,19.193,258.253
10.9886,128.163672,37.988165,7813.810128000001,-93.629,19.158,258.074
11.0053,128.163623,37.988165,7815.1482000000005,-93.666,19.123,257.895
11.022,128.163574,37.988166,7816.484138400001,-93.704,19.088,257.716
11.0387,128.163526,37.988166,7817.817638400001,-93.741,19.052,257.537
11.0554,128.163477,37.988167,7819.1490048000005,-93.778,19.017,257.358
11.072,128.163428,37.988167,7820.477628000001,-93.815,18.981,257.179
11.0887,128.163379,37.988167,7821.8044224000005,-93.852,18.946,257.0
11.1054,128.163331,37.988167,7823.128473600001,-93.888,18.91,256.821
11.1222,128.163282,37.988167,7824.4503912,-93.925,18.874,256.641
11.1389,128.163233,37.988167,7825.769870400001,-93.961,18.838,256.462
11.1556,128.163184,37.988166,7827.086911200001,-93.997,18.802,256.283
11.1723,128.163135,37.988166,7828.401513600001,-94.033,18.766,256.104
11.189,128.163087,37.988165,7829.7139824000005,-94.069,18.73,255.925
11.2057,128.163038,37.988165,7831.023708,-94.105,18.694,255.746
11.2224,128.162989,37.988164,7832.331300000001,-94.14,18.657,255.566
11.2391,128.16294,37.988163,7833.6364536,-94.175,18.62,255.387
11.2557,128.162892,37.988162,7834.9391688000005,-94.21,18.584,255.208
11.2724,128.162843,37.988161,7836.2391408,-94.245,18.547,255.029
11.2891,128.162794,37.98816,7837.536979200001,-94.28,18.51,254.849
11.3059,128.162746,37.988158,7838.832379200001,-94.314,18.473,254.67
11.3226,128.162697,37.988157,7840.125036,-94.349,18.436,254.491
11.3393,128.162648,37.988155,7841.415559200001,-94.383,18.399,254.311
11.356,128.1626,37.988154,7842.7033392,-94.417,18.361,254.132
11.3727,128.162551,37.988152,7843.9886808,-94.451,18.324,253.953
11.3894,128.162502,37.98815,7845.271584000001,-94.485,18.287,253.773
11.4061,128.162454,37.988148,7846.5520488,-94.518,18.249,253.594
11.4228,128.162405,37.988146,7847.829770400001,-94.551,18.211,253.414
11.4394,128.162356,37.988143,7849.1050536,-94.585,18.173,253.235
11.4561,128.162308,37.988141,7850.3778984,-94.618,18.135,253.056
11.4728,128.162259,37.988138,7851.6483048,-94.65,18.097,252.876
11.4896,128.162211,37.988136,7852.915968,-94.683,18.059,252.697
11.5063,128.162162,37.988133,7854.181192800001,-94.715,18.021,252.517
11.523,128.162113,37.98813,7855.4436744,-94.748,17.983,252.338
11.5397,128.162065,37.988127,7856.7037176,-94.78,17.944,252.158
11.5564,128.162016,37.988124,7857.9613224,-94.812,17.906,251.979
11.5731,128.161968,37.988121,7859.216184000001,-94.843,17.867,251.799
11.5898,128.161919,37.988118,7860.4683024,-94.875,17.828,251.619
11.6065,128.161871,37.988114,7861.7179824,-94.906,17.79,251.44
11.6231,128.161822,37.988111,7862.964919200001,-94.938,17.751,251.26
11.6398,128.161774,37.988107,7864.2094176,-94.969,17.712,251.081
11.6565,128.161725,37.988103,7865.451172800001,-94.999,17.673,250.901
11.6733,128.161677,37.988099,7866.6901848,-95.03,17.633,250.721
11.69,128.161629,37.988095,7867.9267584,-95.061,17.594,250.542
11.7067,128.16158,37.988091,7869.1605887999995,-95.091,17.555,250.362
11.7234,128.161532,37.988087,7870.391676,-95.121,17.515,250.182
11.7401,128.161484,37.988083,7871.620324800001,-95.151,17.476,250.003
11.7568,128.161435,37.988078,7872.8462304,-95.181,17.436,249.823
11.7735,128.161387,37.988074,7874.069392800001,-95.21,17.396,249.643
11.7902,128.161339,37.988069,7875.289812,-95.24,17.357,249.463
11.8068,128.16129,37.988064,7876.507488000001,-95.269,17.317,249.283
11.8235,128.161242,37.988059,7877.7224208,-95.298,17.277,249.104
11.8402,128.161194,37.988054,7878.9349152,-95.327,17.236,248.924
11.857,128.161146,37.988049,7880.1443616,-95.355,17.196,248.744
11.8737,128.161098,37.988044,7881.351369600001,-95.384,17.156,248.564
11.8904,128.161049,37.988038,7882.5553296,-95.412,17.116,248.384
11.9071,128.161001,37.988033,7883.756851200001,-95.44,17.075,248.204
11.9238,128.160953,37.988027,7884.955324800001,-95.468,17.035,248.024
11.9405,128.160905,37.988022,7886.151360000001,-95.496,16.994,247.844
11.9572,128.160857,37.988016,7887.344347200001,-95.523,16.953,247.665
11.9739,128.160809,37.98801,7888.5345912,-95.551,16.912,247.485
11.9905,128.160761,37.988004,7889.722092000001,-95.578,16.872,247.305
12.0072,128.160713,37.987998,7890.9068496,-95.605,16.831,247.125
12.0239,128.160665,37.987991,7892.088864,-95.632,16.789,246.945
12.0407,128.160617,37.987985,7893.2681352,-95.658,16.748,246.765
12.0574,128.160569,37.987979,7894.4443584,-95.685,16.707,246.584
12.0741,128.160521,37.987972,7895.617838400001,-95.711,16.666,246.404
12.0908,128.160473,37.987965,7896.7885752,-95.737,16.624,246.224
12.1075,128.160426,37.987958,7897.956264,-95.763,16.583,246.044
12.1242,128.160378,37.987951,7899.121209600001,-95.789,16.541,245.864
12.1409,128.16033,37.987944,7900.283412,-95.814,16.5,245.684
12.1576,128.160282,37.987937,7901.4425664,-95.839,16.458,245.504
12.1743,128.160235,37.98793,7902.598977600001,-95.864,16.416,245.324
12.1909,128.160187,37.987922,7903.7526456000005,-95.889,16.374,245.143
12.2076,128.160139,37.987915,7904.903265600001,-95.914,16.332,244.963
12.2243,128.160092,37.987907,7906.051142400001,-95.939,16.29,244.783
12.2411,128.160044,37.9879,7907.1959712,-95.963,16.248,244.603
12.2578,128.159997,37.987892,7908.338056800001,-95.987,16.206,244.422
12.2745,128.159949,37.987884,7909.4770944,-96.011,16.164,244.242
12.2912,128.159902,37.987876,7910.6133887999995,-96.035,16.121,244.062
12.3079,128.159854,37.987867,7911.7466352,-96.058,16.079,243.881
12.3246,128.159807,37.987859,7912.876833600001,-96.082,16.036,243.701
12.3413,128.159759,37.987851,7914.0042888,-96.105,15.994,243.521
12.358,128.159712,37.987842,7915.128696000001,-96.128,15.951,243.34
12.3746,128.159665,37.987834,7916.2500552,-96.151,15.909,243.16
12.3913,128.159618,37.987825,7917.3686712,-96.174,15.866,242.979
12.408,128.15957,37.987816,7918.4842392,-96.196,15.823,242.799
12.4248,128.159523,37.987807,7919.596759200001,-96.218,15.78,242.619
12.4415,128.159476,37.987798,7920.706536000001,-96.24,15.737,242.438
12.4582,128.159429,37.987789,7921.813264800001,-96.262,15.694,242.258
12.4749,128.159382,37.987779,7922.916945600001,-96.284,15.651,242.077
12.4916,128.159335,37.98777,7924.0175784,-96.305,15.608,241.896
12.5083,128.159288,37.98776,7925.1151632,-96.327,15.564,241.716
12.525,128.159241,37.987751,7926.2100048,-96.348,15.521,241.535
12.5417,128.159194,37.987741,7927.3014936,-96.369,15.478,241.355
12.5583,128.159147,37.987731,7928.3902392,-96.389,15.434,241.174
12.575,128.1591,37.987721,7929.4759368,-96.41,15.391,240.993
12.5917,128.159053,37.987711,7930.558281600001,-96.43,15.347,240.813
12.6085,128.159007,37.987701,7931.637883200001,-96.45,15.303,240.632
12.6252,128.15896,37.98769,7932.714436800001,-96.47,15.259,240.451
12.6419,128.158913,37.98768,7933.787942400001,-96.49,15.216,240.271
12.6586,128.158866,37.987669,7934.8584,-96.51,15.172,240.09
12.6753,128.15882,37.987659,7935.9255048,-96.529,15.128,239.909
12.692,128.158773,37.987648,7936.9898664,-96.548,15.084,239.728
12.7087,128.158727,37.987637,7938.05118,-96.567,15.04,239.547
12.7254,128.15868,37.987626,7939.1091408,-96.586,14.996,239.366
12.742,128.158634,37.987615,7940.1643584,-96.604,14.951,239.186
12.7587,128.158588,37.987604,7941.216223200001,-96.623,14.907,239.005
12.7754,128.158541,37.987592,7942.26504,-96.641,14.863,238.824
12.7922,128.158495,37.987581,7943.3108088,-96.659,14.819,238.643
12.8089,128.158449,37.987569,7944.353224800001,-96.677,14.774,238.462
12.8256,128.158403,37.987558,7945.392897600001,-96.694,14.73,238.281
12.8423,128.158356,37.987546,7946.4292176,-96.712,14.685,238.1
12.859,128.15831,37.987534,7947.4624896000005,-96.729,14.641,237.919
12.8757,128.158264,37.987522,7948.492713600001,-96.746,14.596,237.738
12.8924,128.158218,37.98751,7949.5195848,-96.763,14.551,237.557
12.9091,128.158172,37.987498,7950.543408,-96.779,14.506,237.376
12.9257,128.158126,37.987486,7951.564183200001,-96.796,14.462,237.194
12.9424,128.158081,37.987473,7952.5816056,-96.812,14.417,237.013
12.9591,128.158035,37.987461,7953.59598,-96.828,14.372,236.832
12.9759,128.157989,37.987448,7954.607001600001,-96.844,14.327,236.651
12.9926,128.157943,37.987435,7955.61528,-96.86,14.282,236.47
13.0093,128.157898,37.987422,7956.6199008,-96.875,14.237,236.289
13.026,128.157852,37.987409,7957.621778400001,-96.89,14.192,236.107
13.0427,128.157806,37.987396,7958.6199984,-96.905,14.146,235.926
13.0594,128.157761,37.987383,7959.6154752,-96.92,14.101,235.745
13.0761,128.157716,37.98737,7960.607599200001,-96.935,14.056,235.563
13.0928,128.15767,37.987357,7961.5963704000005,-96.949,14.01,235.382
13.1095,128.157625,37.987343,7962.5820936,-96.963,13.965,235.201
13.1262,128.15758,37.987329,7963.564464,-96.977,13.92,235.019
13.1429,128.157534,37.987316,7964.5437864000005,-96.991,13.874,234.838
13.1596,128.157489,37.987302,7965.519756000001,-97.005,13.829,234.656
13.1763,128.157444,37.987288,7966.4923728,-97.018,13.783,234.475
13.193,128.157399,37.987274,7967.4619416000005,-97.032,13.738,234.293
13.2097,128.157354,37.98726,7968.4281576,-97.045,13.692,234.112
13.2264,128.157309,37.987245,7969.3913256,-97.057,13.646,233.93
13.2431,128.157264,37.987231,7970.3511408,-97.07,13.6,233.748
13.2598,128.157219,37.987217,7971.3076032,-97.082,13.555,233.567
13.2765,128.157175,37.987202,7972.2610176,-97.095,13.509,233.385
13.2932,128.15713,37.987187,7973.2107744,-97.107,13.463,233.203
13.3099,128.157085,37.987173,7974.157483200001,-97.119,13.417,233.022
13.3266,128.157041,37.987158,7975.101144,-97.13,13.371,232.84
13.3433,128.156996,37.987143,7976.0411472000005,-97.142,13.325,232.658
13.36,128.156952,37.987128,7976.978102399999,-97.153,13.279,232.476
13.3767,128.156907,37.987112,7977.911704800001,-97.164,13.233,232.295
13.3934,128.156863,37.987097,7978.842259200001,-97.175,13.187,232.113
13.4101,128.156819,37.987082,7979.769156000001,-97.185,13.141,231.931
13.4268,128.156774,37.987066,7980.6927000000005,-97.196,13.094,231.749
13.4435,128.15673,37.98705,7981.613196,-97.206,13.048,231.567
13.4602,128.156686,37.987035,7982.5303392,-97.216,13.002,231.385
13.4769,128.156642,37.987019,7983.4441295999995,-97.226,12.956,231.203
13.4936,128.156598,37.987003,7984.3545672,-97.236,12.909,231.021
13.5103,128.156554,37.986987,7985.261652000001,-97.245,12.863,230.839
13.527,128.15651,37.986971,7986.165384000001,-97.254,12.817,230.657
13.5437,128.156466,37.986954,7987.066068,-97.263,12.77,230.475
13.5604,128.156423,37.986938,7987.9630944,-97.272,12.724,230.293
13.5771,128.156379,37.986921,7988.8570728,-97.281,12.677,230.111
13.5938,128.156336,37.986905,7989.7473936,-97.289,12.631,229.928
13.6105,128.156292,37.986888,7990.6343615999995,-97.297,12.584,229.746
13.6272,128.156249,37.986871,7991.518281600001,-97.305,12.538,229.564
13.6439,128.156205,37.986854,7992.398544,-97.313,12.491,229.382
13.6606,128.156162,37.986837,7993.2757584,-97.321,12.444,229.199
13.6773,128.156119,37.98682,7994.149315200001,-97.328,12.398,229.017
13.694,128.156075,37.986803,7995.019519200001,-97.335,12.351,228.835
13.7107,128.156032,37.986786,7995.886370400001,-97.342,12.304,228.652
13.7274,128.155989,37.986768,7996.7498688000005,-97.349,12.258,228.47
13.7441,128.155946,37.986751,7997.6100144,-97.356,12.211,228.287
13.7608,128.155903,37.986733,7998.4668071999995,-97.362,12.164,228.105
13.7775,128.155861,37.986716,7999.320247200001,-97.368,12.117,227.922
13.7942,128.155818,37.986698,8000.1703344,-97.374,12.07,227.74
13.8109,128.155775,37.98668,8001.016764000001,-97.38,12.024,227.557
13.8276,128.155733,37.986662,8001.860145600001,-97.386,11.977,227.374
13.8443,128.15569,37.986644,8002.699869600001,-97.391,11.93,227.192
13.861,128.155648,37.986625,8003.5362408,-97.396,11.883,227.009
13.8777,128.155605,37.986607,8004.369259200001,-97.401,11.836,226.826
13.8944,128.155563,37.986589,8005.198620000001,-97.406,11.789,226.644
13.9111,128.155521,37.98657,8006.024932800001,-97.411,11.742,226.461
13.9278,128.155478,37.986551,8006.8475880000005,-97.415,11.695,226.278
13.9445,128.155436,37.986533,8007.6668904,-97.419,11.648,226.095
13.9612,128.155394,37.986514,8008.4825352,-97.423,11.601,225.912
13.9779,128.155352,37.986495,8009.295132,-97.427,11.554,225.729
13.9946,128.15531,37.986476,8010.1040712,-97.43,11.507,225.546
14.0113,128.155269,37.986457,8010.9096576,-97.434,11.46,225.363
14.028,128.155227,37.986438,8011.7118912000005,-97.437,11.413,225.18
14.0447,128.155185,37.986418,8012.5104672,-97.44,11.366,224.997
14.0614,128.155144,37.986399,8013.3056904000005,-97.443,11.319,224.814
14.0781,128.155102,37.986379,8014.097560800001,-97.445,11.271,224.631
14.0948,128.155061,37.98636,8014.885773600001,-97.447,11.224,224.448
14.1115,128.155019,37.98634,8015.670633600001,-97.449,11.177,224.265
14.1282,128.154978,37.98632,8016.4521408,-97.451,11.13,224.081
14.1449,128.154937,37.9863,8017.2299904,-97.453,11.083,223.898
14.1616,128.154896,37.98628,8018.004487200001,-97.455,11.036,223.715
14.1783,128.154855,37.98626,8018.7753264,-97.456,10.988,223.532
14.195,128.154814,37.98624,8019.5431176,-97.457,10.941,223.348
14.2117,128.154773,37.986219,8020.306946400001,-97.458,10.894,223.165
14.2284,128.154732,37.986199,8021.0677272,-97.459,10.847,222.981
14.2451,128.154692,37.986178,8021.8248504,-97.459,10.8,222.798
14.2618,128.154651,37.986158,8022.578316,-97.459,10.752,222.614
14.2785,128.154611,37.986137,8023.328733600001,-97.459,10.705,222.431
14.2952,128.15457,37.986116,8024.0751887999995,-97.459,10.658,222.247
14.3119,128.15453,37.986095,8024.818596000001,-97.459,10.611,222.063
14.3286,128.15449,37.986074,8025.5580408000005,-97.458,10.564,221.88
14.3453,128.154449,37.986053,8026.2944376000005,-97.458,10.516,221.696
14.362,128.154409,37.986032,8027.0271768,-97.457,10.469,221.512
14.3787,128.154369,37.986011,8027.756258400001,-97.455,10.422,221.328
14.3954,128.154329,37.985989,8028.481987200001,-97.454,10.375,221.145
14.4121,128.154289,37.985968,8029.204058400001,-97.453,10.328,220.961
14.4288,128.15425,37.985946,8029.9227768,-97.451,10.28,220.777
14.4455,128.15421,37.985924,8030.638142400001,-97.449,10.233,220.593
14.4622,128.15417,37.985903,8031.349850400001,-97.447,10.186,220.409
14.4789,128.154131,37.985881,8032.0579008,-97.444,10.139,220.225
14.4956,128.154092,37.985859,8032.7625984,-97.442,10.091,220.041
14.5123,128.154052,37.985837,8033.463943199999,-97.439,10.044,219.857
14.529,128.154013,37.985815,8034.1613256,-97.436,9.997,219.673
14.5457,128.153974,37.985792,8034.855660000001,-97.432,9.95,219.488
14.5624,128.153935,37.98577,8035.5463368,-97.429,9.903,219.304
14.5791,128.153896,37.985747,8036.233356000001,-97.425,9.856,219.12
14.5958,128.153857,37.985725,8036.9167176,-97.422,9.808,218.936
14.6125,128.153818,37.985702,8037.5970312,-97.418,9.761,218.751
14.6292,128.15378,37.98568,8038.273382400001,-97.413,9.714,218.567
14.6459,128.153741,37.985657,8038.9463808,-97.409,9.667,218.382
14.6626,128.153702,37.985634,8039.6160264,-97.404,9.62,218.198
14.6793,128.153664,37.985611,8040.281709600001,-97.399,9.573,218.013
14.696,128.153626,37.985588,8040.9443448,-97.394,9.526,217.829
14.7127,128.153588,37.985565,8041.6030176,-97.389,9.479,217.644
14.7294,128.153549,37.985541,8042.258337600001,-97.384,9.432,217.46
14.7461,128.153511,37.985518,8042.910304800001,-97.378,9.385,217.275
14.7628,128.153473,37.985494,8043.558614400001,-97.372,9.338,217.09
14.7795,128.153436,37.985471,8044.2032664,-97.366,9.291,216.905
14.7962,128.153398,37.985447,8044.8442608000005,-97.36,9.244,216.721
14.8129,128.15336,37.985424,8045.4819024,-97.353,9.197,216.536
14.8296,128.153323,37.9854,8046.116191200001,-97.346,9.15,216.351
14.8463,128.153285,37.985376,8046.7468224,-97.339,9.103,216.166
14.863,128.153248,37.985352,8047.373796000001,-97.332,9.056,215.981
14.8797,128.153211,37.985328,8047.997112,-97.325,9.009,215.796
14.8964,128.153173,37.985304,8048.6170752,-97.317,8.962,215.611
14.9131,128.153136,37.985279,8049.2333808,-97.31,8.915,215.426
14.9298,128.153099,37.985255,8049.8463336,-97.302,8.868,215.241
14.9465,128.153062,37.98523,8050.4556288,-97.294,8.822,215.055
14.9632,128.153026,37.985206,8051.0612664,-97.285,8.775,214.87
14.9799,128.152989,37.985181,8051.6635512,-97.277,8.728,214.685
14.9966,128.152952,37.985157,8052.2621784,-97.268,8.681,214.5
15.0133,128.152916,37.985132,8052.857148,-97.259,8.635,214.314
15.03,128.15288,37.985107,8053.4487648,-97.25,8.588,214.129
15.0467,128.152843,37.985082,8054.0367240000005,-97.241,8.541,213.943
15.0634,128.152807,37.985057,8054.6213304,-97.231,8.495,213.758
15.0801,128.152771,37.985032,8055.201974400001,-97.221,8.448,213.572
15.0968,128.152735,37.985006,8055.779570400001,-97.211,8.402,213.387
15.1135,128.152699,37.984981,8056.353204,-97.201,8.355,213.201
15.1302,128.152663,37.984956,8056.9234848,-97.191,8.309,213.015
15.1469,128.152628,37.98493,8057.490108,-97.18,8.262,212.829
15.1636,128.152592,37.984905,8058.053073600001,-97.169,8.216,212.644
15.1803,128.152557,37.984879,8058.612686400001,-97.158,8.169,212.458
15.197,128.152521,37.984853,8059.1686416,-97.147,8.123,212.272
15.2137,128.152486,37.984827,8059.721244,-97.136,8.077,212.086
