Time,Longitude,Latitude,Altitude,Roll (deg),Pitch (deg),Yaw (deg)
0.0,128.181881,37.968463,7002.830292000001,0.0,-0.003,179.999
0.0167,128.181881,37.968418,7002.8116992000005,0.0,-0.012,180.0
0.0334,128.181881,37.968374,7002.7912776,0.087,-0.026,180.011
0.0501,128.181881,37.968329,7002.7690272,0.258,-0.042,180.034
0.0668,128.181881,37.968284,7002.744033600001,0.516,-0.061,180.064
0.0834,128.181881,37.968239,7002.7193448,0.689,-0.068,180.074
0.1002,128.181881,37.968194,7002.694046400001,0.783,-0.05,180.064
0.1169,128.181881,37.968149,7002.6690528,0.789,0.006,180.04
0.1336,128.181881,37.968104,7002.645583200001,0.702,0.115,180.009
0.1503,128.181881,37.968059,7002.6239424000005,0.518,0.284,179.975
0.1669,128.181881,37.968014,7002.6050448000005,0.238,0.524,179.94
0.1837,128.181881,37.967969,7002.5873664,0.038,0.82,179.927
0.2004,128.181881,37.967924,7002.5715168,-0.083,1.162,179.938
0.2171,128.181881,37.967879,7002.5571912000005,-0.119,1.531,179.962
0.2338,128.181881,37.967834,7002.5446944000005,-0.06,1.913,179.995
0.2505,128.181881,37.967789,7002.5337216,0.094,2.291,180.032
0.2672,128.181881,37.967744,7002.5242728,0.346,2.649,180.07
0.2839,128.181881,37.967699,7002.515738400001,0.691,2.972,180.109
0.3006,128.181881,37.967654,7002.5111664,0.955,3.272,180.125
0.3172,128.181881,37.967609,7002.509947200001,1.139,3.562,180.12
0.3339,128.181881,37.967564,7002.5136048,1.234,3.852,180.101
0.3507,128.181881,37.967519,7002.5227488,1.235,4.157,180.075
0.3674,128.181881,37.967474,7002.5382936,1.139,4.486,180.045
0.3841,128.181881,37.967429,7002.5608488,0.946,4.84,180.015
0.4008,128.181881,37.967384,7002.591024,0.66,5.21,179.984
0.4175,128.181881,37.967339,7002.6269904,0.453,5.578,179.974
0.4342,128.181881,37.967294,7002.6693576,0.324,5.931,179.986
0.4509,128.181881,37.967249,7002.7181256,0.28,6.251,180.012
0.4676,128.181881,37.967204,7002.77238,0.328,6.526,180.045
0.4843,128.181881,37.967159,7002.831816,0.467,6.738,180.082
0.501,128.181881,37.967114,7002.896128800001,0.699,6.874,180.12
0.5176,128.181881,37.967069,7002.9637944,1.019,6.92,180.157
0.5344,128.181881,37.967024,7003.037860800001,1.261,6.891,180.171
0.5511,128.18188,37.966979,7003.1171088,1.426,6.802,180.163
0.5678,128.18188,37.966934,7003.201538400001,1.507,6.67,180.14
0.5845,128.18188,37.966889,7003.292064,1.499,6.51,180.107
0.6012,128.18188,37.966844,7003.3886856,1.399,6.337,180.071
0.6179,128.18188,37.966799,7003.488660000001,1.375,6.153,180.053
0.6345,128.18188,37.966754,7003.592901600001,1.424,5.964,180.055
0.6513,128.18188,37.966709,7003.700496,1.552,5.773,180.072
0.6679,128.18188,37.966664,7003.810528800001,1.766,5.584,180.097
0.6847,128.18188,37.966619,7003.9223904,2.067,5.399,180.126
0.7014,128.18188,37.966574,7004.035776,2.457,5.219,180.156
0.7181,128.18188,37.966529,7004.1497712,2.934,5.046,180.187
0.7348,128.18188,37.966484,7004.2640712,3.496,4.879,180.218
0.7514,128.18188,37.966439,7004.3780664,4.142,4.718,180.247
0.7682,128.18188,37.966394,7004.4911472,4.868,4.563,180.275
0.7848,128.18188,37.966349,7004.6039232,5.673,4.414,180.302
0.8016,128.18188,37.966304,7004.7157848,6.554,4.27,180.327
0.8183,128.18188,37.966259,7004.826732,7.508,4.131,180.351
0.835,128.18188,37.966214,7004.936460000001,8.533,3.998,180.372
0.8517,128.18188,37.966168,7005.045273600001,9.627,3.869,180.393
0.8684,128.18188,37.966123,7005.1522584,10.787,3.744,180.411
0.8851,128.18188,37.966078,7005.258024000001,12.011,3.623,180.428
0.9018,128.18188,37.966033,7005.361960800001,13.298,3.505,180.443
0.9185,128.181879,37.965988,7005.464373600001,14.645,3.391,180.456
0.9352,128.181879,37.965943,7005.5649576,16.05,3.28,180.468
0.9519,128.181879,37.965898,7005.6637128,17.512,3.173,180.477
0.9686,128.181879,37.965853,7005.7603344,19.028,3.068,180.485
0.9853,128.181879,37.965807,7005.854822400001,20.597,2.966,180.492
1.002,128.181879,37.965762,7005.9471768,22.218,2.867,180.496
1.0187,128.181879,37.965717,7006.038312,23.711,2.792,180.485
1.0353,128.181879,37.965672,7006.1285328,25.085,2.754,180.465
1.0521,128.181879,37.965627,7006.2184488,26.332,2.764,180.449
1.0688,128.181879,37.965581,7006.308669600001,27.448,2.826,180.449
1.0855,128.181878,37.965536,7006.4001096,28.432,2.947,180.476
1.1022,128.181878,37.965491,7006.4936832,29.286,3.131,180.537
1.1189,128.181878,37.965446,7006.5896952,30.013,3.385,180.639
1.1356,128.181878,37.9654,7006.688755200001,30.617,3.698,180.778
1.1522,128.181877,37.965355,7006.7914728000005,31.104,4.057,180.95
1.169,128.181877,37.96531,7006.8975432,31.651,4.44,181.168
1.1857,128.181877,37.965265,7007.0066615999995,32.257,4.835,181.426
1.2024,128.181876,37.96522,7007.1191328,32.931,5.23,181.708
1.2191,128.181876,37.965174,7007.234652000001,33.679,5.615,182.0
1.2358,128.181876,37.965129,7007.3529144,34.502,5.978,182.29
1.2525,128.181875,37.965084,7007.474224800001,35.401,6.306,182.567
1.2691,128.181875,37.965039,7007.5976688,36.372,6.588,182.819
1.2859,128.181874,37.964994,7007.723246400001,37.411,6.81,183.036
1.3026,128.181873,37.964948,7007.850348,38.513,6.962,183.207
1.3193,128.181873,37.964903,7007.979583200001,39.674,7.032,183.32
1.3359,128.181872,37.964858,7008.1097328000005,40.89,7.015,183.365
1.3527,128.181871,37.964813,7008.2414064,42.16,6.921,183.348
1.3694,128.181871,37.964767,7008.3739944,43.485,6.765,183.278
1.386,128.18187,37.964722,7008.507192000001,44.867,6.562,183.164
1.4028,128.181869,37.964677,7008.6406944,46.309,6.326,183.016
1.4195,128.181868,37.964631,7008.774196800001,47.812,6.07,182.844
1.4362,128.181868,37.964586,7008.9073944,49.38,5.807,182.658
1.4528,128.181867,37.964541,7009.0402872,51.015,5.548,182.47
1.4696,128.181866,37.964496,7009.172265600001,52.719,5.305,182.292
1.4863,128.181865,37.96445,7009.303329599999,54.492,5.088,182.137
1.5029,128.181864,37.964405,7009.433174400001,56.335,4.897,182.006
1.5197,128.181863,37.96436,7009.5614952000005,58.246,4.728,181.896
1.5364,128.181862,37.964314,7009.688292000001,60.222,4.577,181.802
1.5531,128.181861,37.964269,7009.813260000001,62.263,4.44,181.718
1.5697,128.18186,37.964224,7009.936704000001,64.364,4.315,181.642
1.5865,128.181859,37.964178,7010.057709600001,66.525,4.198,181.572
1.6032,128.181858,37.964133,7010.1768864000005,68.741,4.09,181.507
1.6198,128.181857,37.964087,7010.2939295999995,71.012,3.989,181.446
1.6366,128.181856,37.964042,7010.409144,73.334,3.894,181.388
1.6533,128.181855,37.963997,7010.521920000001,75.707,3.805,181.334
1.67,128.181854,37.963951,7010.6322576,78.127,3.72,181.282
1.6867,128.181853,37.963906,7010.7407664,80.515,3.646,181.231
1.7034,128.181852,37.96386,7010.8468368,82.869,3.581,181.182
1.7201,128.181851,37.963815,7010.9513832,85.195,3.522,181.136
1.7368,128.18185,37.963769,7011.053796,87.497,3.468,181.093
1.7535,128.181849,37.963724,7011.15438,89.783,3.417,181.053
1.7702,128.181848,37.963678,7011.2528304,92.058,3.367,181.017
1.7869,128.181847,37.963633,7011.349452000001,94.328,3.318,180.983
1.8036,128.181846,37.963587,7011.44394,96.597,3.269,180.952
1.8203,128.181845,37.963542,7011.5365992,98.87,3.222,180.923
1.837,128.181844,37.963496,7011.627124800001,101.15,3.174,180.897
1.8537,128.181843,37.963451,7011.7158216,103.438,3.128,180.872
1.8704,128.181842,37.963405,7011.8029944,105.736,3.082,180.85
1.8871,128.181842,37.963359,7011.888033600001,108.045,3.036,180.83
1.9038,128.181841,37.963314,7011.9715488,110.364,2.991,180.811
1.9205,128.18184,37.963268,7012.0532352,112.693,2.946,180.793
1.9372,128.181839,37.963223,7012.133092800001,115.032,2.903,180.777
1.9539,128.181838,37.963177,7012.2117312,117.378,2.859,180.762
1.9706,128.181837,37.963131,7012.2885408,119.731,2.816,180.748
1.9873,128.181836,37.963086,7012.3638264,122.087,2.774,180.735
2.004,128.181835,37.96304,7012.437588000001,124.444,2.733,180.723
2.0207,128.181834,37.962994,7012.5098256,126.8,2.692,180.711
2.0374,128.181833,37.962949,7012.580234399999,129.15,2.651,180.701
2.0541,128.181832,37.962903,7012.649424000001,131.493,2.611,180.691
2.0707,128.181832,37.962857,7012.7170896,133.825,2.572,180.683
2.0875,128.181831,37.962812,7012.7832312,136.14,2.533,180.674
2.1042,128.18183,37.962766,7012.847544,138.437,2.495,180.667
2.1208,128.181829,37.96272,7012.910332800001,140.712,2.457,180.66
2.1376,128.181828,37.962674,7012.971292800001,142.96,2.419,180.653
2.1543,128.181827,37.962629,7013.0307288,145.181,2.382,180.647
2.171,128.181826,37.962583,7013.088336000001,147.372,2.345,180.642
2.1877,128.181826,37.962537,7013.144114400001,149.531,2.308,180.636
2.2044,128.181825,37.962491,7013.198368800001,151.658,2.272,180.631
2.2211,128.181824,37.962445,7013.2507944,153.753,2.235,180.625
2.2378,128.181823,37.9624,7013.301696,155.817,2.199,180.619
2.2544,128.181822,37.962354,7013.350768800001,157.851,2.163,180.613
2.2712,128.181821,37.962308,7013.3986224,159.857,2.127,180.606
2.2879,128.181821,37.962262,7013.444647200001,161.838,2.091,180.598
2.3045,128.18182,37.962216,7013.4897576,163.798,2.055,180.589
2.3213,128.181819,37.96217,7013.5336488,165.741,2.02,180.579
2.338,128.181818,37.962124,7013.5763208,167.671,1.986,180.568
2.3546,128.181817,37.962079,7013.618078400001,169.595,1.952,180.556
2.3714,128.181816,37.962033,7013.6592264,171.516,1.918,180.543
2.3881,128.181816,37.961987,7013.699764800001,173.441,1.886,180.528
2.4048,128.181815,37.961941,7013.7396936,175.374,1.855,180.512
2.4215,128.181814,37.961895,7013.7796224,177.321,1.825,180.494
2.4382,128.181813,37.961849,7013.8192464,179.289,1.796,180.475
2.4549,128.181812,37.961803,7013.858870400001,-178.719,1.77,180.455
2.4716,128.181812,37.961757,7013.8987992,-176.699,1.745,180.434
2.4882,128.181811,37.961711,7013.9384232,-174.65,1.722,180.413
2.505,128.18181,37.961665,7013.978047200001,-172.572,1.701,180.391
2.5217,128.181809,37.961619,7014.0173664,-170.468,1.682,180.369
2.5383,128.181808,37.961573,7014.0563808,-168.338,1.665,180.348
2.5551,128.181807,37.961527,7014.0953952,-166.186,1.65,180.328
2.5718,128.181806,37.961481,7014.1338000000005,-164.012,1.637,180.308
2.5884,128.181806,37.961435,7014.1715952,-161.819,1.626,180.29
2.6052,128.181805,37.961389,7014.2090856,-159.607,1.617,180.272
2.6219,128.181804,37.961343,7014.2456616,-157.38,1.61,180.255
2.6386,128.181803,37.961296,7014.281628000001,-155.138,1.605,180.24
2.6553,128.181802,37.96125,7014.3169848,-152.882,1.602,180.226
2.6719,128.181801,37.961204,7014.3514272,-150.615,1.601,180.214
2.6887,128.1818,37.961158,7014.3846504,-148.337,1.601,180.203
2.7054,128.181799,37.961112,7014.416959200001,-146.05,1.603,180.193
2.722,128.181798,37.961066,7014.4480488,-143.754,1.606,180.185
2.7388,128.181798,37.961019,7014.478224,-141.451,1.611,180.18
2.7555,128.181797,37.960973,7014.5068752,-139.142,1.617,180.175
2.7721,128.181796,37.960927,7014.5340024,-136.828,1.62,180.17
2.7889,128.181795,37.960881,7014.5593008000005,-134.51,1.616,180.158
2.8056,128.181794,37.960834,7014.5830752,-132.189,1.601,180.135
2.8222,128.181793,37.960788,7014.604716,-129.866,1.573,180.098
2.839,128.181792,37.960742,7014.6242232,-127.541,1.533,180.045
2.8557,128.181791,37.960695,7014.641292,-125.217,1.481,179.975
2.8724,128.18179,37.960649,7014.6559224,-122.893,1.419,179.887
2.8891,128.181789,37.960603,7014.6681144,-120.572,1.349,179.781
2.9057,128.181788,37.960556,7014.6769536,-118.267,1.273,179.661
2.9225,128.181787,37.96051,7014.6824400000005,-115.989,1.194,179.527
2.9392,128.181786,37.960464,7014.6845736000005,-113.748,1.113,179.382
2.9558,128.181785,37.960417,7014.6830496,-111.55,1.033,179.228
2.9726,128.181784,37.960371,7014.677868000001,-109.4,0.957,179.069
2.9893,128.181783,37.960324,7014.669028800001,-107.298,0.885,178.906
3.0059,128.181782,37.960278,7014.656532,-105.247,0.82,178.742
3.0227,128.181782,37.960232,7014.640377600001,-103.244,0.761,178.578
3.0394,128.181781,37.960185,7014.620565600001,-101.284,0.711,178.417
3.056,128.18178,37.960139,7014.597705600001,-99.366,0.669,178.261
3.0728,128.181779,37.960092,7014.571492800001,-97.484,0.635,178.11
3.0895,128.181779,37.960046,7014.5419272,-95.634,0.608,177.966
3.1062,128.181778,37.959999,7014.5093136000005,-93.814,0.589,177.828
3.1229,128.181778,37.959953,7014.473652000001,-92.021,0.577,177.698
3.1395,128.181777,37.959906,7014.435247200001,-90.253,0.57,177.574
3.1563,128.181777,37.95986,7014.3940992,-88.508,0.57,177.457
3.173,128.181777,37.959813,7014.350208,-86.785,0.574,177.346
3.1896,128.181776,37.959767,7014.304183200001,-85.082,0.582,177.241
3.2064,128.181776,37.95972,7014.255720000001,-83.399,0.594,177.142
3.2231,128.181776,37.959674,7014.205428,-81.735,0.611,177.048
3.2397,128.181776,37.959627,7014.153002399999,-80.092,0.63,176.959
3.2565,128.181776,37.959581,7014.098747999999,-78.466,0.652,176.873
3.2732,128.181776,37.959534,7014.042969600001,-76.86,0.678,176.792
3.2899,128.181776,37.959487,7013.9856672000005,-75.272,0.706,176.714
3.3066,128.181776,37.959441,7013.927145600001,-73.704,0.736,176.639
3.3233,128.181776,37.959394,7013.8677096,-72.153,0.769,176.567
3.34,128.181776,37.959348,7013.8070544,-70.62,0.804,176.498
3.3567,128.181777,37.959301,7013.7457896,-69.117,0.835,176.446
3.3734,128.181777,37.959254,7013.6833056000005,-67.635,0.858,176.423
3.3901,128.181777,37.959208,7013.6199072,-66.164,0.865,176.444
3.4068,128.181778,37.959161,7013.5552896,-64.696,0.852,176.514
3.4235,128.181778,37.959115,7013.4894527999995,-63.221,0.824,176.62
3.4402,128.181779,37.959068,7013.4227016,-61.731,0.786,176.749
3.4569,128.18178,37.959021,7013.3544264,-60.218,0.741,176.889
3.4736,128.18178,37.958975,7013.284627200001,-58.669,0.694,177.033
3.4903,128.181781,37.958928,7013.213304,-57.076,0.645,177.178
3.507,128.181781,37.958881,7013.140152000001,-55.433,0.595,177.319
3.5237,128.181782,37.958834,7013.065476,-53.739,0.546,177.455
3.5404,128.181783,37.958788,7012.9889712,-51.995,0.496,177.586
3.5571,128.181783,37.958741,7012.910942400001,-50.203,0.446,177.71
3.5738,128.181784,37.958694,7012.83078,-48.364,0.396,177.828
3.5905,128.181785,37.958647,7012.7487888,-46.479,0.346,177.939
3.6072,128.181786,37.958601,7012.664968800001,-44.551,0.295,178.045
3.6239,128.181786,37.958554,7012.578710400001,-42.58,0.245,178.144
3.6406,128.181787,37.958507,7012.4921472000005,-40.77,0.187,178.23
3.6573,128.181788,37.95846,7012.403755200001,-39.117,0.123,178.302
3.674,128.181789,37.958414,7012.314144,-37.622,0.056,178.364
3.6907,128.181789,37.958367,7012.2233136,-36.284,-0.01,178.419
3.7074,128.18179,37.95832,7012.1318736,-35.102,-0.076,178.468
3.7241,128.181791,37.958273,7012.0395192000005,-34.072,-0.14,178.514
3.7408,128.181792,37.958226,7011.946860000001,-33.189,-0.202,178.556
3.7575,128.181793,37.958179,7011.8542008,-32.447,-0.26,178.595
3.7742,128.181794,37.958132,7011.7612368,-31.843,-0.315,178.631
3.7909,128.181795,37.958086,7011.6685776,-31.371,-0.368,178.665
3.8076,128.181795,37.958039,7011.5743944000005,-30.822,-0.41,178.705
3.8243,128.181796,37.957992,7011.479296800001,-30.198,-0.44,178.75
3.841,128.181797,37.957945,7011.38298,-29.495,-0.459,178.797
3.8577,128.181798,37.957898,7011.285444,-28.71,-0.469,178.84
3.8744,128.181799,37.957851,7011.185774400001,-27.844,-0.472,178.879
3.8911,128.1818,37.957804,7011.084276,-26.899,-0.467,178.914
3.9078,128.181801,37.957757,7010.9803392,-25.877,-0.456,178.943
3.9245,128.181802,37.95771,7010.8736592000005,-24.782,-0.44,178.969
3.9412,128.181803,37.957663,7010.764540800001,-23.617,-0.419,178.991
3.9579,128.181804,37.957616,7010.652069600001,-22.387,-0.394,179.011
3.9746,128.181805,37.957569,7010.537160000001,-21.093,-0.367,179.029
3.9913,128.181806,37.957522,7010.4195072,-19.74,-0.337,179.045
4.008,128.181807,37.957475,7010.299416,-18.329,-0.306,179.061
4.0247,128.181808,37.957428,7010.1768864000005,-16.864,-0.274,179.076
4.0414,128.181809,37.957381,7010.0519184,-15.347,-0.241,179.092
4.058,128.18181,37.957334,7009.924512,-13.78,-0.208,179.107
4.0748,128.181811,37.957287,7009.794972000001,-12.166,-0.174,179.122
4.0915,128.181812,37.95724,7009.6632984,-10.506,-0.139,179.138
4.1082,128.181813,37.957193,7009.529491200001,-8.802,-0.105,179.155
4.1249,128.181814,37.957146,7009.393855200001,-7.057,-0.07,179.172
4.1415,128.181815,37.957099,7009.2563904,-5.272,-0.035,179.19
4.1583,128.181816,37.957051,7009.117096800001,-3.447,-0.001,179.209
4.175,128.181817,37.957004,7008.975974400001,-1.585,0.033,179.229
4.1917,128.181818,37.956957,7008.833328000001,0.312,0.067,179.251
4.2084,128.181819,37.95691,7008.6891576,2.244,0.102,179.273
4.2251,128.18182,37.956863,7008.5437680000005,4.211,0.136,179.297
4.2417,128.181821,37.956815,7008.3968544,6.21,0.171,179.323
4.2585,128.181822,37.956768,7008.2487216,8.24,0.205,179.35
4.2752,128.181823,37.956721,7008.1005888,10.287,0.24,179.378
4.2919,128.181824,37.956674,7007.952151200001,12.342,0.275,179.406
4.3086,128.181825,37.956626,7007.8040184,14.394,0.311,179.435
4.3252,128.181826,37.956579,7007.6561904,16.435,0.348,179.465
4.342,128.181827,37.956532,7007.5092768,18.457,0.385,179.496
4.3587,128.181828,37.956485,7007.3629728000005,20.454,0.423,179.528
4.3754,128.181829,37.956437,7007.2175832,22.422,0.462,179.562
4.3921,128.18183,37.95639,7007.0731080000005,24.357,0.501,179.597
4.4088,128.181831,37.956343,7006.929852000001,26.257,0.54,179.634
4.4254,128.181832,37.956295,7006.7878152,28.121,0.578,179.674
4.4422,128.181833,37.956248,7006.646997600001,29.949,0.616,179.715
4.4589,128.181833,37.956201,7006.5070944,31.742,0.652,179.759
4.4756,128.181834,37.956153,7006.3684104,33.502,0.688,179.804
4.4923,128.181835,37.956106,7006.2306408,35.23,0.721,179.852
4.5089,128.181836,37.956058,7006.0940904,36.927,0.753,179.901
4.5256,128.181837,37.956011,7005.9581496,38.596,0.782,179.952
4.5424,128.181837,37.955964,7005.823123200001,40.238,0.802,179.998
4.5591,128.181838,37.955916,7005.688706400001,41.854,0.812,180.038
4.5758,128.181839,37.955869,7005.555204,43.446,0.814,180.075
4.5925,128.181839,37.955821,7005.422006400001,45.013,0.811,180.11
4.6091,128.18184,37.955774,7005.2897232000005,46.555,0.806,180.143
4.6259,128.181841,37.955726,7005.158049600001,48.066,0.8,180.177
4.6426,128.181841,37.955679,7005.0272904,49.544,0.793,180.212
4.6593,128.181842,37.955632,7004.897140800001,50.987,0.789,180.248
4.676,128.181842,37.955584,7004.767600800001,52.391,0.787,180.285
4.6927,128.181842,37.955537,7004.6389752,53.752,0.788,180.324
4.7093,128.181843,37.955489,7004.5106544,55.068,0.79,180.364
4.7261,128.181843,37.955442,7004.3829432,56.338,0.793,180.407
4.7428,128.181843,37.955394,7004.2555368,57.563,0.797,180.451
4.7595,128.181844,37.955347,7004.12874,58.745,0.8,180.497
4.7762,128.181844,37.955299,7004.001638400001,59.889,0.802,180.543
4.7928,128.181844,37.955252,7003.874841600001,60.996,0.803,180.591
4.8096,128.181844,37.955204,7003.748044800001,62.072,0.802,180.639
4.8263,128.181844,37.955156,7003.6212479999995,63.119,0.8,180.687
4.843,128.181844,37.955109,7003.4938416,64.14,0.796,180.736
4.8597,128.181844,37.955061,7003.3664352000005,65.139,0.79,180.784
4.8764,128.181844,37.955014,7003.238419200001,66.116,0.783,180.831
4.893,128.181844,37.954966,7003.1097936,67.074,0.774,180.878
4.9098,128.181844,37.954919,7002.9808632,68.014,0.764,180.925
4.9265,128.181844,37.954871,7002.851018400001,68.935,0.753,180.97
4.9432,128.181843,37.954823,7002.7208688,69.834,0.741,181.015
4.9599,128.181843,37.954776,7002.590109600001,70.703,0.729,181.059
4.9765,128.181843,37.954728,7002.458436,71.54,0.716,181.101
4.9932,128.181842,37.954681,7002.3261528,72.348,0.703,181.142
5.01,128.181842,37.954633,7002.193260000001,73.121,0.689,181.182
5.0267,128.181842,37.954585,7002.0594528,73.856,0.675,181.221
5.0434,128.181841,37.954538,7001.9247312,74.549,0.661,181.261
5.0601,128.18184,37.95449,7001.789400000001,75.199,0.648,181.302
5.0767,128.18184,37.954442,7001.6531544,75.805,0.635,181.343
5.0935,128.181839,37.954395,7001.5156896,76.366,0.622,181.386
5.1102,128.181838,37.954347,7001.377615200001,76.883,0.609,181.43
5.1269,128.181837,37.9543,7001.2380168,77.396,0.594,181.474
5.1436,128.181837,37.954252,7001.0971992,77.9,0.577,181.52
5.1602,128.181836,37.954204,7000.9551624,78.384,0.559,181.565
5.1769,128.181835,37.954156,7000.811906400001,78.841,0.541,181.594
5.1937,128.181834,37.954109,7000.6671264,79.263,0.52,181.603
5.2104,128.181833,37.954061,7000.520822400001,79.647,0.499,181.596
5.2271,128.181831,37.954013,7000.3732992000005,79.992,0.478,181.579
5.2438,128.18183,37.953966,7000.224252000001,80.303,0.458,181.558
5.2604,128.181829,37.953918,7000.0739856,80.583,0.437,181.537
5.2772,128.181828,37.95387,6999.9218904,80.832,0.418,181.515
5.2939,128.181827,37.953823,6999.7682712,81.048,0.4,181.497
5.3106,128.181825,37.953775,6999.613432800001,81.23,0.384,181.482
5.3273,128.181824,37.953727,6999.456765600001,81.374,0.37,181.471
5.3439,128.181822,37.953679,6999.298574400001,81.477,0.358,181.465
5.3606,128.181821,37.953632,6999.1388592,81.528,0.349,181.464
5.3774,128.181819,37.953584,6998.977620000001,81.524,0.342,181.465
5.3941,128.181818,37.953536,6998.8151616,81.462,0.338,181.47
5.4108,128.181816,37.953488,6998.650874400001,81.342,0.335,181.479
5.4275,128.181814,37.953441,6998.485368000001,81.167,0.333,181.49
5.4441,128.181812,37.953393,6998.3186424000005,80.941,0.331,181.504
5.4609,128.181811,37.953345,6998.150088,80.659,0.328,181.519
5.4776,128.181809,37.953297,6997.980314400001,80.328,0.326,181.535
5.4943,128.181807,37.95325,6997.8090168,79.955,0.323,181.552
5.511,128.181805,37.953202,6997.6365000000005,79.545,0.319,181.569
5.5277,128.181803,37.953154,6997.4624592,79.106,0.314,181.587
5.5443,128.181801,37.953106,6997.2871992,78.644,0.308,181.605
5.5611,128.181799,37.953059,6997.110415200001,78.146,0.302,181.622
5.5778,128.181796,37.953011,6996.932412,77.616,0.296,181.639
5.5945,128.181794,37.952963,6996.7531896,77.056,0.29,181.654
5.6112,128.181792,37.952915,6996.5730528,76.448,0.285,181.667
5.6278,128.18179,37.952867,6996.3916968,75.794,0.28,181.68
5.6445,128.181787,37.95282,6996.2091216,75.1,0.276,181.691
5.6613,128.181785,37.952772,6996.025632000001,74.373,0.27,181.702
5.678,128.181782,37.952724,6995.841228,73.62,0.264,181.713
5.6947,128.18178,37.952676,6995.6559096,72.851,0.257,181.725
5.7114,128.181777,37.952628,6995.4696768,72.047,0.249,181.736
5.728,128.181775,37.95258,6995.2825296,71.213,0.242,181.746
5.7448,128.181772,37.952533,6995.0947728,70.354,0.235,181.756
5.7615,128.181769,37.952485,6994.9064064,69.477,0.227,181.766
5.7782,128.181767,37.952437,6994.7174304,68.555,0.22,181.775
5.7949,128.181764,37.952389,6994.528149600001,67.596,0.213,181.784
5.8115,128.181761,37.952341,6994.3391736,66.794,0.191,181.797
5.8282,128.181758,37.952294,6994.149892800001,66.147,0.154,181.815
5.845,128.181755,37.952246,6993.959697600001,65.648,0.108,181.836
5.8617,128.181752,37.952198,6993.768283200001,65.277,0.061,181.858
5.8784,128.181749,37.95215,6993.5759544,65.015,0.017,181.88
5.8951,128.181746,37.952102,6993.382101600001,64.821,-0.02,181.898
5.9117,128.181743,37.952054,6993.1870296,64.648,-0.049,181.911
5.9285,128.18174,37.952006,6992.9910432,64.445,-0.068,181.92
5.9452,128.181737,37.951958,6992.794447200001,64.175,-0.078,181.925
5.9619,128.181734,37.951911,6992.5975464,63.837,-0.082,181.928
5.9786,128.181731,37.951863,6992.400645600001,63.426,-0.082,181.932
5.9952,128.181728,37.951815,6992.20344,62.943,-0.082,181.934
6.0119,128.181724,37.951767,6992.0065392,62.389,-0.083,181.935
6.0287,128.181721,37.951719,6991.8099432,61.767,-0.085,181.937
6.0454,128.181718,37.951671,6991.613652000001,61.079,-0.087,181.94
6.0621,128.181714,37.951623,6991.417360800001,60.33,-0.09,181.943
6.0788,128.181711,37.951575,6991.221374400001,59.52,-0.093,181.947
6.0954,128.181707,37.951527,6991.025997600001,58.654,-0.097,181.951
6.1121,128.181704,37.951479,6990.830620799999,57.734,-0.1,181.957
6.1289,128.1817,37.951431,6990.6355488,56.783,-0.104,181.964
6.1456,128.181696,37.951384,6990.4413912,55.781,-0.108,181.972
6.1623,128.181693,37.951336,6990.247538400001,54.733,-0.112,181.98
6.179,128.181689,37.951288,6990.053990400001,53.659,-0.117,181.989
6.1956,128.181685,37.95124,6989.8616616,52.541,-0.123,181.996
6.2124,128.181681,37.951192,6989.669942400001,51.381,-0.129,182.003
6.2291,128.181678,37.951144,6989.4791376,50.182,-0.136,182.007
6.2458,128.181674,37.951096,6989.289247200001,48.944,-0.143,182.011
6.2625,128.18167,37.951048,6989.100576,47.668,-0.151,182.016
6.2791,128.181666,37.951,6988.913124000001,46.357,-0.159,182.02
6.2958,128.181662,37.950952,6988.726891200001,45.012,-0.168,182.024
6.3126,128.181658,37.950904,6988.541877600001,43.634,-0.177,182.028
6.3293,128.181654,37.950856,6988.3586928,42.226,-0.186,182.033
6.346,128.181649,37.950808,6988.176727200001,40.787,-0.195,182.039
6.3627,128.181645,37.95076,6987.9965904,39.32,-0.204,182.044
6.3793,128.181641,37.950712,6987.8182824000005,37.826,-0.213,182.05
6.3961,128.181637,37.950664,6987.6411935999995,36.326,-0.223,182.057
6.4128,128.181633,37.950616,6987.466848,34.8,-0.234,182.064
6.4295,128.181628,37.950568,6987.2940264,33.251,-0.246,182.069
6.4462,128.181624,37.95052,6987.1236432,31.679,-0.258,182.074
6.4628,128.18162,37.950473,6986.9553936,30.084,-0.27,182.078
6.4795,128.181615,37.950425,6986.789582400001,28.467,-0.283,182.083
6.4963,128.181611,37.950377,6986.6262096,26.829,-0.296,182.088
6.513,128.181607,37.950329,6986.4652752,25.17,-0.308,182.093
6.5297,128.181602,37.950281,6986.307084000001,23.492,-0.321,182.098
6.5464,128.181598,37.950233,6986.1516360000005,21.793,-0.333,182.104
6.5631,128.181593,37.950185,6985.9989312,20.076,-0.345,182.11
6.5798,128.181589,37.950137,6985.8492744000005,18.341,-0.358,182.116
6.5965,128.181584,37.950089,6985.702665600001,16.588,-0.37,182.122
6.6132,128.18158,37.950041,6985.558800000001,14.818,-0.381,182.128
6.6299,128.181575,37.949993,6985.418592000001,13.032,-0.39,182.135
6.6466,128.181571,37.949945,6985.2811272,11.229,-0.397,182.142
6.6633,128.181566,37.949897,6985.147320000001,9.41,-0.403,182.15
6.68,128.181562,37.949849,6985.016560800001,7.575,-0.408,182.158
6.6967,128.181557,37.949801,6984.889459200001,5.724,-0.412,182.166
6.7134,128.181552,37.949753,6984.765710400001,3.859,-0.416,182.173
6.7301,128.181548,37.949705,6984.645314400001,1.978,-0.419,182.181
6.7468,128.181543,37.949657,6984.528576,0.083,-0.428,182.189
6.7635,128.181539,37.949609,6984.4151904,-1.826,-0.443,182.196
6.7802,128.181534,37.949561,6984.3051576,-3.751,-0.463,182.204
6.7969,128.18153,37.949513,6984.198782400001,-5.689,-0.485,182.212
6.8136,128.181525,37.949465,6984.09576,-7.641,-0.508,182.22
6.8303,128.181521,37.949416,6983.9960904,-9.607,-0.531,182.227
6.847,128.181516,37.949368,6983.900078400001,-11.588,-0.553,182.235
6.8637,128.181512,37.94932,6983.8074192,-13.583,-0.573,182.243
6.8804,128.181507,37.949272,6983.7181128,-15.592,-0.59,182.251
6.8971,128.181503,37.949224,6983.6318544000005,-17.616,-0.606,182.258
6.9138,128.181498,37.949176,6983.5489488,-19.654,-0.62,182.266
6.9305,128.181494,37.949128,6983.469396,-21.705,-0.631,182.272
6.9472,128.18149,37.94908,6983.3928912,-23.771,-0.64,182.278
6.9639,128.181485,37.949032,6983.3191295999995,-25.85,-0.646,182.282
6.9806,128.181481,37.948984,6983.2487208,-27.943,-0.65,182.285
6.9973,128.181477,37.948936,6983.181055200001,-30.049,-0.651,182.286
7.014,128.181473,37.948888,6983.116132800001,-32.168,-0.65,182.286
7.0307,128.181468,37.94884,6983.0527344,-34.259,-0.647,182.287
7.0474,128.181464,37.948792,6982.9929936,-36.365,-0.641,182.286
7.0641,128.18146,37.948744,6982.934472,-38.438,-0.633,182.285
7.0808,128.181456,37.948696,6982.8771696,-40.42,-0.621,182.287
7.0975,128.181452,37.948648,6982.8213912,-42.367,-0.607,182.288
7.1142,128.181448,37.9486,6982.7662224000005,-44.241,-0.591,182.289
7.1309,128.181444,37.948552,6982.7113584,-46.005,-0.573,182.291
7.1476,128.181441,37.948504,6982.6567992,-47.713,-0.553,182.29
7.1643,128.181437,37.948456,6982.6034592000005,-49.403,-0.536,182.283
7.181,128.181433,37.948408,6982.550424000001,-51.059,-0.519,182.27
7.1977,128.181429,37.94836,6982.4970840000005,-52.668,-0.502,182.256
7.2144,128.181425,37.948312,6982.4434392,-54.211,-0.484,182.242
7.2311,128.181422,37.948264,6982.3900992,-55.714,-0.466,182.226
7.2478,128.181418,37.948216,6982.3358448,-57.164,-0.449,182.21
7.2645,128.181415,37.948168,6982.280676,-58.548,-0.431,182.193
7.2812,128.181411,37.94812,6982.224288,-59.855,-0.414,182.179
7.2979,128.181407,37.948072,6982.1679,-61.113,-0.398,182.164
7.3146,128.181404,37.948024,6982.110292800001,-62.316,-0.383,182.146
7.3313,128.181401,37.947976,6982.052685600001,-63.486,-0.369,182.125
7.348,128.181397,37.947928,6981.993859200001,-64.618,-0.356,182.1
7.3647,128.181394,37.94788,6981.934728,-65.725,-0.344,182.07
7.3814,128.181391,37.947832,6981.8740728,-66.801,-0.331,182.036
7.3981,128.181387,37.947783,6981.8125032,-67.84,-0.319,182.001
7.4148,128.181384,37.947735,6981.7494096,-68.837,-0.307,181.968
7.4315,128.181381,37.947687,6981.685096800001,-69.788,-0.297,181.939
7.4482,128.181378,37.947639,6981.619869600001,-70.704,-0.287,181.909
7.4649,128.181375,37.947591,6981.5528136,-71.586,-0.279,181.878
7.4816,128.181372,37.947543,6981.484538400001,-72.429,-0.272,181.848
7.4983,128.181369,37.947495,6981.4147391999995,-73.235,-0.267,181.821
7.515,128.181366,37.947447,6981.343111200001,-73.997,-0.264,181.798
7.5317,128.181363,37.947399,6981.270264000001,-74.728,-0.261,181.772
7.5484,128.18136,37.947351,6981.1958928,-75.432,-0.257,181.738
7.5651,128.181357,37.947303,6981.119083200001,-76.057,-0.249,181.697
7.5818,128.181354,37.947255,6981.040749600001,-76.605,-0.238,181.651
7.5985,128.181351,37.947206,6980.9602824,-77.08,-0.225,181.605
7.6152,128.181348,37.947158,6980.877986400001,-77.498,-0.213,181.554
7.6319,128.181346,37.94711,6980.7938616,-77.865,-0.202,181.5
7.6486,128.181343,37.947062,6980.707908,-78.192,-0.194,181.447
7.6653,128.18134,37.947014,6980.6201256,-78.485,-0.189,181.397
7.682,128.181338,37.946966,6980.5308192,-78.754,-0.186,181.353
7.6987,128.181335,37.946918,6980.439684000001,-79.008,-0.186,181.308
7.7154,128.181333,37.946869,6980.3467200000005,-79.253,-0.188,181.262
7.7321,128.18133,37.946821,6980.2519272,-79.492,-0.191,181.217
7.7488,128.181328,37.946773,6980.1553056,-79.726,-0.196,181.175
7.7655,128.181325,37.946725,6980.0568552,-79.956,-0.202,181.139
7.7822,128.181323,37.946677,6979.9565760000005,-80.182,-0.209,181.107
7.7989,128.181321,37.946629,6979.854163200001,-80.403,-0.217,181.081
7.8156,128.181319,37.946581,6979.7505312,-80.625,-0.224,181.045
7.8323,128.181316,37.946532,6979.644765600001,-80.849,-0.23,180.993
7.849,128.181314,37.946484,6979.5371712,-81.073,-0.235,180.928
7.8657,128.181312,37.946436,6979.427748,-81.297,-0.239,180.856
7.8824,128.18131,37.946388,6979.3161912000005,-81.522,-0.243,180.782
7.8991,128.181308,37.94634,6979.203110400001,-81.747,-0.248,180.709
7.9158,128.181306,37.946292,6979.087896000001,-81.974,-0.252,180.626
7.9325,128.181304,37.946243,6978.9711576,-82.203,-0.256,180.535
7.9492,128.181302,37.946195,6978.8513712,-82.397,-0.254,180.452
7.9659,128.1813,37.946147,6978.729451200001,-82.548,-0.247,180.394
7.9826,128.181299,37.946099,6978.605397600001,-82.648,-0.238,180.361
7.9993,128.181297,37.946051,6978.479210400001,-82.688,-0.229,180.349
8.016,128.181295,37.946002,6978.3505847999995,-82.667,-0.22,180.354
8.0327,128.181293,37.945954,6978.2201304,-82.586,-0.212,180.37
8.0494,128.181292,37.945906,6978.087237600001,-82.446,-0.207,180.395
8.0661,128.18129,37.945858,6977.952515999999,-82.298,-0.205,180.425
8.0828,128.181288,37.94581,6977.815660800001,-82.149,-0.209,180.46
8.0994,128.181287,37.945761,6977.6769768,-81.997,-0.216,180.498
8.1161,128.181285,37.945713,6977.536464000001,-81.839,-0.223,180.539
8.1329,128.181284,37.945665,6977.393208,-81.668,-0.231,180.583
8.1496,128.181282,37.945617,6977.248123200001,-81.47,-0.239,180.63
8.1663,128.181281,37.945568,6977.100600000001,-81.231,-0.244,180.68
8.183,128.181279,37.94552,6976.950638400001,-80.94,-0.248,180.733
8.1997,128.181278,37.945472,6976.8000672,-80.711,-0.263,180.77
8.2164,128.181276,37.945423,6976.6476672,-80.55,-0.287,180.774
8.2331,128.181275,37.945375,6976.493133600001,-80.458,-0.313,180.732
8.2498,128.181274,37.945327,6976.337076,-80.433,-0.332,180.629
8.2665,128.181272,37.945279,6976.1794944,-80.472,-0.34,180.457
8.2831,128.181271,37.94523,6976.020084000001,-80.566,-0.334,180.205
8.2998,128.18127,37.945182,6975.859759200001,-80.706,-0.312,179.866
8.3166,128.181269,37.945134,6975.698215200001,-80.884,-0.277,179.454
8.3333,128.181268,37.945085,6975.535147200001,-81.091,-0.231,178.983
8.35,128.181267,37.945037,6975.370860000001,-81.319,-0.179,178.468
8.3667,128.181266,37.944989,6975.2053536,-81.562,-0.123,177.928
8.3834,128.181266,37.94494,6975.038932800001,-81.815,-0.067,177.382
8.4001,128.181265,37.944892,6974.8712928,-82.071,-0.015,176.852
8.4168,128.181264,37.944844,6974.7024336,-82.329,0.03,176.356
8.4335,128.181264,37.944795,6974.532660000001,-82.584,0.068,175.902
8.4502,128.181264,37.944747,6974.3616672,-82.835,0.098,175.488
8.4668,128.181264,37.944699,6974.18976,-83.08,0.123,175.106
8.4835,128.181264,37.94465,6974.016633600001,-83.319,0.142,174.752
8.5003,128.181264,37.944602,6973.842592800001,-83.55,0.156,174.422
8.517,128.181264,37.944554,6973.6676376000005,-83.773,0.166,174.112
8.5337,128.181264,37.944505,6973.4914632,-83.989,0.173,173.819
8.5504,128.181265,37.944457,6973.314069600001,-84.198,0.176,173.542
8.5671,128.181265,37.944408,6973.1357616,-84.399,0.177,173.278
8.5838,128.181266,37.94436,6972.9562344,-84.592,0.175,173.027
8.6005,128.181267,37.944312,6972.775488000001,-84.779,0.171,172.786
8.6172,128.181268,37.944263,6972.5935224,-84.96,0.165,172.554
8.6339,128.181269,37.944215,6972.4103376,-85.134,0.157,172.331
8.6505,128.181271,37.944167,6972.225933600001,-85.301,0.148,172.116
8.6672,128.181272,37.944118,6972.040310400001,-85.463,0.137,171.908
8.684,128.181274,37.94407,6971.853468,-85.62,0.125,171.706
8.7007,128.181276,37.944022,6971.6654064,-85.771,0.111,171.509
8.7174,128.181277,37.943973,6971.4758208,-85.917,0.096,171.318
8.7341,128.18128,37.943925,6971.284711200001,-86.059,0.081,171.13
8.7508,128.181282,37.943877,6971.0923824,-86.196,0.064,170.947
8.7675,128.181284,37.943829,6970.8988344,-86.329,0.046,170.768
8.7842,128.181287,37.94378,6970.7037624,-86.458,0.028,170.592
8.8009,128.181289,37.943732,6970.5071664,-86.584,0.009,170.419
8.8176,128.181292,37.943684,6970.309046400001,-86.706,-0.01,170.25
8.8342,128.181295,37.943636,6970.109402399999,-86.825,-0.031,170.083
8.8509,128.181298,37.943587,6969.9082344,-86.941,-0.052,169.918
8.8676,128.181301,37.943539,6969.705542400001,-87.054,-0.074,169.756
8.8844,128.181305,37.943491,6969.5010216,-87.165,-0.097,169.596
8.9011,128.181308,37.943443,6969.295281600001,-87.273,-0.119,169.438
8.9178,128.181312,37.943394,6969.0877128,-87.379,-0.143,169.281
8.9345,128.181316,37.943346,6968.87862,-87.482,-0.167,169.126
8.9512,128.18132,37.943298,6968.6676984,-87.584,-0.191,168.972
8.9679,128.181324,37.94325,6968.4552527999995,-87.684,-0.216,168.819
8.9846,128.181328,37.943202,6968.240978400001,-87.782,-0.241,168.667
9.0013,128.181333,37.943154,6968.0248752,-87.878,-0.266,168.516
9.0179,128.181337,37.943105,6967.8069432,-87.973,-0.292,168.366
9.0346,128.181342,37.943057,6967.5874872,-88.066,-0.318,168.216
9.0513,128.181347,37.943009,6967.3662024,-88.159,-0.345,168.067
9.0681,128.181352,37.942961,6967.1430887999995,-88.249,-0.371,167.918
9.0848,128.181357,37.942913,6966.9178416,-88.339,-0.398,167.77
9.1015,128.181363,37.942865,6966.691070400001,-88.428,-0.426,167.623
9.1182,128.181368,37.942817,6966.462165600001,-88.515,-0.454,167.475
9.1349,128.181374,37.942769,6966.2317368,-88.602,-0.481,167.328
9.1516,128.18138,37.942721,6965.998869600001,-88.688,-0.51,167.181
9.1683,128.181386,37.942673,6965.7644784,-88.773,-0.538,167.035
9.185,128.181392,37.942625,6965.5279536,-88.858,-0.567,166.889
9.2016,128.181398,37.942577,6965.2896,-88.942,-0.596,166.743
9.2183,128.181405,37.942529,6965.0488080000005,-89.025,-0.625,166.597
9.235,128.181411,37.942481,6964.806492000001,-89.108,-0.654,166.451
9.2518,128.181418,37.942433,6964.561737600001,-89.191,-0.683,166.305
9.2685,128.181425,37.942386,6964.3151544,-89.274,-0.712,166.16
9.2852,128.181432,37.942338,6964.0664376,-89.357,-0.741,166.014
9.3019,128.181439,37.94229,6963.815587200001,-89.439,-0.771,165.869
9.3186,128.181446,37.942242,6963.5626032,-89.521,-0.801,165.723
9.3353,128.181454,37.942194,6963.3077904,-89.602,-0.831,165.578
9.352,128.181462,37.942146,6963.0505392,-89.683,-0.862,165.433
9.3687,128.181469,37.942099,6962.7911544,-89.764,-0.894,165.288
9.3854,128.181477,37.942051,6962.529636,-89.845,-0.926,165.143
9.402,128.181485,37.942003,6962.265984000001,-89.928,-0.959,164.998
9.4187,128.181494,37.941956,6962.0001984,-90.014,-0.992,164.853
9.4355,128.181502,37.941908,6961.731974400001,-90.109,-1.027,164.708
9.4522,128.181511,37.94186,6961.4619216,-90.255,-1.067,164.563
9.4689,128.181519,37.941813,6961.1891256,-90.512,-1.106,164.431
9.4856,128.181528,37.941765,6960.913891200001,-90.879,-1.143,164.328
9.5023,128.181537,37.941717,6960.6362184,-91.354,-1.178,164.269
9.519,128.181546,37.94167,6960.355802399999,-91.926,-1.21,164.268
9.5357,128.181556,37.941622,6960.072948,-92.587,-1.239,164.337
9.5524,128.181565,37.941575,6959.7870456,-93.327,-1.262,164.49
9.5691,128.181575,37.941528,6959.4980952000005,-94.136,-1.279,164.71
9.5857,128.181585,37.94148,6959.2064016,-95.004,-1.291,164.977
9.6024,128.181595,37.941433,6958.911355200001,-95.92,-1.298,165.27
9.6192,128.181605,37.941385,6958.6123464,-96.726,-1.292,165.569
9.6359,128.181615,37.941338,6958.3099848,-97.425,-1.277,165.853
9.6526,128.181625,37.941291,6958.0045752,-98.019,-1.257,166.106
9.6693,128.181635,37.941243,6957.695812800001,-98.508,-1.237,166.312
9.686,128.181646,37.941196,6957.3840024,-98.893,-1.222,166.459
9.7027,128.181656,37.941149,6957.0688392,-99.179,-1.216,166.533
9.7194,128.181666,37.941101,6956.750628000001,-99.38,-1.222,166.523
9.7361,128.181677,37.941054,6956.429673600001,-99.512,-1.244,166.427
9.7528,128.181688,37.941007,6956.1053664,-99.586,-1.28,166.256
9.7694,128.181698,37.94096,6955.778316,-99.614,-1.329,166.022
9.7861,128.181709,37.940912,6955.4479128,-99.604,-1.388,165.733
9.8029,128.18172,37.940865,6955.1144616,-99.56,-1.457,165.402
9.8196,128.181731,37.940818,6954.7773528,-99.488,-1.53,165.043
9.8363,128.181742,37.940771,6954.437196000001,-99.391,-1.607,164.673
9.853,128.181753,37.940723,6954.093381600001,-99.271,-1.683,164.305
9.8697,128.181765,37.940676,6953.7462144,-99.129,-1.758,163.947
9.8864,128.181776,37.940629,6953.3953896,-98.966,-1.83,163.603
9.9031,128.181788,37.940582,6953.041212,-98.783,-1.898,163.275
9.9198,128.181799,37.940535,6952.683376800001,-98.58,-1.964,162.963
9.9365,128.181811,37.940488,6952.321884000001,-98.356,-2.026,162.666
9.9531,128.181823,37.940441,6951.957038400001,-98.112,-2.085,162.385
9.9698,128.181835,37.940394,6951.5885352000005,-97.847,-2.14,162.119
9.9865,128.181847,37.940347,6951.216679200001,-97.563,-2.192,161.865
10.0033,128.181859,37.9403,6950.841165600001,-97.273,-2.24,161.642
10.02,128.181871,37.940253,6950.4619944,-96.976,-2.281,161.466
10.0367,128.181884,37.940206,6950.0797752,-96.665,-2.313,161.352
10.0534,128.181896,37.940159,6949.6942032,-96.334,-2.334,161.316
10.0701,128.181909,37.940112,6949.305583200001,-95.98,-2.342,161.373
10.0868,128.181922,37.940065,6948.913915200001,-95.595,-2.34,161.525
10.1035,128.181934,37.940018,6948.519504,-95.174,-2.328,161.753
10.1202,128.181947,37.939971,6948.1220448,-94.711,-2.31,162.037
10.1368,128.18196,37.939924,6947.722147200001,-94.198,-2.289,162.359
10.1535,128.181973,37.939877,6947.319506400001,-93.628,-2.267,162.699
10.1702,128.181986,37.93983,6946.9144272,-92.99,-2.245,163.037
10.187,128.181999,37.939783,6946.5072144000005,-92.284,-2.226,163.356
10.2037,128.182013,37.939736,6946.0975632,-91.51,-2.209,163.64
10.2204,128.182026,37.939689,6945.6854736000005,-90.668,-2.197,163.889
10.2371,128.182039,37.939643,6945.271555200001,-89.763,-2.187,164.111
10.2538,128.182052,37.939596,6944.8564176,-89.005,-2.193,164.31
10.2705,128.182066,37.939549,6944.439146400001,-88.391,-2.213,164.493
10.2872,128.182079,37.939502,6944.0188272000005,-87.712,-2.23,164.655
10.3039,128.182092,37.939455,6943.596374400001,-86.975,-2.239,164.779
10.3205,128.182106,37.939408,6943.1720928,-86.177,-2.24,164.853
10.3372,128.182119,37.939361,6942.745677600001,-85.32,-2.236,164.865
10.3539,128.182133,37.939314,6942.3180432,-84.471,-2.229,164.807
10.3707,128.182147,37.939268,6941.8888848,-83.679,-2.222,164.672
10.3874,128.18216,37.939221,6941.4585072,-82.971,-2.211,164.455
10.4041,128.182174,37.939174,6941.0263008,-82.306,-2.192,164.163
10.4208,128.182188,37.939127,6940.59318,-81.709,-2.164,163.812
10.4375,128.182202,37.93908,6940.1591448,-81.194,-2.128,163.415
10.4542,128.182216,37.939033,6939.7241952,-80.764,-2.085,162.988
10.4709,128.18223,37.938987,6939.2883312,-80.416,-2.039,162.548
10.4876,128.182244,37.93894,6938.8521624,-80.144,-1.991,162.114
10.5042,128.182259,37.938893,6938.415384000001,-79.938,-1.944,161.705
10.5209,128.182273,37.938847,6937.9783008,-79.789,-1.9,161.326
10.5376,128.182288,37.9388,6937.5409128,-79.687,-1.859,160.976
10.5544,128.182302,37.938753,6937.103524800001,-79.615,-1.824,160.651
10.5711,128.182317,37.938707,6936.6664416,-79.565,-1.797,160.346
10.5878,128.182332,37.93866,6936.2290536,-79.535,-1.775,160.059
10.6045,128.182347,37.938614,6935.791665600001,-79.521,-1.759,159.786
10.6212,128.182363,37.938567,6935.3542776,-79.524,-1.746,159.527
10.6379,128.182378,37.938521,6934.9168896,-79.543,-1.736,159.281
10.6546,128.182394,37.938474,6934.479501600001,-79.574,-1.728,159.044
10.6713,128.182409,37.938428,6934.0421136,-79.617,-1.721,158.817
10.6879,128.182425,37.938381,6933.6047256,-79.669,-1.715,158.598
10.7046,128.182441,37.938335,6933.167337600001,-79.73,-1.711,158.387
10.7213,128.182457,37.938289,6932.7299496000005,-79.796,-1.707,158.182
10.7381,128.182473,37.938242,6932.2925616,-79.868,-1.705,157.984
10.7548,128.18249,37.938196,6931.855173600001,-79.944,-1.704,157.79
10.7715,128.182506,37.93815,6931.417785600001,-80.023,-1.704,157.602
10.7882,128.182523,37.938104,6930.980397600001,-80.104,-1.705,157.418
10.8049,128.182539,37.938058,6930.543009600001,-80.187,-1.706,157.238
10.8216,128.182556,37.938011,6930.1056216,-80.271,-1.708,157.061
10.8383,128.182573,37.937965,6929.6682336,-80.356,-1.712,156.888
10.855,128.182591,37.937919,6929.2305408,-80.441,-1.716,156.718
10.8717,128.182608,37.937873,6928.792848,-80.526,-1.72,156.551
10.8883,128.182625,37.937827,6928.355155200001,-80.611,-1.725,156.387
10.905,128.182643,37.937782,6927.9174624,-80.696,-1.731,156.225
10.9218,128.182661,37.937736,6927.479464800001,-80.781,-1.738,156.066
10.9385,128.182679,37.93769,6927.0414672,-80.865,-1.745,155.908
10.9552,128.182697,37.937644,6926.603164800001,-80.948,-1.752,155.752
10.9719,128.182715,37.937598,6926.1648624,-81.032,-1.759,155.597
10.9886,128.182733,37.937553,6925.7262552,-81.116,-1.766,155.444
11.0053,128.182751,37.937507,6925.2873432,-81.199,-1.773,155.293
11.022,128.18277,37.937461,6924.8481264,-81.283,-1.78,155.142
11.0387,128.182789,37.937416,6924.408909600001,-81.367,-1.787,154.993
11.0554,128.182808,37.93737,6923.969083200001,-81.45,-1.793,154.844
11.072,128.182827,37.937325,6923.529256800001,-81.534,-1.799,154.696
11.0887,128.182846,37.937279,6923.0891255999995,-81.617,-1.804,154.549
11.1054,128.182865,37.937234,6922.6486896,-81.701,-1.809,154.403
11.1222,128.182884,37.937188,6922.207644,-81.784,-1.814,154.257
11.1389,128.182904,37.937143,6921.7665984,-81.868,-1.819,154.111
11.1556,128.182924,37.937098,6921.3249432,-81.951,-1.823,153.967
11.1723,128.182943,37.937053,6920.882983200001,-82.035,-1.827,153.822
11.189,128.182963,37.937007,6920.4404136,-82.119,-1.831,153.678
11.2057,128.182984,37.936962,6919.997844,-82.202,-1.835,153.534
11.2224,128.183004,37.936917,6919.554360000001,-82.286,-1.838,153.39
11.2391,128.183024,37.936872,6919.110876,-82.37,-1.84,153.246
11.2557,128.183045,37.936827,6918.666477600001,-82.454,-1.843,153.103
11.2724,128.183065,37.936782,6918.222079200001,-82.538,-1.845,152.96
11.2891,128.183086,37.936737,6917.7767664,-82.622,-1.847,152.817
11.3059,128.183107,37.936693,6917.3311488,-82.705,-1.849,152.674
11.3226,128.183128,37.936648,6916.8849216,-82.789,-1.85,152.532
11.3393,128.183149,37.936603,6916.4380848,-82.871,-1.851,152.389
11.356,128.183171,37.936558,6915.9909431999995,-82.953,-1.853,152.247
11.3727,128.183192,37.936514,6915.543192000001,-83.033,-1.855,152.104
11.3894,128.183214,37.936469,6915.0948312,-83.112,-1.857,151.962
11.4061,128.183235,37.936424,6914.645860800001,-83.189,-1.86,151.82
11.4228,128.183257,37.93638,6914.1962808,-83.266,-1.863,151.677
11.4394,128.183279,37.936335,6913.746091200001,-83.34,-1.866,151.535
11.4561,128.183301,37.936291,6913.294987200001,-83.414,-1.87,151.392
11.4728,128.183324,37.936247,6912.8435784,-83.485,-1.874,151.25
11.4896,128.183346,37.936202,6912.391560000001,-83.555,-1.878,151.108
11.5063,128.183369,37.936158,6911.9386272,-83.622,-1.882,150.966
11.523,128.183391,37.936114,6911.4850848,-83.687,-1.887,150.823
11.5397,128.183414,37.93607,6911.0309328,-83.75,-1.892,150.681
11.5564,128.183437,37.936025,6910.5758663999995,-83.81,-1.897,150.539
11.5731,128.18346,37.935981,6910.1201904,-83.867,-1.902,150.397
11.5898,128.183483,37.935937,6909.663904800001,-83.922,-1.908,150.255
11.6065,128.183507,37.935893,6909.206704800001,-83.973,-1.913,150.113
11.6231,128.18353,37.935849,6908.7485904000005,-84.02,-1.919,149.971
11.6398,128.183554,37.935806,6908.2898663999995,-84.065,-1.925,149.83
11.6565,128.183578,37.935762,6907.830228000001,-84.105,-1.932,149.688
11.6733,128.183601,37.935718,6907.3699799999995,-84.142,-1.938,149.547
11.69,128.183625,37.935674,6906.9088176000005,-84.174,-1.944,149.405
11.7067,128.18365,37.935631,6906.447045600001,-84.203,-1.951,149.264
11.7234,128.183674,37.935587,6905.9840544,-84.228,-1.958,149.123
11.7401,128.183698,37.935543,6905.5207584,-84.249,-1.965,148.982
11.7568,128.183723,37.9355,6905.0562432,-84.266,-1.972,148.841
11.7735,128.183747,37.935457,6904.591118400001,-84.279,-1.979,148.7
11.7902,128.183772,37.935413,6904.125079200001,-84.288,-1.986,148.56
11.8068,128.183797,37.93537,6903.6581256,-84.293,-1.993,148.419
11.8235,128.183822,37.935327,6903.1902576,-84.295,-2.0,148.279
11.8402,128.183847,37.935283,6902.72178,-84.294,-2.008,148.139
11.857,128.183873,37.93524,6902.252388000001,-84.289,-2.015,147.999
11.8737,128.183898,37.935197,6901.7823864,-84.282,-2.023,147.859
11.8904,128.183924,37.935154,6901.311165600001,-84.272,-2.03,147.72
11.9071,128.183949,37.935111,6900.8393352,-84.26,-2.038,147.58
11.9238,128.183975,37.935068,6900.3665904,-84.245,-2.045,147.441
11.9405,128.184001,37.935025,6899.893236,-84.229,-2.053,147.302
11.9572,128.184027,37.934982,6899.4189672,-84.211,-2.061,147.162
11.9739,128.184053,37.934939,6898.943784000001,-84.192,-2.068,147.023
11.9905,128.18408,37.934897,6898.4679912,-84.172,-2.076,146.885
12.0072,128.184106,37.934854,6897.991284000001,-84.151,-2.084,146.746
12.0239,128.184133,37.934811,6897.5136624,-84.13,-2.091,146.607
12.0407,128.184159,37.934769,6897.0354312,-84.108,-2.099,146.469
12.0574,128.184186,37.934726,6896.556285600001,-84.086,-2.107,146.33
12.0741,128.184213,37.934684,6896.0765304,-84.064,-2.115,146.192
12.0908,128.18424,37.934641,6895.595860800001,-84.042,-2.122,146.053
12.1075,128.184268,37.934599,6895.114581600001,-84.02,-2.13,145.915
12.1242,128.184295,37.934557,6894.632388000001,-83.999,-2.138,145.776
12.1409,128.184322,37.934515,6894.14928,-83.978,-2.145,145.638
12.1576,128.18435,37.934472,6893.6658672,-83.958,-2.153,145.5
12.1743,128.184378,37.93443,6893.1812352,-83.939,-2.16,145.362
12.1909,128.184406,37.934388,6892.6959936,-83.92,-2.168,145.224
12.2076,128.184434,37.934346,6892.210142400001,-83.901,-2.175,145.085
12.2243,128.184462,37.934304,6891.723376800001,-83.884,-2.183,144.947
12.2411,128.18449,37.934263,6891.236611200001,-83.875,-2.195,144.809
12.2578,128.184518,37.934221,6890.7489312,-83.876,-2.212,144.67
12.2745,128.184547,37.934179,6890.260641600001,-83.887,-2.232,144.53
12.2912,128.184575,37.934137,6889.771742400001,-83.91,-2.254,144.391
12.3079,128.184604,37.934096,6889.282233600001,-83.944,-2.276,144.251
12.3246,128.184633,37.934054,6888.791810400001,-83.988,-2.298,144.11
12.3413,128.184662,37.934013,6888.3004728000005,-84.043,-2.32,143.97
12.358,128.184691,37.933971,6887.8082208,-84.105,-2.341,143.829
12.3746,128.184721,37.93393,6887.315359200001,-84.175,-2.362,143.688
12.3913,128.18475,37.933888,6886.8215832000005,-84.252,-2.382,143.547
12.408,128.184779,37.933847,6886.326892800001,-84.334,-2.4,143.405
12.4248,128.184809,37.933806,6885.831288,-84.42,-2.418,143.263
12.4415,128.184839,37.933765,6885.3347688,-84.51,-2.435,143.121
12.4582,128.184869,37.933724,6884.8373352,-84.604,-2.451,142.979
12.4749,128.184899,37.933683,6884.338987200001,-84.7,-2.467,142.837
12.4916,128.184929,37.933642,6883.839420000001,-84.798,-2.481,142.694
12.5083,128.184959,37.933601,6883.3392432,-84.898,-2.494,142.552
12.525,128.18499,37.93356,6882.8375424000005,-84.998,-2.507,142.409
12.5417,128.18502,37.933519,6882.335232,-85.098,-2.519,142.266
12.5583,128.185051,37.933479,6881.8317024,-85.197,-2.531,142.123
12.575,128.185082,37.933438,6881.3269536,-85.295,-2.543,141.981
12.5917,128.185113,37.933397,6880.8212904,-85.39,-2.555,141.838
12.6085,128.185144,37.933357,6880.314408,-85.482,-2.568,141.695
12.6252,128.185175,37.933316,6879.806611200001,-85.572,-2.58,141.552
12.6419,128.185206,37.933276,6879.297595200001,-85.658,-2.593,141.408
12.6586,128.185238,37.933236,6878.78736,-85.741,-2.606,141.265
12.6753,128.185269,37.933195,6878.2759056,-85.82,-2.62,141.122
12.692,128.185301,37.933155,6877.763232,-85.894,-2.633,140.979
12.7087,128.185333,37.933115,6877.249644,-85.964,-2.647,140.836
12.7254,128.185364,37.933075,6876.734532,-86.029,-2.66,140.693
12.742,128.185396,37.933035,6876.218200800001,-86.088,-2.674,140.55
12.7587,128.185429,37.932995,6875.7006504,-86.141,-2.688,140.408
12.7754,128.185461,37.932955,6875.1818808,-86.188,-2.702,140.265
12.7922,128.185493,37.932915,6874.661892000001,-86.229,-2.716,140.123
12.8089,128.185526,37.932875,6874.140684000001,-86.263,-2.73,139.98
12.8256,128.185558,37.932836,6873.6179520000005,-86.291,-2.744,139.838
12.8423,128.185591,37.932796,6873.094000800001,-86.311,-2.758,139.696
12.859,128.185624,37.932757,6872.5688304,-86.325,-2.772,139.555
12.8757,128.185657,37.932717,6872.0424408,-86.332,-2.787,139.413
12.8924,128.18569,37.932678,6871.5145272,-86.333,-2.801,139.272
12.9091,128.185723,37.932638,6870.9853944,-86.328,-2.815,139.131
12.9257,128.185756,37.932599,6870.455042400001,-86.317,-2.829,138.99
12.9424,128.18579,37.93256,6869.9234712,-86.301,-2.844,138.85
12.9591,128.185823,37.932521,6869.390376,-86.281,-2.858,138.709
12.9759,128.185857,37.932481,6868.8563664,-86.257,-2.872,138.569
12.9926,128.185891,37.932442,6868.320832800001,-86.23,-2.887,138.429
13.0093,128.185925,37.932403,6867.7837752,-86.2,-2.901,138.289
13.026,128.185959,37.932364,6867.2458032,-86.168,-2.916,138.15
13.0427,128.185993,37.932326,6866.706612,-86.135,-2.93,138.01
13.0594,128.186027,37.932287,6866.165896800001,-86.102,-2.945,137.871
13.0761,128.186062,37.932248,6865.6239624,-86.068,-2.959,137.732
13.0928,128.186096,37.93221,6865.082028000001,-86.077,-2.983,137.592
13.1095,128.186131,37.932171,6864.538874400001,-86.128,-3.017,137.452
13.1262,128.186166,37.932132,6863.994806400001,-86.222,-3.057,137.311
13.1429,128.1862,37.932094,6863.4492144000005,-86.357,-3.1,137.169
13.1596,128.186235,37.932056,6862.9027080000005,-86.53,-3.145,137.027
13.1763,128.186271,37.932018,6862.3546776,-86.737,-3.189,136.884
13.193,128.186306,37.931979,6861.805428000001,-86.974,-3.233,136.741
13.2097,128.186341,37.931941,6861.2543496,-87.235,-3.277,136.596
13.2264,128.186377,37.931903,6860.702052000001,-87.514,-3.321,136.451
13.2431,128.186412,37.931865,6860.1482304,-87.808,-3.364,136.305
13.2598,128.186448,37.931827,6859.5925799999995,-88.113,-3.407,136.158
13.2765,128.186484,37.93179,6859.035405600001,-88.424,-3.45,136.01
13.2932,128.18652,37.931752,6858.4764024,-88.738,-3.494,135.861
13.3099,128.186556,37.931714,6857.915265600001,-89.054,-3.537,135.712
13.3266,128.186592,37.931677,6857.3526048,-89.368,-3.582,135.562
13.3433,128.186629,37.931639,6856.787810400001,-89.679,-3.626,135.412
13.36,128.186665,37.931602,6856.220882400001,-89.986,-3.672,135.261
13.3767,128.186702,37.931564,6855.6518208,-90.287,-3.718,135.11
13.3934,128.186738,37.931527,6855.0806256,-90.582,-3.765,134.959
13.4101,128.186775,37.93149,6854.5072968,-90.87,-3.812,134.808
13.4268,128.186812,37.931453,6853.9315295999995,-91.15,-3.861,134.656
13.4435,128.186849,37.931416,6853.353324000001,-91.423,-3.91,134.505
13.4602,128.186886,37.931379,6852.7729848,-91.688,-3.96,134.354
13.4769,128.186923,37.931342,6852.1899023999995,-91.945,-4.01,134.203
13.4936,128.186961,37.931305,6851.6043816,-92.195,-4.062,134.052
13.5103,128.186998,37.931268,6851.0164224,-92.437,-4.114,133.902
13.527,128.187036,37.931231,6850.425720000001,-92.671,-4.167,133.752
13.5437,128.187073,37.931195,6849.832274400001,-92.899,-4.22,133.601
13.5604,128.187111,37.931158,6849.2360856000005,-93.12,-4.274,133.452
13.5771,128.187149,37.931122,6848.6371536,-93.335,-4.329,133.302
13.5938,128.187187,37.931085,6848.035478400001,-93.544,-4.384,133.153
13.6105,128.187225,37.931049,6847.430755200001,-93.747,-4.44,133.004
13.6272,128.187263,37.931013,6846.8232888,-93.945,-4.497,132.856
13.6439,128.187302,37.930976,6846.212774400001,-94.138,-4.554,132.707
13.6606,128.18734,37.93094,6845.599212,-94.325,-4.611,132.559
13.6773,128.187379,37.930904,6844.982601600001,-94.508,-4.669,132.412
13.694,128.187417,37.930868,6844.3629432,-94.687,-4.728,132.264
13.7107,128.187456,37.930833,6843.739932,-94.862,-4.787,132.117
13.7274,128.187495,37.930797,6843.1138728000005,-95.033,-4.846,131.97
13.7441,128.187534,37.930761,6842.484460800001,-95.201,-4.906,131.824
13.7608,128.187573,37.930725,6841.8520008000005,-95.365,-4.966,131.677
13.7775,128.187612,37.93069,6841.216188,-95.526,-5.026,131.531
13.7942,128.187651,37.930654,6840.577022400001,-95.685,-5.087,131.386
13.8109,128.187691,37.930619,6839.934504,-95.84,-5.148,131.24
13.8276,128.18773,37.930584,6839.288328000001,-95.992,-5.209,131.095
13.8443,128.18777,37.930548,6838.639104,-96.143,-5.271,130.949
13.861,128.18781,37.930513,6837.9859176,-96.29,-5.333,130.804
13.8777,128.18785,37.930478,6837.3296832000005,-96.436,-5.396,130.66
13.8944,128.187889,37.930443,6836.6694864,-96.579,-5.458,130.515
13.9111,128.18793,37.930408,6836.0059368,-96.721,-5.521,130.371
13.9278,128.18797,37.930373,6835.3387296,-96.86,-5.584,130.226
13.9445,128.18801,37.930339,6834.667864800001,-96.997,-5.648,130.082
13.9612,128.18805,37.930304,6833.993342400001,-97.133,-5.711,129.938
13.9779,128.188091,37.930269,6833.3148576,-97.267,-5.775,129.795
13.9946,128.188131,37.930235,6832.6327152,-97.4,-5.839,129.651
14.0113,128.188172,37.9302,6831.946915200001,-97.531,-5.904,129.508
14.028,128.188213,37.930166,6831.2571528,-97.66,-5.968,129.364
14.0447,128.188254,37.930132,6830.5637328,-97.788,-6.033,129.221
14.0614,128.188295,37.930097,6829.866350400001,-97.915,-6.098,129.078
14.0781,128.188336,37.930063,6829.165005600001,-98.04,-6.163,128.935
14.0948,128.188377,37.930029,6828.4596984,-98.164,-6.229,128.792
14.1115,128.188418,37.929995,6827.750428800001,-98.287,-6.294,128.649
14.1282,128.188459,37.929962,6827.036892000001,-98.409,-6.36,128.507
14.1449,128.188501,37.929928,6826.319697600001,-98.53,-6.425,128.364
14.1616,128.188542,37.929894,6825.598236,-98.651,-6.491,128.221
14.1783,128.188584,37.92986,6824.872812,-98.77,-6.556,128.079
14.195,128.188626,37.929827,6824.143120799999,-98.889,-6.621,127.936
14.2117,128.188668,37.929793,6823.4091624,-99.008,-6.687,127.794
14.2284,128.18871,37.92976,6822.671241600001,-99.125,-6.752,127.652
14.2451,128.188752,37.929727,6821.9287488,-99.242,-6.817,127.509
14.2618,128.188794,37.929694,6821.1822936,-99.358,-6.882,127.367
14.2785,128.188836,37.92966,6820.4315712,-99.473,-6.947,127.225
14.2952,128.188879,37.929627,6819.676581600001,-99.588,-7.011,127.082
14.3119,128.188921,37.929595,6818.917324800001,-99.702,-7.076,126.94
14.3286,128.188964,37.929562,6818.153496000001,-99.815,-7.141,126.798
14.3453,128.189006,37.929529,6817.3854,-99.928,-7.205,126.656
14.362,128.189049,37.929496,6816.6127320000005,-100.039,-7.27,126.514
14.3787,128.189092,37.929464,6815.835796800001,-100.151,-7.334,126.371
14.3954,128.189135,37.929431,6815.0542896,-100.262,-7.399,126.229
14.4121,128.189178,37.929399,6814.2685152,-100.372,-7.463,126.087
14.4288,128.189221,37.929366,6813.4781688,-100.482,-7.528,125.945
14.4455,128.189264,37.929334,6812.6829456000005,-100.591,-7.592,125.803
14.4622,128.189307,37.929302,6811.883455200001,-100.7,-7.656,125.661
14.4789,128.189351,37.92927,6811.079392800001,-100.808,-7.721,125.519
14.4956,128.189394,37.929238,6810.2707584,-100.916,-7.785,125.376
14.5123,128.189438,37.929206,6809.457552000001,-101.024,-7.849,125.234
14.529,128.189482,37.929174,6808.639468800001,-101.131,-7.913,125.092
14.5457,128.189525,37.929142,6807.8168136,-101.238,-7.977,124.95
14.5624,128.189569,37.929111,6806.9892816,-101.345,-8.042,124.808
14.5791,128.189613,37.929079,6806.1571776,-101.451,-8.106,124.666
14.5958,128.189657,37.929048,6805.3201968,-101.558,-8.17,124.524
14.6125,128.189701,37.929016,6804.478644,-101.664,-8.234,124.381
14.6292,128.189746,37.928985,6803.6322144000005,-101.77,-8.298,124.239
14.6459,128.18979,37.928954,6802.780908,-101.876,-8.362,124.097
14.6626,128.189834,37.928923,6801.924724800001,-101.981,-8.426,123.955
14.6793,128.189879,37.928892,6801.063664800001,-102.086,-8.491,123.813
14.696,128.189924,37.928861,6800.198032800001,-102.192,-8.555,123.67
14.7127,128.189968,37.92883,6799.3272192,-102.296,-8.619,123.528
14.7294,128.190013,37.928799,6798.451224,-102.401,-8.683,123.386
14.7461,128.190058,37.928769,6797.5706568000005,-102.506,-8.747,123.243
14.7628,128.190103,37.928738,6796.684908,-102.61,-8.811,123.101
14.7795,128.190148,37.928708,6795.794587200001,-102.711,-8.88,122.96
14.7962,128.190193,37.928677,6794.8993896,-102.808,-8.952,122.819
14.8129,128.190238,37.928647,6793.999010400001,-102.904,-9.028,122.679
14.8296,128.190284,37.928617,6793.0934496,-103.001,-9.105,122.54
14.8463,128.190329,37.928587,6792.1827072,-103.1,-9.183,122.4
14.863,128.190374,37.928557,6791.2670880000005,-103.202,-9.262,122.261
14.8797,128.19042,37.928527,6790.346287200001,-103.306,-9.341,122.122
14.8964,128.190466,37.928497,6789.420304800001,-103.413,-9.42,121.982
14.9131,128.190511,37.928467,6788.488836,-103.522,-9.5,121.843
14.9298,128.190557,37.928438,6787.5524904,-103.632,-9.579,121.703
14.9465,128.190603,37.928408,6786.6106584,-103.744,-9.658,121.564
14.9632,128.190649,37.928379,6785.6636448,-103.857,-9.738,121.424
14.9799,128.190695,37.928349,6784.7111448000005,-103.97,-9.818,121.285
14.9966,128.190741,37.92832,6783.753463200001,-104.084,-9.898,121.145
15.0133,128.190788,37.928291,6782.7902952,-104.197,-9.978,121.006
15.03,128.190834,37.928262,6781.821640800001,-104.311,-10.058,120.866
15.0467,128.19088,37.928233,6780.847804800001,-104.425,-10.138,120.727
15.0634,128.190927,37.928204,6779.8684824,-104.539,-10.219,120.587
15.0801,128.190973,37.928175,6778.8836736,-104.652,-10.299,120.448
15.0968,128.19102,37.928147,6777.8930736,-104.765,-10.38,120.308
15.1135,128.191067,37.928118,6776.897292000001,-104.878,-10.461,120.169
15.1302,128.191113,37.928089,6775.895719200001,-104.99,-10.543,120.029
15.1469,128.19116,37.928061,6774.8886600000005,-105.102,-10.624,119.89
15.1636,128.191207,37.928033,6773.876114400001,-105.213,-10.706,119.751
15.1803,128.191254,37.928004,6772.8577776,-105.324,-10.788,119.611
15.197,128.191301,37.927976,6771.8336496,-105.435,-10.87,119.472
15.2137,128.191349,37.927948,6770.8040352,-105.545,-10.952,119.333
15.2304,128.191396,37.92792,6769.7686296,-105.654,-11.035,119.194
15.2471,128.191443,37.927892,6768.7274328,-105.763,-11.117,119.055
15.2638,128.191491,37.927865,6767.6807496,-105.871,-11.2,118.916
15.2805,128.191538,37.927837,6766.627970400001,-105.978,-11.283,118.777
15.2972,128.191586,37.92781,6765.5694,-106.085,-11.367,118.638
