Time,Longitude,Latitude,Altitude,Roll (deg),Pitch (deg),Yaw (deg)
0.0,128.181881,37.923646,7000.146528,0.0,-0.003,0.0
0.0167,128.181881,37.923691,7000.1605488000005,0.0,-0.012,0.0
0.0334,128.181881,37.923736,7000.1733504,0.087,-0.013,0.011
0.0501,128.181881,37.923781,7000.1843232,0.258,0.007,0.034
0.0668,128.181881,37.923826,7000.1940768,0.516,0.063,0.064
0.0834,128.181881,37.92387,7000.20444,0.69,0.166,0.076
0.1002,128.181881,37.923915,7000.2157176,0.783,0.328,0.067
0.1169,128.181881,37.92396,7000.228519200001,0.79,0.557,0.045
0.1336,128.181881,37.924005,7000.2443688,0.702,0.86,0.017
0.1503,128.181881,37.92405,7000.263876,0.519,1.239,359.985
0.1669,128.181881,37.924095,7000.2876504000005,0.239,1.681,359.951
0.1837,128.181881,37.92414,7000.314472800001,0.04,2.173,359.94
0.2004,128.181881,37.924185,7000.3452576,-0.081,2.703,359.951
0.2171,128.181881,37.92423,7000.3800048,-0.116,3.251,359.976
0.2338,128.181881,37.924275,7000.418714400001,-0.058,3.803,0.008
0.2505,128.181881,37.92432,7000.4616912,0.095,4.34,0.045
0.2672,128.181881,37.924365,7000.5089352,0.344,4.847,0.083
0.2839,128.181881,37.92441,7000.5622752,0.514,5.32,0.1
0.3006,128.181881,37.924455,7000.6223208,0.609,5.762,0.095
0.3172,128.181881,37.9245,7000.6896816,0.619,6.175,0.076
0.3339,128.181881,37.924545,7000.765272000001,0.539,6.562,0.049
0.3507,128.181881,37.92459,7000.849701600001,0.369,6.924,0.017
0.3674,128.181881,37.924635,7000.9432752,0.109,7.265,359.983
0.3841,128.181881,37.92468,7001.044773600001,-0.074,7.586,359.97
0.4008,128.181881,37.924724,7001.155111200001,-0.183,7.888,359.977
0.4175,128.181881,37.924769,7001.272764,-0.212,8.158,359.997
0.4342,128.181881,37.924814,7001.3980368,-0.156,8.38,0.026
0.4509,128.181881,37.924859,7001.529710400001,-0.012,8.541,0.06
0.4676,128.181881,37.924904,7001.6677848,0.217,8.625,0.095
0.4843,128.181881,37.924949,7001.8140888,0.373,8.649,0.109
0.501,128.181881,37.924994,7001.967708,0.458,8.626,0.103
0.5176,128.181881,37.925039,7002.1295568000005,0.465,8.573,0.083
0.5344,128.181881,37.925084,7002.2996352,0.389,8.504,0.055
0.5511,128.181881,37.925129,7002.478247999999,0.227,8.434,0.022
0.5678,128.181881,37.925174,7002.6657000000005,-0.02,8.377,359.986
0.5845,128.181881,37.925218,7002.862905600001,-0.355,8.346,359.95
0.6012,128.181881,37.925263,7003.0674264,-0.61,8.353,359.934
0.6179,128.181881,37.925308,7003.279872,-0.79,8.386,359.939
0.6345,128.181881,37.925353,7003.499023200001,-0.886,8.435,359.958
0.6513,128.181881,37.925398,7003.72488,-0.895,8.486,359.986
0.6679,128.181881,37.925443,7003.9598808,-0.977,8.552,359.996
0.6847,128.181881,37.925488,7004.2031112,-1.128,8.645,359.986
0.7014,128.181881,37.925532,7004.4554856,-1.353,8.775,359.963
0.7181,128.181881,37.925577,7004.717918400001,-1.658,8.946,359.929
0.7348,128.181881,37.925622,7004.9898,-2.044,9.148,359.889
0.7514,128.181881,37.925667,7005.272654400001,-2.512,9.375,359.845
0.7682,128.181881,37.925711,7005.5661768,-3.06,9.619,359.797
0.7848,128.181881,37.925756,7005.871281600001,-3.685,9.872,359.747
0.8016,128.181881,37.925801,7006.188273600001,-4.386,10.129,359.693
0.8183,128.181881,37.925846,7006.516543199999,-5.16,10.387,359.637
0.835,128.181881,37.92589,7006.8567,-6.004,10.642,359.577
0.8517,128.181881,37.925935,7007.2084392,-6.915,10.893,359.514
0.8684,128.181881,37.925979,7007.572370400001,-7.89,11.138,359.447
0.8851,128.181881,37.926024,7007.9481888,-8.928,11.376,359.377
0.9018,128.181881,37.926069,7008.3361992,-10.027,11.608,359.302
0.9185,128.181881,37.926113,7008.7360968,-11.184,11.833,359.222
0.9352,128.18188,37.926158,7009.1478816,-12.397,12.052,359.138
0.9519,128.18188,37.926202,7009.5721632,-13.666,12.263,359.049
0.9686,128.18188,37.926247,7010.008332,-14.988,12.468,358.954
0.9853,128.18188,37.926291,7010.4563880000005,-16.363,12.667,358.854
1.002,128.181879,37.926336,7010.916636,-17.789,12.86,358.749
1.0187,128.181879,37.92638,7011.3884664,-19.265,13.046,358.637
1.0353,128.181878,37.926425,7011.8724888,-20.79,13.227,358.519
1.0521,128.181878,37.926469,7012.3680936,-22.364,13.402,358.395
1.0688,128.181877,37.926513,7012.8752808,-23.986,13.571,358.265
1.0855,128.181877,37.926558,7013.3940504,-25.655,13.735,358.127
1.1022,128.181876,37.926602,7013.923792800001,-27.37,13.894,357.983
1.1189,128.181875,37.926646,7014.4648128,-29.132,14.047,357.831
1.1356,128.181875,37.92669,7015.0165008,-30.939,14.195,357.672
1.1522,128.181874,37.926735,7015.5791616,-32.792,14.337,357.505
1.169,128.181873,37.926779,7016.1518808,-34.69,14.473,357.331
1.1857,128.181871,37.926823,7016.7349632000005,-36.632,14.603,357.149
1.2024,128.18187,37.926867,7017.3277992,-38.62,14.728,356.958
1.2191,128.181869,37.926911,7017.9300840000005,-40.651,14.846,356.759
1.2358,128.181868,37.926955,7018.5415128,-42.728,14.958,356.551
1.2525,128.181866,37.926999,7019.1617808,-44.848,15.062,356.335
1.2691,128.181865,37.927044,7019.790278400001,-47.013,15.16,356.111
1.2859,128.181863,37.927088,7020.4270056000005,-49.223,15.25,355.877
1.3026,128.181861,37.927132,7021.0716576,-51.476,15.331,355.635
1.3193,128.181859,37.927176,7021.723015200001,-53.775,15.405,355.384
1.3359,128.181857,37.927219,7022.3813832000005,-56.117,15.469,355.124
1.3527,128.181855,37.927263,7023.046152000001,-58.505,15.523,354.856
1.3694,128.181852,37.927307,7023.716712,-60.937,15.568,354.579
1.386,128.18185,37.927351,7024.3924536,-63.414,15.601,354.293
1.4028,128.181847,37.927395,7025.073072,-65.937,15.622,353.999
1.4195,128.181845,37.927439,7025.7579576,-68.506,15.631,353.697
1.4362,128.181842,37.927483,7026.446500800001,-71.12,15.626,353.387
1.4528,128.181839,37.927526,7027.138396800001,-73.779,15.606,353.069
1.4696,128.181836,37.92757,7027.8327312,-76.482,15.57,352.743
1.4863,128.181832,37.927614,7028.529504,-79.228,15.515,352.412
1.5029,128.181829,37.927658,7029.227496,-82.018,15.442,352.073
1.5197,128.181825,37.927701,7029.9267072,-84.85,15.348,351.73
1.5364,128.181822,37.927745,7030.626528000001,-87.723,15.233,351.383
1.5531,128.181818,37.927789,7031.3257392,-90.637,15.095,351.033
1.5697,128.181814,37.927832,7032.0246456,-93.592,14.933,350.682
1.5865,128.18181,37.927876,7032.722028,-96.585,14.747,350.33
1.6032,128.181806,37.92792,7033.417581600001,-99.617,14.535,349.981
1.6198,128.181801,37.927963,7034.1103920000005,-102.686,14.299,349.636
1.6366,128.181797,37.928007,7034.800459200001,-105.788,14.04,349.308
1.6533,128.181792,37.92805,7035.486868800001,-108.921,13.762,349.011
1.67,128.181787,37.928094,7036.1696208,-112.079,13.472,348.758
1.6867,128.181782,37.928137,7036.848105600001,-115.256,13.178,348.559
1.7034,128.181777,37.928181,7037.522323200001,-118.448,12.89,348.426
1.7201,128.181772,37.928225,7038.191664000001,-121.651,12.616,348.366
1.7368,128.181767,37.928268,7038.8564328,-124.861,12.37,348.387
1.7535,128.181762,37.928312,7039.5166296,-128.079,12.152,348.479
1.7702,128.181756,37.928355,7040.1719496000005,-131.31,11.958,348.625
1.7869,128.181751,37.928399,7040.822392800001,-134.554,11.782,348.81
1.8036,128.181746,37.928442,7041.4679592,-137.814,11.615,349.022
1.8203,128.18174,37.928486,7042.1089536,-141.092,11.451,349.248
1.837,128.181735,37.928529,7042.745376,-144.387,11.287,349.485
1.8537,128.181729,37.928573,7043.3772264,-147.698,11.122,349.729
1.8704,128.181723,37.928617,7044.005114400001,-151.027,10.958,349.978
1.8871,128.181718,37.92866,7044.6287352,-154.374,10.796,350.232
1.9038,128.181712,37.928704,7045.2486984,-157.74,10.637,350.488
1.9205,128.181706,37.928747,7045.8646992,-161.124,10.476,350.741
1.9372,128.181701,37.928791,7046.477042400001,-164.524,10.304,350.989
1.9539,128.181695,37.928834,7047.085728000001,-167.939,10.119,351.23
1.9706,128.181689,37.928878,7047.690451200001,-171.364,9.917,351.462
1.9873,128.181683,37.928922,7048.2915168,-174.797,9.695,351.685
2.004,128.181678,37.928965,7048.888620000001,-178.234,9.453,351.9
2.0207,128.181672,37.929009,7049.481760800001,178.327,9.189,352.106
2.0374,128.181666,37.929052,7050.0703296,174.892,8.904,352.305
2.0541,128.18166,37.929096,7050.6543264,171.463,8.596,352.497
2.0707,128.181655,37.929139,7051.2334464000005,168.043,8.265,352.683
2.0875,128.181649,37.929183,7051.80708,164.633,7.911,352.863
2.1042,128.181643,37.929227,7052.3752272,161.237,7.54,353.037
2.1208,128.181637,37.92927,7052.937278400001,157.859,7.156,353.208
2.1376,128.181632,37.929314,7053.4929288,154.518,6.767,353.382
2.1543,128.181626,37.929358,7054.0418736,151.225,6.382,353.565
2.171,128.18162,37.929401,7054.5841128,148.029,5.996,353.764
2.1877,128.181615,37.929445,7055.120256000001,144.976,5.611,353.977
2.2044,128.181609,37.929489,7055.6499984,142.104,5.235,354.202
2.2211,128.181603,37.929532,7056.17334,139.441,4.871,354.434
2.2378,128.181598,37.929576,7056.6908904,136.984,4.526,354.67
2.2544,128.181592,37.92962,7057.2023448,134.728,4.208,354.906
2.2712,128.181586,37.929663,7057.7083128,132.666,3.919,355.137
2.2879,128.181581,37.929707,7058.2087944,130.79,3.663,355.36
2.3045,128.181575,37.929751,7058.7037896,129.09,3.438,355.571
2.3213,128.18157,37.929795,7059.193908,127.559,3.244,355.768
2.338,128.181564,37.929839,7059.6791496000005,126.186,3.078,355.949
2.3546,128.181559,37.929882,7060.160124000001,124.963,2.941,356.11
2.3714,128.181553,37.929926,7060.637136,123.88,2.833,356.242
2.3881,128.181548,37.92997,7061.1101856000005,122.928,2.753,356.342
2.4048,128.181543,37.930014,7061.579272800001,122.102,2.7,356.409
2.4215,128.181537,37.930058,7062.044397600001,121.392,2.668,356.443
2.4382,128.181532,37.930102,7062.5061696,120.79,2.653,356.448
2.4549,128.181526,37.930146,7062.964284000001,120.29,2.649,356.427
2.4716,128.181521,37.93019,7063.418740800001,119.889,2.654,356.388
2.4882,128.181516,37.930233,7063.86954,119.586,2.663,356.335
2.505,128.18151,37.930277,7064.3166816,119.378,2.676,356.273
2.5217,128.181505,37.930321,7064.7604704000005,119.263,2.69,356.208
2.5383,128.1815,37.930365,7065.2006016000005,119.238,2.704,356.142
2.5551,128.181494,37.930409,7065.63738,119.301,2.716,356.079
2.5718,128.181489,37.930453,7066.0708056,119.449,2.725,356.021
2.5884,128.181484,37.930497,7066.5005736,119.679,2.731,355.97
2.6052,128.181478,37.930542,7066.9269888,119.989,2.73,355.929
2.6219,128.181473,37.930586,7067.350051200001,120.377,2.723,355.901
2.6386,128.181468,37.93063,7067.769760800001,120.84,2.708,355.885
2.6553,128.181462,37.930674,7068.1858128,121.376,2.686,355.881
2.6719,128.181457,37.930718,7068.598512,121.982,2.656,355.889
2.6887,128.181452,37.930762,7069.0078584,122.657,2.619,355.909
2.7054,128.181447,37.930806,7069.413852000001,123.397,2.574,355.94
2.722,128.181441,37.93085,7069.815883200001,124.202,2.522,355.982
2.7388,128.181436,37.930894,7070.2145616,125.068,2.46,356.035
2.7555,128.181431,37.930939,7070.6095824,125.995,2.391,356.097
2.7721,128.181426,37.930983,7071.0006408,126.979,2.312,356.17
2.7889,128.181421,37.931027,7071.3880416,128.02,2.224,356.252
2.8056,128.181415,37.931071,7071.77148,129.115,2.127,356.342
2.8222,128.18141,37.931116,7072.1506512000005,130.262,2.019,356.441
2.839,128.181405,37.93116,7072.525555200001,131.461,1.902,356.548
2.8557,128.1814,37.931204,7072.896192000001,132.709,1.773,356.661
2.8724,128.181395,37.931248,7073.262256800001,134.005,1.633,356.782
2.8891,128.18139,37.931293,7073.6234448000005,135.348,1.482,356.907
2.9057,128.181385,37.931337,7073.9800608000005,136.736,1.319,357.037
2.9225,128.18138,37.931381,7074.330276,138.155,1.146,357.17
2.9392,128.181375,37.931426,7074.6747000000005,139.59,0.963,357.307
2.9558,128.18137,37.93147,7075.012113600001,141.027,0.77,357.448
2.9726,128.181365,37.931514,7075.3425168,142.453,0.569,357.591
2.9893,128.18136,37.931559,7075.664995200001,143.857,0.359,357.734
3.0059,128.181355,37.931603,7075.9789392,145.231,0.141,357.877
3.0227,128.181351,37.931648,7076.2843488,146.567,-0.082,358.018
3.0394,128.181346,37.931692,7076.5800048,147.86,-0.311,358.156
3.056,128.181341,37.931737,7076.8659072,149.105,-0.546,358.29
3.0728,128.181337,37.931781,7077.141751200001,150.3,-0.783,358.419
3.0895,128.181332,37.931826,7077.406927200001,151.442,-1.023,358.541
3.1062,128.181328,37.93187,7077.6614352,152.531,-1.264,358.657
3.1229,128.181323,37.931915,7077.904665600001,153.565,-1.504,358.765
3.1395,128.181319,37.931959,7078.136618400001,154.547,-1.742,358.866
3.1563,128.181315,37.932004,7078.3572936,155.476,-1.977,358.958
3.173,128.18131,37.932048,7078.5660816,156.354,-2.208,359.043
3.1896,128.181306,37.932093,7078.762677600001,157.179,-2.436,359.12
3.2064,128.181302,37.932137,7078.9473864,157.953,-2.658,359.19
3.2231,128.181298,37.932182,7079.1192936,158.676,-2.876,359.253
3.2397,128.181294,37.932226,7079.2790088,159.347,-3.089,359.31
3.2565,128.18129,37.932271,7079.4271416,160.026,-3.299,359.358
3.2732,128.181286,37.932315,7079.563692000001,160.699,-3.505,359.397
3.2899,128.181282,37.93236,7079.6880504,161.349,-3.707,359.43
3.3066,128.181278,37.932404,7079.7993024,161.965,-3.905,359.461
3.3233,128.181274,37.932449,7079.897448,162.534,-4.099,359.49
3.34,128.18127,37.932494,7079.9818776,163.049,-4.29,359.519
3.3567,128.181266,37.932538,7080.0522864,163.509,-4.48,359.548
3.3734,128.181263,37.932583,7080.1086744,163.886,-4.653,359.581
3.3901,128.181259,37.932627,7080.1510416,164.181,-4.798,359.613
3.4068,128.181255,37.932672,7080.178778400001,164.397,-4.903,359.641
3.4235,128.181252,37.932717,7080.1924944,164.531,-4.955,359.658
3.4402,128.181248,37.932761,7080.193104,164.586,-4.945,359.66
3.4569,128.181245,37.932806,7080.1803024,164.561,-4.873,359.645
3.4736,128.181241,37.93285,7080.1543944000005,164.458,-4.755,359.619
3.4903,128.181238,37.932895,7080.1159896,164.278,-4.607,359.583
3.507,128.181234,37.932939,7080.0647832,164.025,-4.445,359.543
3.5237,128.181231,37.932984,7080.0016896,163.699,-4.278,359.502
3.5404,128.181228,37.933029,7079.926708800001,163.304,-4.114,359.461
3.5571,128.181224,37.933073,7079.8401456,162.841,-3.955,359.421
3.5738,128.181221,37.933118,7079.742609600001,162.313,-3.802,359.383
3.5905,128.181218,37.933162,7079.634100800001,161.723,-3.658,359.346
3.6072,128.181215,37.933207,7079.515228800001,161.071,-3.521,359.311
3.6239,128.181212,37.933251,7079.3872128,160.541,-3.398,359.266
3.6406,128.181208,37.933296,7079.2503576,160.129,-3.287,359.21
3.6573,128.181205,37.933341,7079.104968000001,159.837,-3.186,359.149
3.674,128.181202,37.933385,7078.9519584,159.668,-3.095,359.085
3.6907,128.181199,37.93343,7078.791938400001,159.62,-3.011,359.021
3.7074,128.181196,37.933474,7078.624908,159.692,-2.935,358.959
3.7241,128.181193,37.933519,7078.451781600001,159.871,-2.864,358.9
3.7408,128.18119,37.933564,7078.2728640000005,160.146,-2.799,358.845
3.7575,128.181187,37.933608,7078.088764800001,160.503,-2.739,358.795
3.7742,128.181184,37.933653,7077.899788799999,160.934,-2.684,358.749
3.7909,128.181181,37.933697,7077.706850400001,161.428,-2.632,358.707
3.8076,128.181178,37.933742,7077.5102544,161.978,-2.584,358.669
3.8243,128.181175,37.933787,7077.310305600001,162.575,-2.539,358.635
3.841,128.181172,37.933831,7077.1057848,163.214,-2.498,358.605
3.8577,128.181169,37.933876,7076.897911200001,163.887,-2.46,358.578
3.8744,128.181167,37.933921,7076.68638,164.592,-2.426,358.553
3.8911,128.181164,37.933966,7076.4708864,165.323,-2.394,358.532
3.9078,128.181161,37.93401,7076.2517352,166.077,-2.366,358.513
3.9245,128.181158,37.934055,7076.0289264,166.85,-2.341,358.496
3.9412,128.181155,37.9341,7075.802460000001,167.639,-2.318,358.481
3.9579,128.181152,37.934144,7075.572336,168.443,-2.298,358.467
3.9746,128.181149,37.934189,7075.3388592,169.26,-2.281,358.456
3.9913,128.181146,37.934234,7075.1020296,170.087,-2.266,358.446
4.008,128.181143,37.934279,7074.861542400001,170.924,-2.254,358.437
4.0247,128.18114,37.934324,7074.6180072,171.769,-2.244,358.429
4.0414,128.181138,37.934368,7074.3708144,172.62,-2.237,358.422
4.058,128.181135,37.934413,7074.1205736,173.477,-2.231,358.416
4.0748,128.181132,37.934458,7073.8672848,174.341,-2.228,358.41
4.0915,128.181129,37.934503,7073.610948,175.209,-2.227,358.406
4.1082,128.181126,37.934548,7073.3512584,176.082,-2.228,358.402
4.1249,128.181123,37.934592,7073.0885208,176.957,-2.231,358.399
4.1415,128.18112,37.934637,7072.82304,177.835,-2.235,358.396
4.1583,128.181118,37.934682,7072.554511200001,178.715,-2.242,358.393
4.175,128.181115,37.934727,7072.2829344,179.596,-2.25,358.391
4.1917,128.181112,37.934772,7072.008614400001,-179.522,-2.26,358.389
4.2084,128.181109,37.934817,7071.7315512000005,-178.642,-2.272,358.388
4.2251,128.181106,37.934862,7071.45144,-177.763,-2.285,358.387
4.2417,128.181103,37.934907,7071.1685856,-176.885,-2.299,358.386
4.2585,128.181101,37.934952,7070.882988000001,-176.01,-2.315,358.386
4.2752,128.181098,37.934997,7070.5946472000005,-175.137,-2.333,358.385
4.2919,128.181095,37.935042,7070.3035632,-174.269,-2.352,358.384
4.3086,128.181092,37.935087,7070.009736,-173.403,-2.372,358.384
4.3252,128.181089,37.935131,7069.713470400001,-172.54,-2.393,358.383
4.342,128.181087,37.935176,7069.414461599999,-171.682,-2.415,358.383
4.3587,128.181084,37.935221,7069.112709600001,-170.828,-2.438,358.382
4.3754,128.181081,37.935266,7068.808214400001,-169.979,-2.462,358.382
4.3921,128.181078,37.935311,7068.5012808,-169.136,-2.487,358.381
4.4088,128.181075,37.935356,7068.191604000001,-168.301,-2.513,358.38
4.4254,128.181073,37.935402,7067.878269600001,-167.578,-2.542,358.387
4.4422,128.18107,37.935447,7067.561582400001,-166.965,-2.573,358.4
4.4589,128.181067,37.935492,7067.2406280000005,-166.462,-2.606,358.417
4.4756,128.181064,37.935537,7066.915711200001,-166.069,-2.641,358.436
4.4923,128.181061,37.935582,7066.5859176,-165.784,-2.677,358.455
4.5089,128.181059,37.935627,7066.251247200001,-165.605,-2.715,358.473
4.5256,128.181056,37.935672,7065.911395200001,-165.529,-2.754,358.491
4.5424,128.181053,37.935717,7065.566056800001,-165.551,-2.793,358.508
4.5591,128.18105,37.935762,7065.2146224,-165.668,-2.834,358.524
4.5758,128.181047,37.935807,7064.857396800001,-165.878,-2.876,358.538
4.5925,128.181045,37.935852,7064.4946848,-166.175,-2.919,358.552
4.6091,128.181042,37.935897,7064.126181600001,-166.557,-2.962,358.566
4.6259,128.181039,37.935942,7063.751887200001,-167.021,-3.006,358.578
4.6426,128.181036,37.935987,7063.372106400001,-167.563,-3.05,358.59
4.6593,128.181033,37.936032,7062.9868392,-168.18,-3.095,358.602
4.676,128.18103,37.936077,7062.5957808,-168.869,-3.14,358.613
4.6927,128.181028,37.936122,7062.1989312000005,-169.626,-3.186,358.623
4.7093,128.181025,37.936167,7061.7965952,-170.45,-3.231,358.633
4.7261,128.181022,37.936212,7061.3887728,-171.337,-3.277,358.643
4.7428,128.181019,37.936257,7060.9751592,-172.285,-3.322,358.653
4.7595,128.181016,37.936303,7060.5560592,-173.29,-3.368,358.663
4.7762,128.181013,37.936348,7060.131168,-174.351,-3.413,358.673
4.7928,128.181011,37.936393,7059.7007904,-175.464,-3.458,358.682
4.8096,128.181008,37.936438,7059.2646216,-176.627,-3.502,358.692
4.8263,128.181005,37.936483,7058.8229664,-177.837,-3.546,358.702
4.843,128.181002,37.936528,7058.3755200000005,-179.093,-3.59,358.711
4.8597,128.180999,37.936573,7057.922282400001,179.607,-3.633,358.721
4.8764,128.180996,37.936618,7057.4635584,178.267,-3.676,358.731
4.893,128.180993,37.936663,7056.9990431999995,176.889,-3.717,358.741
4.9098,128.180991,37.936708,7056.528736800001,175.475,-3.759,358.751
4.9265,128.180988,37.936753,7056.052944,174.026,-3.799,358.761
4.9432,128.180985,37.936798,7055.571360000001,172.544,-3.838,358.771
4.9599,128.180982,37.936843,7055.0839848,171.032,-3.877,358.781
4.9765,128.180979,37.936888,7054.5908184,169.491,-3.915,358.792
4.9932,128.180977,37.936933,7054.092165600001,167.924,-3.952,358.802
5.01,128.180974,37.936978,7053.5874168,166.331,-3.988,358.813
5.0267,128.180971,37.937023,7053.077181600001,164.714,-4.023,358.823
5.0434,128.180968,37.937068,7052.561155200001,163.076,-4.057,358.833
5.0601,128.180966,37.937113,7052.039642400001,161.417,-4.09,358.844
5.0767,128.180963,37.937158,7051.512033600001,159.74,-4.122,358.854
5.0935,128.18096,37.937204,7050.9789384000005,158.044,-4.153,358.864
5.1102,128.180957,37.937249,7050.440052000001,156.333,-4.183,358.874
5.1269,128.180955,37.937294,7049.895374400001,154.607,-4.212,358.883
5.1436,128.180952,37.937339,7049.345210400001,152.868,-4.24,358.892
5.1602,128.18095,37.937384,7048.7892552,151.116,-4.267,358.901
5.1769,128.180947,37.937429,7048.2281184,149.353,-4.293,358.91
5.1937,128.180944,37.937474,7047.6608856,147.58,-4.318,358.918
5.2104,128.180942,37.937519,7047.0884712,145.798,-4.342,358.926
5.2271,128.180939,37.937564,7046.510570400001,144.008,-4.365,358.933
5.2438,128.180937,37.937609,7045.9271832,142.21,-4.388,358.94
5.2604,128.180934,37.937654,7045.338309600001,140.407,-4.409,358.946
5.2772,128.180932,37.937699,7044.7442544000005,138.598,-4.429,358.952
5.2939,128.18093,37.937744,7044.1447128,136.785,-4.449,358.957
5.3106,128.180927,37.937789,7043.5402944,134.968,-4.468,358.961
5.3273,128.180925,37.937834,7042.9306944,133.148,-4.486,358.964
5.3439,128.180923,37.937879,7042.3159128,131.325,-4.504,358.967
5.3606,128.180921,37.937924,7041.696254400001,129.501,-4.52,358.969
5.3774,128.180918,37.937969,7041.0714144,127.675,-4.537,358.97
5.3941,128.180916,37.938015,7040.4423072,125.849,-4.553,358.97
5.4108,128.180914,37.93806,7039.8080184,124.023,-4.568,358.97
5.4275,128.180912,37.938105,7039.1694624,122.197,-4.583,358.968
5.4441,128.18091,37.93815,7038.5263343999995,120.372,-4.599,358.969
5.4609,128.180908,37.938195,7037.8786344,118.547,-4.619,358.975
5.4776,128.180906,37.93824,7037.2263624,116.723,-4.642,358.989
5.4943,128.180904,37.938285,7036.570128,114.9,-4.671,359.012
5.511,128.180902,37.93833,7035.9096264,113.079,-4.703,359.045
5.5277,128.180901,37.938375,7035.2451624000005,111.259,-4.738,359.088
5.5443,128.180899,37.93842,7034.5764312,109.442,-4.777,359.142
5.5611,128.180897,37.938465,7033.9040424,107.628,-4.819,359.206
5.5778,128.180896,37.93851,7033.227691200001,105.816,-4.862,359.28
5.5945,128.180894,37.938556,7032.547682400001,104.009,-4.905,359.364
5.6112,128.180893,37.938601,7031.8643208,102.206,-4.949,359.457
5.6278,128.180891,37.938646,7031.177301600001,100.407,-4.992,359.558
5.6445,128.18089,37.938691,7030.4872344,98.612,-5.032,359.665
5.6613,128.180889,37.938736,7029.793814400001,96.821,-5.071,359.776
5.678,128.180888,37.938781,7029.097651200001,95.034,-5.106,359.892
5.6947,128.180887,37.938826,7028.3987448,93.25,-5.138,0.011
5.7114,128.180886,37.938871,7027.6970952,91.469,-5.166,0.132
5.728,128.180885,37.938916,7026.993312,89.691,-5.19,0.253
5.7448,128.180884,37.938962,7026.2870904,87.914,-5.21,0.375
5.7615,128.180883,37.939007,7025.5790400000005,86.138,-5.227,0.497
5.7782,128.180882,37.939052,7024.869465600001,84.362,-5.238,0.619
5.7949,128.180882,37.939097,7024.1583672,82.586,-5.246,0.741
5.8115,128.180881,37.939142,7023.4460496,80.809,-5.249,0.864
5.8282,128.180881,37.939187,7022.7328176,79.028,-5.245,1.0
5.845,128.18088,37.939232,7022.018976,77.242,-5.231,1.162
5.8617,128.18088,37.939278,7021.3048296,75.451,-5.206,1.348
5.8784,128.18088,37.939323,7020.590683200001,73.654,-5.171,1.549
5.8951,128.18088,37.939368,7019.8765368,71.851,-5.128,1.757
5.9117,128.18088,37.939413,7019.1633048,70.043,-5.077,1.967
5.9285,128.18088,37.939458,7018.450682400001,68.23,-5.021,2.172
5.9452,128.180881,37.939504,7017.739279200001,66.411,-4.96,2.369
5.9619,128.180881,37.939549,7017.0297048,64.586,-4.896,2.554
5.9786,128.180881,37.939594,7016.321654400001,62.755,-4.83,2.725
5.9952,128.180882,37.939639,7015.615737600001,60.916,-4.762,2.883
6.0119,128.180883,37.939684,7014.912564,59.069,-4.695,3.026
6.0287,128.180883,37.93973,7014.212133600001,57.212,-4.626,3.157
6.0454,128.180884,37.939775,7013.515056000001,55.344,-4.555,3.277
6.0621,128.180885,37.93982,7012.8213312,53.463,-4.484,3.387
6.0788,128.180886,37.939865,7012.1315688,51.57,-4.412,3.487
6.0954,128.180888,37.939911,7011.4457688,49.662,-4.339,3.579
6.1121,128.180889,37.939956,7010.764540800001,47.738,-4.264,3.663
6.1289,128.18089,37.940001,7010.0878848,45.798,-4.188,3.739
6.1456,128.180892,37.940046,7009.416410400001,43.84,-4.11,3.81
6.1623,128.180893,37.940092,7008.7504224,41.865,-4.028,3.875
6.179,128.180895,37.940137,7008.0890064000005,39.888,-3.945,3.937
6.1956,128.180897,37.940182,7007.4330768,37.941,-3.859,3.998
6.2124,128.180898,37.940227,7006.782024000001,36.053,-3.773,4.058
6.2291,128.1809,37.940273,7006.1361528,34.25,-3.685,4.118
6.2458,128.180902,37.940318,7005.4948536,32.554,-3.597,4.179
6.2625,128.180904,37.940363,7004.8584312,30.979,-3.508,4.24
6.2791,128.180906,37.940409,7004.2268856,29.549,-3.418,4.302
6.2958,128.180908,37.940454,7003.5993024,28.254,-3.327,4.362
6.3126,128.18091,37.9405,7002.975986400001,27.092,-3.236,4.419
6.3293,128.180912,37.940545,7002.356328000001,26.057,-3.147,4.471
6.346,128.180914,37.94059,7001.740632,25.141,-3.061,4.52
6.3627,128.180917,37.940636,7001.1282888,24.335,-2.978,4.565
6.3793,128.180919,37.940681,7000.5189936,23.632,-2.899,4.605
6.3961,128.180921,37.940727,6999.9124416,23.022,-2.825,4.64
6.4128,128.180923,37.940772,6999.3095472,22.488,-2.757,4.669
6.4295,128.180926,37.940818,6998.710310400001,22.023,-2.697,4.692
6.4462,128.180928,37.940863,6998.1147312,21.619,-2.642,4.71
6.4628,128.180931,37.940909,6997.5228096,21.27,-2.592,4.727
6.4795,128.180933,37.940954,6996.9345456,20.97,-2.548,4.744
6.4963,128.180935,37.941,6996.3499392,20.717,-2.511,4.759
6.513,128.180938,37.941045,6995.7683808,20.513,-2.483,4.773
6.5297,128.18094,37.941091,6995.191699200001,20.348,-2.463,4.784
6.5464,128.180943,37.941136,6994.617456000001,20.227,-2.45,4.793
6.5631,128.180946,37.941182,6994.046565600001,20.155,-2.445,4.8
6.5798,128.180948,37.941228,6993.4778088,20.146,-2.448,4.806
6.5965,128.180951,37.941273,6992.9111856,20.211,-2.458,4.813
6.6132,128.180954,37.941319,6992.346391200001,20.362,-2.475,4.819
6.6299,128.180956,37.941365,6991.7849496,20.562,-2.494,4.824
6.6466,128.180959,37.94141,6991.2265560000005,20.741,-2.499,4.825
6.6633,128.180962,37.941456,6990.671210400001,20.896,-2.487,4.822
6.68,128.180964,37.941502,6990.120132,21.027,-2.461,4.819
6.6967,128.180967,37.941547,6989.573015999999,21.134,-2.425,4.82
6.7134,128.18097,37.941593,6989.0301672000005,21.217,-2.383,4.821
6.7301,128.180973,37.941639,6988.4921952,21.28,-2.337,4.826
6.7468,128.180976,37.941684,6987.9591,21.326,-2.291,4.833
6.7635,128.180979,37.94173,6987.4296624,21.368,-2.25,4.843
6.7802,128.180982,37.941776,6986.903882400001,21.493,-2.228,4.856
6.7969,128.180985,37.941822,6986.380540800001,21.7,-2.238,4.866
6.8136,128.180988,37.941867,6985.860856800001,21.801,-2.288,4.854
6.8303,128.180991,37.941913,6985.343001600001,21.996,-2.383,4.828
6.847,128.180994,37.941959,6984.8272799999995,22.277,-2.51,4.794
6.8637,128.180997,37.942005,6984.313082400001,22.643,-2.652,4.758
6.8804,128.181,37.942051,6983.7997992,23.096,-2.798,4.722
6.8971,128.181003,37.942096,6983.2871256,23.633,-2.938,4.689
6.9138,128.181007,37.942142,6982.7765856000005,24.15,-3.053,4.659
6.9305,128.18101,37.942188,6982.268179200001,24.633,-3.131,4.636
6.9472,128.181013,37.942234,6981.761906400001,25.081,-3.166,4.628
6.9639,128.181016,37.94228,6981.2577672,25.428,-3.161,4.62
6.9806,128.18102,37.942326,6980.7563712,25.674,-3.13,4.611
6.9973,128.181023,37.942371,6980.2574136,25.817,-3.089,4.597
7.014,128.181026,37.942417,6979.7618088,25.854,-3.052,4.577
7.0307,128.18103,37.942463,6979.268947200001,25.785,-3.034,4.547
7.0474,128.181033,37.942509,6978.779438400001,25.614,-3.046,4.502
7.0641,128.181037,37.942555,6978.2926728,25.521,-3.084,4.469
7.0808,128.18104,37.942601,6977.8083456,25.505,-3.137,4.454
7.0975,128.181044,37.942647,6977.325847200001,25.574,-3.185,4.457
7.1142,128.181047,37.942693,6976.8451776,25.735,-3.214,4.478
7.1309,128.181051,37.942738,6976.366336800001,25.993,-3.208,4.519
7.1476,128.181054,37.942784,6975.8890200000005,26.346,-3.159,4.584
7.1643,128.181058,37.94283,6975.4126176,26.793,-3.073,4.667
7.181,128.181061,37.942876,6974.9371296,27.332,-2.961,4.763
7.1977,128.181065,37.942922,6974.462556,27.959,-2.831,4.869
7.2144,128.181069,37.942968,6973.987982400001,28.671,-2.692,4.981
7.2311,128.181072,37.943014,6973.5143232,29.464,-2.55,5.096
7.2478,128.181076,37.94306,6973.040968800001,30.335,-2.407,5.213
7.2645,128.18108,37.943106,6972.568833600001,31.28,-2.266,5.332
7.2812,128.181083,37.943152,6972.097308,32.298,-2.129,5.452
7.2979,128.181087,37.943198,6971.626696800001,33.385,-2.007,5.566
7.3146,128.181091,37.943244,6971.157,34.538,-1.915,5.664
7.3313,128.181095,37.94329,6970.687608,35.757,-1.865,5.737
7.348,128.181099,37.943336,6970.2185208,37.039,-1.867,5.775
7.3647,128.181102,37.943382,6969.749433600001,38.382,-1.922,5.776
7.3814,128.181106,37.943428,6969.280651200001,39.785,-2.016,5.748
7.3981,128.18111,37.943474,6968.8118688,41.248,-2.135,5.7
7.4148,128.181114,37.94352,6968.3427816,42.769,-2.267,5.641
7.4315,128.181118,37.943566,6967.8736944,44.348,-2.398,5.581
7.4482,128.181122,37.943612,6967.4043024,45.985,-2.522,5.527
7.4649,128.181126,37.943658,6966.9343008000005,47.678,-2.632,5.483
7.4816,128.18113,37.943704,6966.4642992,49.312,-2.714,5.458
7.4983,128.181134,37.94375,6965.9946024,50.863,-2.76,5.461
7.515,128.181138,37.943796,6965.525820000001,52.319,-2.764,5.502
7.5317,128.181143,37.943842,6965.057952000001,53.672,-2.725,5.593
7.5484,128.181147,37.943889,6964.5913032,54.917,-2.64,5.744
7.5651,128.181151,37.943935,6964.1267880000005,56.054,-2.514,5.958
7.5818,128.181156,37.943981,6963.6641016,57.087,-2.355,6.224
7.5985,128.18116,37.944027,6963.2035488,58.022,-2.173,6.535
7.6152,128.181165,37.944073,6962.7454344,58.867,-1.976,6.88
7.6319,128.181169,37.944119,6962.2891488000005,59.708,-1.779,7.249
7.6486,128.181174,37.944165,6961.8349968,60.616,-1.593,7.632
7.6653,128.181179,37.944211,6961.382673600001,61.596,-1.426,8.01
7.682,128.181183,37.944257,6960.931874400001,62.65,-1.283,8.368
7.6987,128.181188,37.944303,6960.4819896,63.779,-1.171,8.689
7.7154,128.181193,37.944349,6960.0327144,64.98,-1.094,8.958
7.7321,128.181198,37.944395,6959.5840488,66.254,-1.057,9.157
7.7488,128.181203,37.944441,6959.135688,67.597,-1.065,9.272
7.7655,128.181208,37.944487,6958.6867176000005,69.008,-1.118,9.288
7.7822,128.181214,37.944533,6958.237442400001,70.485,-1.208,9.218
7.7989,128.181219,37.944579,6957.7878624,72.03,-1.325,9.08
7.8156,128.181224,37.944625,6957.337063200001,73.643,-1.46,8.887
7.8323,128.181229,37.944672,6956.8853496,75.325,-1.605,8.656
7.849,128.181235,37.944718,6956.4324168,77.036,-1.749,8.404
7.8657,128.18124,37.944764,6955.97796,78.758,-1.886,8.147
7.8824,128.181246,37.94481,6955.521369600001,80.365,-2.001,7.902
7.8991,128.181251,37.944856,6955.0626456,81.869,-2.088,7.685
7.9158,128.181257,37.944902,6954.6027023999995,83.265,-2.149,7.513
7.9325,128.181263,37.944948,6954.1412352,84.551,-2.191,7.398
7.9492,128.181268,37.944994,6953.6779392,85.728,-2.218,7.331
7.9659,128.181274,37.94504,6953.212814400001,86.797,-2.235,7.303
7.9826,128.18128,37.945086,6952.746470400001,87.758,-2.246,7.301
7.9993,128.181286,37.945132,6952.277992800001,88.614,-2.254,7.311
8.016,128.181292,37.945178,6951.8079912,89.367,-2.262,7.321
8.0327,128.181298,37.945224,6951.3361608000005,90.021,-2.269,7.315
8.0494,128.181304,37.945271,6950.862196800001,90.581,-2.277,7.289
8.0661,128.18131,37.945317,6950.386708800001,91.048,-2.285,7.245
8.0828,128.181316,37.945363,6949.9096968,91.552,-2.301,7.189
8.0994,128.181322,37.945409,6949.431160800001,92.112,-2.326,7.125
8.1161,128.181328,37.945455,6948.9501864,92.726,-2.357,7.059
8.1329,128.181335,37.945501,6948.467383200001,93.394,-2.39,6.993
8.1496,128.181341,37.945547,6947.9824464,94.112,-2.423,6.931
8.1663,128.181347,37.945593,6947.495376,94.875,-2.455,6.872
8.183,128.181354,37.945639,6947.006172,95.68,-2.485,6.818
8.1997,128.18136,37.945685,6946.5151392,96.52,-2.514,6.768
8.2164,128.181366,37.945731,6946.0213632,97.332,-2.543,6.739
8.2331,128.181373,37.945777,6945.5257584,98.116,-2.574,6.746
8.2498,128.181379,37.945823,6945.027410400001,98.879,-2.611,6.803
8.2665,128.181386,37.945869,6944.526928800001,99.627,-2.66,6.923
8.2831,128.181392,37.945916,6944.0240088,100.363,-2.724,7.115
8.2998,128.181399,37.945962,6943.5186504,101.093,-2.809,7.386
8.3166,128.181406,37.946008,6943.0108536,101.816,-2.92,7.743
8.3333,128.181412,37.946054,6942.5003136000005,102.538,-3.055,8.174
8.35,128.181419,37.9461,6941.9867256,103.266,-3.213,8.663
8.3667,128.181426,37.946146,6941.4700896,104.005,-3.389,9.198
8.3834,128.181433,37.946192,6940.950100800001,104.76,-3.58,9.76
8.4001,128.18144,37.946238,6940.426454400001,105.533,-3.781,10.331
8.4168,128.181447,37.946284,6939.8991504000005,106.327,-3.989,10.892
8.4335,128.181454,37.94633,6939.3681888,107.144,-4.197,11.425
8.4502,128.181462,37.946376,6938.832960000001,107.988,-4.401,11.912
8.4668,128.181469,37.946422,6938.293464,108.859,-4.599,12.352
8.4835,128.181477,37.946468,6937.749396,109.759,-4.792,12.75
8.5003,128.181484,37.946515,6937.200756000001,110.69,-4.983,13.111
8.517,128.181492,37.946561,6936.6469344,111.655,-5.171,13.443
8.5337,128.1815,37.946607,6936.0882360000005,112.656,-5.359,13.748
8.5504,128.181507,37.946653,6935.524051200001,113.694,-5.546,14.03
8.5671,128.181515,37.946699,6934.95438,114.771,-5.733,14.292
8.5838,128.181523,37.946745,6934.3786128,115.89,-5.92,14.536
8.6005,128.181531,37.946791,6933.797359200001,117.052,-6.108,14.764
8.6172,128.18154,37.946837,6933.2075712,118.121,-6.281,14.987
8.6339,128.181548,37.946883,6932.6113824,119.1,-6.439,15.206
8.6505,128.181557,37.946929,6932.007573600001,119.985,-6.587,15.42
8.6672,128.181565,37.946975,6931.3964496,120.772,-6.73,15.628
8.684,128.181574,37.947021,6930.777400800001,121.46,-6.871,15.828
8.7007,128.181583,37.947066,6930.1504272,122.053,-7.011,16.019
8.7174,128.181592,37.947112,6929.514614400001,122.551,-7.15,16.2
8.7341,128.181601,37.947158,6928.870572,122.961,-7.286,16.371
8.7508,128.18161,37.947204,6928.2173856,123.284,-7.42,16.533
8.7675,128.181619,37.94725,6927.5550552,123.526,-7.553,16.686
8.7842,128.181629,37.947296,6926.8832760000005,123.69,-7.683,16.832
8.8009,128.181638,37.947341,6926.202048,123.778,-7.812,16.971
8.8176,128.181648,37.947387,6925.5107616,123.795,-7.939,17.106
8.8342,128.181658,37.947433,6924.8094168,123.743,-8.064,17.238
8.8509,128.181668,37.947478,6924.098318400001,123.625,-8.188,17.366
8.8676,128.181678,37.947524,6923.377161599999,123.444,-8.31,17.493
8.8844,128.181688,37.94757,6922.646251200001,123.2,-8.432,17.619
8.9011,128.181699,37.947615,6921.905587200001,122.898,-8.553,17.745
8.9178,128.181709,37.947661,6921.155169600001,122.538,-8.672,17.871
8.9345,128.18172,37.947706,6920.3946936,122.123,-8.79,17.999
8.9512,128.181731,37.947751,6919.6247688,121.654,-8.908,18.127
8.9679,128.181742,37.947797,6918.8450904,121.133,-9.024,18.258
8.9846,128.181753,37.947842,6918.0559632,120.56,-9.139,18.391
9.0013,128.181764,37.947887,6917.2570824,119.938,-9.253,18.527
9.0179,128.181775,37.947933,6916.451191200001,119.439,-9.386,18.661
9.0346,128.181787,37.947978,6915.6361560000005,119.058,-9.536,18.793
9.0513,128.181799,37.948023,6914.8122816000005,118.801,-9.698,18.924
9.0681,128.18181,37.948068,6913.9801776,118.669,-9.867,19.054
9.0848,128.181822,37.948113,6913.139844,118.663,-10.038,19.185
9.1015,128.181834,37.948158,6912.2912808,118.78,-10.209,19.315
9.1182,128.181847,37.948203,6911.434183200001,119.018,-10.379,19.445
9.1349,128.181859,37.948248,6910.569160800001,119.372,-10.548,19.575
9.1516,128.181871,37.948293,6909.6959088,119.837,-10.716,19.703
9.1683,128.181884,37.948338,6908.815036800001,120.41,-10.883,19.829
9.185,128.181896,37.948383,6907.9259352,121.085,-11.049,19.954
9.2016,128.181909,37.948428,6907.029213600001,121.859,-11.215,20.075
9.2183,128.181922,37.948473,6906.1245672000005,122.727,-11.382,20.194
9.235,128.181935,37.948518,6905.211996000001,123.687,-11.549,20.31
9.2518,128.181948,37.948563,6904.2918048,124.734,-11.718,20.422
9.2685,128.181961,37.948608,6903.3639936,125.865,-11.888,20.53
9.2852,128.181974,37.948652,6902.4285624,127.078,-12.06,20.634
9.3019,128.181988,37.948697,6901.4855112000005,128.37,-12.234,20.733
9.3186,128.182001,37.948742,6900.5345352,129.738,-12.41,20.828
9.3353,128.182014,37.948787,6899.5753296,131.18,-12.59,20.919
9.352,128.182028,37.948831,6898.606370400001,132.524,-12.749,21.006
9.3687,128.182041,37.948876,6897.6288768,133.776,-12.879,21.082
9.3854,128.182055,37.948921,6896.6422391999995,134.932,-12.984,21.143
9.402,128.182069,37.948965,6895.6464576,135.988,-13.07,21.192
9.4187,128.182083,37.94901,6894.6409224,136.943,-13.146,21.229
9.4355,128.182097,37.949055,6893.6259384,137.797,-13.215,21.258
9.4522,128.182111,37.949099,6892.601200800001,138.554,-13.28,21.281
9.4689,128.182125,37.949144,6891.5661,139.215,-13.344,21.298
9.4856,128.182139,37.949188,6890.5209408,139.785,-13.407,21.312
9.5023,128.182153,37.949233,6889.4654184,140.268,-13.472,21.324
9.519,128.182168,37.949277,6888.3989232,140.667,-13.537,21.335
9.5357,128.182182,37.949321,6887.3223696000005,140.989,-13.593,21.337
9.5524,128.182197,37.949366,6886.2354528,141.237,-13.63,21.32
9.5691,128.182211,37.94941,6885.137868000001,141.418,-13.636,21.279
9.5857,128.182226,37.949454,6884.029920000001,141.534,-13.608,21.209
9.6024,128.182241,37.949499,6882.911304,141.587,-13.558,21.12
9.6192,128.182255,37.949543,6881.7823248,141.576,-13.495,21.023
9.6359,128.18227,37.949587,6880.6423728,141.504,-13.431,20.924
9.6526,128.182285,37.949631,6879.492972,141.372,-13.368,20.828
9.6693,128.1823,37.949675,6878.333208,141.181,-13.313,20.738
9.686,128.182315,37.949719,6877.1639952000005,140.934,-13.266,20.656
9.7027,128.182331,37.949763,6875.985028800001,140.633,-13.229,20.583
9.7194,128.182346,37.949807,6874.7969184,140.279,-13.202,20.52
9.7361,128.182361,37.949851,6873.599664,139.874,-13.186,20.466
9.7528,128.182376,37.949895,6872.393265600001,139.42,-13.179,20.421
9.7694,128.182392,37.949939,6871.178028,138.918,-13.182,20.386
9.7861,128.182407,37.949983,6869.954256000001,138.37,-13.194,20.359
9.8029,128.182423,37.950027,6868.721949600001,137.777,-13.215,20.341
9.8196,128.182439,37.95007,6867.481108800001,137.142,-13.243,20.33
9.8363,128.182454,37.950114,6866.231733600001,136.464,-13.278,20.328
9.853,128.18247,37.950158,6864.9741288000005,135.746,-13.32,20.333
9.8697,128.182486,37.950202,6863.7085992,134.988,-13.368,20.345
9.8864,128.182502,37.950245,6862.43484,134.192,-13.421,20.364
9.9031,128.182518,37.950289,6861.15468,133.562,-13.479,20.37
9.9198,128.182534,37.950332,6859.867509600001,133.096,-13.53,20.351
9.9365,128.18255,37.950376,6858.573938400001,132.796,-13.563,20.3
9.9531,128.182566,37.95042,6857.274576,132.66,-13.574,20.218
9.9698,128.182582,37.950463,6855.9688128,132.685,-13.567,20.116
9.9865,128.182599,37.950507,6854.6581728,132.856,-13.554,19.999
10.0033,128.182615,37.95055,6853.342046400001,133.168,-13.54,19.875
10.02,128.182631,37.950594,6852.021043199999,133.615,-13.529,19.748
10.0367,128.182647,37.950637,6850.695772800001,134.193,-13.522,19.623
10.0534,128.182664,37.950681,6849.3659304,134.9,-13.518,19.501
10.0701,128.18268,37.950724,6848.0321256,135.732,-13.518,19.384
10.0868,128.182697,37.950768,6846.694968000001,136.684,-13.521,19.272
10.1035,128.182713,37.950811,6845.3544576,137.753,-13.527,19.167
10.1202,128.18273,37.950855,6844.0108992000005,138.931,-13.537,19.067
10.1368,128.182746,37.950898,6842.6649024,140.212,-13.548,18.974
10.1535,128.182763,37.950942,6841.3161624,141.589,-13.561,18.886
10.1702,128.182779,37.950985,6839.9658984,143.055,-13.576,18.804
10.187,128.182796,37.951029,6838.6135008,144.606,-13.593,18.727
10.2037,128.182812,37.951072,6837.2589696000005,146.239,-13.611,18.654
10.2204,128.182829,37.951116,6835.902914400001,147.952,-13.631,18.585
10.2371,128.182845,37.95116,6834.5453352,149.744,-13.652,18.52
10.2538,128.182862,37.951203,6833.1837936,151.414,-13.678,18.487
10.2705,128.182878,37.951247,6831.8201184,152.966,-13.722,18.492
10.2872,128.182895,37.95129,6830.4533952,154.389,-13.791,18.528
10.3039,128.182911,37.951334,6829.083624000001,155.68,-13.877,18.579
10.3205,128.182928,37.951377,6827.7105,156.838,-13.969,18.635
10.3372,128.182944,37.951421,6826.3340232,157.864,-14.062,18.69
10.3539,128.182961,37.951465,6824.953584000001,158.763,-14.152,18.741
