Time,Longitude,Latitude,Altitude,Roll (deg),Pitch (deg),Yaw (deg)
0.0,128.181881,37.968643,7002.8955192,0.0,-0.003,0.0
0.0167,128.181881,37.968688,7002.909540000001,0.0,-0.012,0.0
0.0334,128.181881,37.968733,7002.9226464,0.0,-0.026,0.0
0.0501,128.181881,37.968778,7002.9348384,0.0,-0.042,0.0
0.0668,128.181881,37.968823,7002.9464208,0.0,-0.06,0.0
0.0834,128.181881,37.968868,7002.9570888,0.0,-0.08,0.0
0.1002,128.181881,37.968913,7002.9665376,0.0,-0.1,0.0
0.1169,128.181881,37.968958,7002.9753768,0.0,-0.12,0.0
0.1336,128.181881,37.969003,7002.983301600001,0.0,-0.14,0.0
0.1503,128.181881,37.969048,7002.9900072,0.0,-0.161,0.0
0.1669,128.181881,37.969093,7002.9961032,0.0,-0.181,0.0
0.1837,128.181881,37.969138,7003.00098,0.0,-0.201,0.0
0.2004,128.181881,37.969183,7003.004942400001,0.0,-0.221,0.0
0.2171,128.181881,37.969228,7003.0079904,0.0,-0.24,0.0
0.2338,128.181881,37.969273,7003.010124,0.0,-0.26,0.0
0.2505,128.181881,37.969318,7003.011038400001,0.0,-0.279,0.0
0.2672,128.181881,37.969363,7003.0113432,0.0,-0.297,0.0
0.2839,128.181881,37.969408,7003.010124,0.0,-0.316,0.0
0.3006,128.181881,37.969453,7003.0082952,0.0,-0.334,0.0
0.3172,128.181881,37.969498,7003.005247200001,0.0,-0.352,0.0
0.3339,128.181881,37.969544,7003.0012848,0.0,-0.37,0.0
0.3507,128.181881,37.969589,7002.9961032,0.0,-0.387,0.0
0.3674,128.181881,37.969634,7002.9900072,0.001,-0.405,0.0
0.3841,128.181881,37.969679,7002.9826920000005,0.001,-0.422,0.0
0.4008,128.181881,37.969724,7002.9744624,0.001,-0.439,0.0
0.4175,128.181881,37.969769,7002.965318400001,0.001,-0.456,0.0
0.4342,128.181881,37.969814,7002.954955200001,0.001,-0.472,0.0
0.4509,128.181881,37.969859,7002.9433728,0.001,-0.489,0.0
0.4676,128.181881,37.969905,7002.930876,0.001,-0.505,0.0
0.4843,128.181881,37.96995,7002.917160000001,0.001,-0.521,0.0
0.501,128.181881,37.969995,7002.9025296,0.002,-0.537,0.0
0.5176,128.181881,37.97004,7002.88668,0.002,-0.553,0.0
0.5344,128.181881,37.970085,7002.869611200001,0.002,-0.568,0.0
0.5511,128.181881,37.970131,7002.851628,0.002,-0.584,0.0
0.5678,128.181881,37.970176,7002.8324256,0.002,-0.599,0.0
0.5845,128.181881,37.970221,7002.8123088,0.002,-0.615,0.0
0.6012,128.181881,37.970266,7002.7909728,0.003,-0.63,0.0
0.6179,128.181881,37.970312,7002.7684176,0.003,-0.645,0.0
0.6345,128.181881,37.970357,7002.744948,0.003,-0.66,0.0
0.6513,128.181881,37.970402,7002.7202592,0.003,-0.675,0.0
0.6679,128.181881,37.970447,7002.694351200001,0.003,-0.69,0.0
0.6847,128.181881,37.970493,7002.667528800001,0.004,-0.705,0.0
0.7014,128.181881,37.970538,7002.6391824,0.004,-0.719,0.0
0.7181,128.181881,37.970583,7002.6102264,0.004,-0.734,0.0
0.7348,128.181881,37.970629,7002.579746400001,0.004,-0.748,0.0
0.7514,128.181881,37.970674,7002.548352000001,0.005,-0.763,0.0
0.7682,128.181881,37.970719,7002.515738400001,0.005,-0.777,0.0
0.7848,128.181881,37.970765,7002.481905600001,0.005,-0.792,0.0
0.8016,128.181881,37.97081,7002.4471584,0.005,-0.806,0.0
0.8183,128.181881,37.970855,7002.410887200001,0.006,-0.82,0.001
0.835,128.181881,37.970901,7002.374006400001,0.006,-0.834,0.001
0.8517,128.181881,37.970946,7002.335601600001,0.006,-0.848,0.001
0.8684,128.181881,37.970992,7002.295977600001,0.006,-0.862,0.001
0.8851,128.181881,37.971037,7002.2554392,0.007,-0.876,0.001
0.9018,128.181881,37.971082,7002.2136816,0.007,-0.89,0.001
0.9185,128.181881,37.971128,7002.171009600001,0.007,-0.904,0.001
0.9352,128.181881,37.971173,7002.126813600001,0.007,-0.918,0.001
0.9519,128.181881,37.971219,7002.0817032,0.008,-0.932,0.001
0.9686,128.181881,37.971264,7002.035373600001,0.008,-0.946,0.001
0.9853,128.181881,37.97131,7001.988129599999,0.008,-0.959,0.001
1.002,128.181881,37.971355,7001.9393616,0.009,-0.973,0.001
1.0187,128.181881,37.971401,7001.8896792000005,0.009,-0.987,0.001
1.0353,128.181881,37.971446,7001.838777600001,0.009,-1.0,0.001
1.0521,128.181881,37.971491,7001.786656800001,0.009,-1.014,0.001
1.0688,128.181881,37.971537,7001.7333168000005,0.01,-1.028,0.001
1.0855,128.181881,37.971583,7001.6790624000005,0.01,-1.041,0.001
1.1022,128.181881,37.971628,7001.6235888,0.01,-1.055,0.001
1.1189,128.181881,37.971674,7001.566896,0.011,-1.068,0.001
1.1356,128.181881,37.971719,7001.508984000001,0.011,-1.081,0.001
1.1522,128.181881,37.971765,7001.4501576,0.011,-1.095,0.001
1.169,128.181881,37.97181,7001.390112,0.012,-1.108,0.001
1.1857,128.181881,37.971856,7001.3288472,0.012,-1.122,0.001
1.2024,128.181881,37.971901,7001.2663632,0.012,-1.135,0.001
1.2191,128.181881,37.971947,7001.202660000001,0.013,-1.148,0.002
1.2358,128.181881,37.971993,7001.138042400001,0.013,-1.162,0.002
1.2525,128.181881,37.972038,7001.0722056,0.013,-1.175,0.002
1.2691,128.181881,37.972084,7001.005149600001,0.014,-1.188,0.002
1.2859,128.181881,37.972129,7000.936874400001,0.014,-1.201,0.002
1.3026,128.181881,37.972175,7000.86738,0.014,-1.215,0.002
1.3193,128.181881,37.972221,7000.7969712,0.015,-1.228,0.002
1.3359,128.181881,37.972266,7000.7253432,0.015,-1.241,0.002
1.3527,128.181881,37.972312,7000.652496000001,0.015,-1.254,0.002
1.3694,128.181881,37.972358,7000.5787344,0.016,-1.267,0.002
1.386,128.181881,37.972403,7000.5034488,0.016,-1.28,0.002
1.4028,128.181881,37.972449,7000.4272488,0.017,-1.293,0.002
1.4195,128.181881,37.972495,7000.3498296,0.017,-1.307,0.002
1.4362,128.181881,37.97254,7000.2711912,0.017,-1.32,0.002
1.4528,128.181881,37.972586,7000.191638400001,0.018,-1.333,0.002
1.4696,128.181881,37.972632,7000.1105615999995,0.018,-1.346,0.002
1.4863,128.181881,37.972678,7000.028570400001,0.018,-1.359,0.002
1.5029,128.181881,37.972723,6999.945360000001,0.019,-1.372,0.002
1.5197,128.181881,37.972769,6999.8609304,0.019,-1.385,0.002
1.5364,128.181881,37.972815,6999.7755864,0.02,-1.398,0.002
1.5531,128.181881,37.972861,6999.6890232000005,0.02,-1.411,0.002
1.5697,128.181881,37.972907,6999.601240800001,0.02,-1.424,0.003
1.5865,128.181881,37.972952,6999.5122392,0.021,-1.437,0.003
1.6032,128.181881,37.972998,6999.4220184000005,0.021,-1.449,0.003
1.6198,128.181881,37.973044,6999.3308832,0.022,-1.462,0.003
1.6366,128.181881,37.97309,6999.2385288000005,0.022,-1.475,0.003
1.6533,128.181881,37.973136,6999.1449552,0.022,-1.488,0.003
1.67,128.181881,37.973182,6999.0501624,0.023,-1.501,0.003
1.6867,128.181881,37.973227,6998.954455200001,0.023,-1.514,0.003
1.7034,128.181881,37.973273,6998.857224,0.024,-1.527,0.003
1.7201,128.181881,37.973319,6998.7590784,0.024,-1.54,0.003
1.7368,128.181881,37.973365,6998.660018400001,0.025,-1.552,0.003
1.7535,128.181881,37.973411,6998.5594344,0.025,-1.565,0.003
1.7702,128.181881,37.973457,6998.457936000001,0.025,-1.578,0.003
1.7869,128.181881,37.973503,6998.3552184,0.026,-1.591,0.003
1.8036,128.181881,37.973549,6998.2512816,0.026,-1.604,0.003
1.8203,128.181881,37.973595,6998.1461256,0.027,-1.616,0.003
1.837,128.181881,37.973641,6998.0400552,0.027,-1.629,0.003
1.8537,128.181881,37.973687,6997.932460800001,0.028,-1.642,0.003
1.8704,128.181881,37.973732,6997.823952000001,0.028,-1.655,0.004
1.8871,128.181881,37.973778,6997.714528800001,0.028,-1.667,0.004
1.9038,128.181881,37.973824,6997.6035816,0.029,-1.68,0.004
1.9205,128.181881,37.97387,6997.491720000001,0.029,-1.693,0.004
1.9372,128.181881,37.973916,6997.3786392,0.03,-1.705,0.004
1.9539,128.181881,37.973962,6997.2643392,0.03,-1.718,0.004
1.9706,128.181881,37.974009,6997.149124800001,0.031,-1.731,0.004
1.9873,128.181881,37.974055,6997.0323864,0.031,-1.743,0.004
2.004,128.181881,37.974101,6996.914733600001,0.032,-1.756,0.004
2.0207,128.181881,37.974147,6996.7961663999995,0.032,-1.769,0.004
2.0374,128.181881,37.974193,6996.6760752,0.033,-1.781,0.004
2.0541,128.181881,37.974239,6996.555069600001,0.033,-1.794,0.004
2.0707,128.181881,37.974285,6996.432844800001,0.034,-1.806,0.004
2.0875,128.181881,37.974331,6996.309400800001,0.034,-1.819,0.004
2.1042,128.181881,37.974377,6996.1847376000005,0.034,-1.832,0.004
2.1208,128.181881,37.974423,6996.059160000001,0.035,-1.844,0.004
2.1376,128.181881,37.974469,6995.9323632000005,0.035,-1.857,0.004
2.1543,128.181881,37.974516,6995.804347200001,0.036,-1.869,0.004
2.171,128.181881,37.974562,6995.6754168,0.036,-1.882,0.005
2.1877,128.181882,37.974608,6995.5449624,0.037,-1.894,0.005
2.2044,128.181882,37.974654,6995.4135936,0.037,-1.907,0.005
2.2211,128.181882,37.9747,6995.281310400001,0.038,-1.919,0.005
2.2378,128.181882,37.974746,6995.1475032,0.038,-1.932,0.005
2.2544,128.181882,37.974793,6995.0127816,0.039,-1.944,0.005
2.2712,128.181882,37.974839,6994.8768408000005,0.039,-1.957,0.005
2.2879,128.181882,37.974885,6994.7396808,0.04,-1.969,0.005
2.3045,128.181882,37.974931,6994.6016064000005,0.04,-1.981,0.005
2.3213,128.181882,37.974978,6994.462008,0.041,-1.994,0.005
2.338,128.181882,37.975024,6994.3214952,0.041,-2.006,0.005
2.3546,128.181882,37.97507,6994.180068000001,0.042,-2.019,0.005
2.3714,128.181882,37.975116,6994.0371168,0.042,-2.031,0.005
2.3881,128.181882,37.975163,6993.893251200001,0.043,-2.044,0.005
2.4048,128.181882,37.975209,6993.7481664,0.043,-2.056,0.005
2.4215,128.181882,37.975255,6993.6021672,0.044,-2.068,0.005
2.4382,128.181882,37.975302,6993.454644,0.044,-2.081,0.006
2.4549,128.181882,37.975348,6993.3062064000005,0.045,-2.093,0.006
2.4716,128.181882,37.975394,6993.1568544,0.045,-2.105,0.006
2.4882,128.181882,37.975441,6993.0059784000005,0.046,-2.118,0.006
2.505,128.181882,37.975487,6992.854188000001,0.046,-2.13,0.006
2.5217,128.181882,37.975533,6992.701178400001,0.047,-2.142,0.006
2.5383,128.181882,37.97558,6992.5469496000005,0.047,-2.154,0.006
2.5551,128.181882,37.975626,6992.391806400001,0.048,-2.167,0.006
2.5718,128.181882,37.975672,6992.235444,0.048,-2.179,0.006
2.5884,128.181882,37.975719,6992.0778624,0.049,-2.191,0.006
2.6052,128.181882,37.975765,6991.9190616,0.05,-2.203,0.006
2.6219,128.181882,37.975812,6991.7593464,0.05,-2.216,0.006
2.6386,128.181882,37.975858,6991.598412,0.051,-2.228,0.006
2.6553,128.181882,37.975905,6991.4362584,0.051,-2.24,0.006
2.6719,128.181882,37.975951,6991.2731904,0.052,-2.252,0.006
2.6887,128.181882,37.975998,6991.1089032,0.052,-2.265,0.006
2.7054,128.181882,37.976044,6990.9433968,0.053,-2.277,0.007
2.722,128.181882,37.976091,6990.776976,0.053,-2.289,0.007
2.7388,128.181882,37.976137,6990.609031200001,0.054,-2.301,0.007
2.7555,128.181882,37.976184,6990.4404768,0.054,-2.313,0.007
2.7721,128.181882,37.97623,6990.2703984,0.055,-2.325,0.007
2.7889,128.181882,37.976277,6990.099405600001,0.056,-2.337,0.007
2.8056,128.181882,37.976323,6989.9271936,0.056,-2.35,0.007
2.8222,128.181882,37.97637,6989.7537624,0.057,-2.362,0.007
2.839,128.181882,37.976416,6989.579112,0.057,-2.374,0.007
2.8557,128.181882,37.976463,6989.4035472000005,0.058,-2.386,0.007
2.8724,128.181882,37.976509,6989.227068,0.058,-2.398,0.007
2.8891,128.181882,37.976556,6989.0490648,0.059,-2.41,0.007
2.9057,128.181882,37.976603,6988.870147200001,0.059,-2.422,0.007
2.9225,128.181882,37.976649,6988.690010400001,0.06,-2.434,0.007
2.9392,128.181882,37.976696,6988.5086544000005,0.061,-2.446,0.007
2.9558,128.181882,37.976743,6988.326384000001,0.061,-2.458,0.007
2.9726,128.181882,37.976789,6988.1428944,0.062,-2.47,0.008
2.9893,128.181882,37.976836,6987.9584904,0.062,-2.482,0.008
3.0059,128.181882,37.976883,6987.7725624,0.063,-2.494,0.008
3.0227,128.181882,37.976929,6987.585720000001,0.063,-2.506,0.008
3.0394,128.181882,37.976976,6987.3979632,0.064,-2.518,0.008
3.056,128.181882,37.977023,6987.208682400001,0.065,-2.53,0.008
3.0728,128.181882,37.977069,6987.018487200001,0.065,-2.542,0.008
3.0895,128.181882,37.977116,6986.827377600001,0.066,-2.554,0.008
3.1062,128.181882,37.977163,6986.634744,0.066,-2.566,0.008
3.1229,128.181882,37.97721,6986.441196000001,0.067,-2.577,0.008
3.1395,128.181882,37.977256,6986.246428800001,0.068,-2.589,0.008
3.1563,128.181882,37.977303,6986.050747200001,0.068,-2.601,0.008
3.173,128.181882,37.97735,6985.8538464,0.069,-2.613,0.008
3.1896,128.181882,37.977397,6985.6557264,0.069,-2.625,0.008
3.2064,128.181882,37.977444,6985.456692000001,0.07,-2.637,0.008
3.2231,128.181882,37.97749,6985.256438400001,0.07,-2.649,0.009
3.2397,128.181882,37.977537,6985.054965600001,0.071,-2.661,0.009
3.2565,128.181882,37.977584,6984.8525784,0.072,-2.673,0.009
3.2732,128.181882,37.977631,6984.648972,0.072,-2.685,0.009
3.2899,128.181882,37.977678,6984.4441464,0.073,-2.696,0.009
3.3066,128.181882,37.977725,6984.238406400001,0.074,-2.708,0.009
3.3233,128.181882,37.977772,6984.031447200001,0.074,-2.72,0.009
3.34,128.181882,37.977819,6983.823268800001,0.075,-2.732,0.009
3.3567,128.181882,37.977865,6983.614176,0.075,-2.744,0.009
3.3734,128.181883,37.977912,6983.403864000001,0.076,-2.756,0.009
3.3901,128.181883,37.977959,6983.1923328,0.077,-2.768,0.009
3.4068,128.181883,37.978006,6982.9798872,0.077,-2.78,0.009
3.4235,128.181883,37.978053,6982.7662224000005,0.078,-2.792,0.009
3.4402,128.181883,37.9781,6982.5513384000005,0.078,-2.804,0.009
3.4569,128.181883,37.978147,6982.33554,0.079,-2.816,0.01
3.4736,128.181883,37.978194,6982.1185224,0.08,-2.828,0.01
3.4903,128.181883,37.978241,6981.9002856,0.08,-2.839,0.01
3.507,128.181883,37.978288,6981.6811344,0.081,-2.851,0.01
3.5237,128.181883,37.978335,6981.460764,0.082,-2.863,0.01
3.5404,128.181883,37.978382,6981.2394792000005,0.082,-2.875,0.01
3.5571,128.181883,37.978429,6981.0169752,0.083,-2.887,0.01
3.5738,128.181883,37.978476,6980.793252,0.083,-2.899,0.01
3.5905,128.181883,37.978523,6980.5683096,0.084,-2.911,0.01
3.6072,128.181883,37.97857,6980.3424528,0.085,-2.923,0.01
3.6239,128.181883,37.978618,6980.1153768,0.085,-2.935,0.01
3.6406,128.181883,37.978665,6979.887386400001,0.086,-2.946,0.01
3.6573,128.181883,37.978712,6979.658176800001,0.087,-2.958,0.01
3.674,128.181883,37.978759,6979.427748,0.087,-2.97,0.01
3.6907,128.181883,37.978806,6979.1964048,0.088,-2.982,0.01
3.7074,128.181883,37.978853,6978.9638424,0.089,-2.994,0.011
3.7241,128.181883,37.9789,6978.7300608000005,0.089,-3.006,0.011
3.7408,128.181883,37.978948,6978.495364800001,0.09,-3.018,0.011
3.7575,128.181883,37.978995,6978.2594496,0.09,-3.029,0.011
3.7742,128.181883,37.979042,6978.022315200001,0.091,-3.041,0.011
3.7909,128.181883,37.979089,6977.7842664,0.092,-3.053,0.011
3.8076,128.181883,37.979136,6977.5449984,0.092,-3.065,0.011
3.8243,128.181883,37.979184,6977.304816,0.093,-3.077,0.011
3.841,128.181883,37.979231,6977.0634144000005,0.094,-3.088,0.011
3.8577,128.181883,37.979278,6976.8207936,0.094,-3.1,0.011
3.8744,128.181883,37.979325,6976.5769536,0.095,-3.112,0.011
3.8911,128.181883,37.979373,6976.3321992,0.096,-3.124,0.011
3.9078,128.181883,37.97942,6976.0865304,0.096,-3.136,0.011
3.9245,128.181883,37.979467,6975.8393376,0.097,-3.147,0.011
3.9412,128.181883,37.979514,6975.5912304,0.098,-3.159,0.012
3.9579,128.181883,37.979562,6975.342208800001,0.098,-3.171,0.012
3.9746,128.181883,37.979609,6975.0916632,0.099,-3.183,0.012
3.9913,128.181883,37.979656,6974.8402032,0.1,-3.194,0.012
4.008,128.181883,37.979704,6974.5878288,0.1,-3.206,0.012
4.0247,128.181883,37.979751,6974.3339304,0.101,-3.218,0.012
4.0414,128.181883,37.979799,6974.0794224,0.102,-3.23,0.012
4.058,128.181883,37.979846,6973.8233904,0.102,-3.241,0.012
4.0748,128.181883,37.979893,6973.566444,0.103,-3.253,0.012
4.0915,128.181883,37.979941,6973.308278400001,0.104,-3.265,0.012
4.1082,128.181883,37.979988,6973.0491984,0.104,-3.277,0.012
4.1249,128.181883,37.980036,6972.7888992,0.105,-3.288,0.012
4.1415,128.181883,37.980083,6972.5273808,0.106,-3.3,0.012
4.1583,128.181883,37.980131,6972.264948,0.106,-3.312,0.012
4.175,128.181883,37.980178,6972.001296,0.107,-3.323,0.013
4.1917,128.181883,37.980226,6971.736424800001,0.108,-3.335,0.013
4.2084,128.181884,37.980273,6971.4706392,0.108,-3.347,0.013
4.2251,128.181884,37.980321,6971.2036344,0.109,-3.358,0.013
4.2417,128.181884,37.980368,6970.9354104,0.11,-3.37,0.013
4.2585,128.181884,37.980416,6970.666272,0.111,-3.382,0.013
4.2752,128.181884,37.980463,6970.395914400001,0.111,-3.393,0.013
4.2919,128.181884,37.980511,6970.124642400001,0.112,-3.405,0.013
4.3086,128.181884,37.980558,6969.852151200001,0.113,-3.417,0.013
4.3252,128.181884,37.980606,6969.5784408,0.113,-3.428,0.013
4.342,128.181884,37.980653,6969.303511200001,0.114,-3.44,0.013
4.3587,128.181884,37.980701,6969.0276672,0.115,-3.451,0.013
4.3754,128.181884,37.980749,6968.750908800001,0.115,-3.463,0.013
4.3921,128.181884,37.980796,6968.4726264,0.116,-3.475,0.014
4.4088,128.181884,37.980844,6968.1937344,0.117,-3.486,0.014
4.4254,128.181884,37.980892,6967.9133184,0.118,-3.498,0.014
4.4422,128.181884,37.980939,6967.631988000001,0.118,-3.509,0.014
4.4589,128.181884,37.980987,6967.3494384000005,0.119,-3.521,0.014
4.4756,128.181884,37.981035,6967.0659744,0.12,-3.533,0.014
4.4923,128.181884,37.981082,6966.7809864,0.12,-3.544,0.014
4.5089,128.181884,37.98113,6966.4953888,0.121,-3.556,0.014
4.5256,128.181884,37.981178,6966.2082672,0.122,-3.567,0.014
4.5424,128.181884,37.981226,6965.9202312,0.123,-3.579,0.014
4.5591,128.181884,37.981273,6965.6312808,0.123,-3.59,0.014
4.5758,128.181884,37.981321,6965.3408064000005,0.124,-3.602,0.014
4.5925,128.181884,37.981369,6965.0494176,0.125,-3.613,0.014
4.6091,128.181884,37.981417,6964.7571144,0.125,-3.625,0.014
4.6259,128.181884,37.981464,6964.463592000001,0.126,-3.636,0.015
4.6426,128.181884,37.981512,6964.1688504,0.127,-3.648,0.015
4.6593,128.181884,37.98156,6963.8728896,0.128,-3.659,0.015
4.676,128.181884,37.981608,6963.5760144000005,0.128,-3.671,0.015
4.6927,128.181884,37.981656,6963.278224800001,0.129,-3.682,0.015
4.7093,128.181884,37.981704,6962.978911200001,0.13,-3.694,0.015
4.7261,128.181884,37.981751,6962.678683200001,0.131,-3.705,0.015
4.7428,128.181884,37.981799,6962.3775408,0.131,-3.717,0.015
4.7595,128.181884,37.981847,6962.074874400001,0.132,-3.728,0.015
4.7762,128.181884,37.981895,6961.7715984,0.133,-3.739,0.015
4.7928,128.181884,37.981943,6961.4667984,0.134,-3.751,0.015
4.8096,128.181884,37.981991,6961.161084000001,0.134,-3.762,0.015
4.8263,128.181884,37.982039,6960.8541504,0.135,-3.774,0.015
4.843,128.181884,37.982087,6960.5463024,0.136,-3.785,0.016
4.8597,128.181884,37.982135,6960.2372352,0.137,-3.797,0.016
4.8764,128.181885,37.982183,6959.9269488,0.137,-3.808,0.016
4.893,128.181885,37.982231,6959.615748,0.138,-3.819,0.016
4.9098,128.181885,37.982279,6959.303328000001,0.139,-3.831,0.016
4.9265,128.181885,37.982327,6958.989688799999,0.14,-3.842,0.016
4.9432,128.181885,37.982375,6958.6751352,0.14,-3.853,0.016
4.9599,128.181885,37.982423,6958.3593624000005,0.141,-3.865,0.016
4.9765,128.181885,37.982471,6958.042675199999,0.142,-3.876,0.016
4.9932,128.181885,37.982519,6957.724768800001,0.143,-3.888,0.016
5.01,128.181885,37.982567,6957.4056432,0.143,-3.899,0.016
5.0267,128.181885,37.982615,6957.0856032,0.144,-3.91,0.016
5.0434,128.181885,37.982663,6956.764344,0.145,-3.921,0.016
5.0601,128.181885,37.982711,6956.441865600001,0.146,-3.933,0.017
5.0767,128.181885,37.98276,6956.118472800001,0.146,-3.944,0.017
5.0935,128.181885,37.982808,6955.7938608,0.147,-3.955,0.017
5.1102,128.181885,37.982856,6955.4683344,0.148,-3.967,0.017
5.1269,128.181885,37.982904,6955.1415888,0.149,-3.978,0.017
5.1436,128.181885,37.982952,6954.813624,0.15,-3.989,0.017
5.1602,128.181885,37.983,6954.4847448,0.15,-4.0,0.017
5.1769,128.181885,37.983049,6954.1546464,0.151,-4.011,0.017
5.1937,128.181885,37.983097,6953.823328800001,0.152,-4.023,0.017
5.2104,128.181885,37.983145,6953.4910968,0.153,-4.034,0.017
5.2271,128.181885,37.983193,6953.1576456,0.153,-4.045,0.017
5.2438,128.181885,37.983242,6952.82328,0.154,-4.056,0.017
5.2604,128.181885,37.98329,6952.4876952,0.155,-4.067,0.017
5.2772,128.181885,37.983338,6952.150891200001,0.156,-4.078,0.018
5.2939,128.181885,37.983386,6951.813172800001,0.157,-4.089,0.018
5.3106,128.181885,37.983435,6951.4742352,0.157,-4.1,0.018
5.3273,128.181885,37.983483,6951.1340784,0.158,-4.111,0.018
5.3439,128.181885,37.983531,6950.7930072,0.159,-4.123,0.018
5.3606,128.181885,37.98358,6950.4507168,0.16,-4.134,0.018
5.3774,128.181885,37.983628,6950.107512,0.161,-4.145,0.018
5.3941,128.181885,37.983676,6949.763088000001,0.161,-4.156,0.018
5.4108,128.181885,37.983725,6949.4177496,0.162,-4.167,0.018
5.4275,128.181885,37.983773,6949.0708872000005,0.163,-4.178,0.018
5.4441,128.181886,37.983822,6948.723415200001,0.164,-4.189,0.018
5.4609,128.181886,37.98387,6948.3744192,0.165,-4.2,0.018
5.4776,128.181886,37.983918,6948.0245088,0.165,-4.211,0.019
5.4943,128.181886,37.983967,6947.673684000001,0.166,-4.222,0.019
5.511,128.181886,37.984015,6947.32164,0.167,-4.233,0.019
5.5277,128.181886,37.984064,6946.9683768,0.168,-4.243,0.019
5.5443,128.181886,37.984112,6946.6141992,0.169,-4.254,0.019
5.5611,128.181886,37.984161,6946.2588024,0.17,-4.265,0.019
5.5778,128.181886,37.984209,6945.902186400001,0.17,-4.276,0.019
5.5945,128.181886,37.984258,6945.544656000001,0.171,-4.287,0.019
5.6112,128.181886,37.984306,6945.185906400001,0.172,-4.298,0.019
5.6278,128.181886,37.984355,6944.8262424,0.173,-4.309,0.019
5.6445,128.181886,37.984403,6944.4653592,0.174,-4.32,0.019
5.6613,128.181886,37.984452,6944.1035616,0.174,-4.331,0.019
5.678,128.181886,37.984501,6943.74024,0.175,-4.341,0.019
5.6947,128.181886,37.984549,6943.3763088000005,0.176,-4.352,0.02
5.7114,128.181886,37.984598,6943.011158400001,0.177,-4.363,0.02
5.728,128.181886,37.984646,6942.6447888,0.178,-4.374,0.02
5.7448,128.181886,37.984695,6942.2772,0.179,-4.385,0.02
5.7615,128.181886,37.984744,6941.908696800001,0.179,-4.396,0.02
5.7782,128.181886,37.984792,6941.539279200001,0.18,-4.406,0.02
5.7949,128.181886,37.984841,6941.168337600001,0.181,-4.417,0.02
5.8115,128.181886,37.98489,6940.7967864,0.182,-4.428,0.02
5.8282,128.181886,37.984938,6940.423711200001,0.183,-4.439,0.02
5.845,128.181886,37.984987,6940.0500264,0.184,-4.449,0.02
5.8617,128.181886,37.985036,6939.6748176,0.185,-4.46,0.02
5.8784,128.181886,37.985084,6939.2986944,0.185,-4.471,0.02
5.8951,128.181886,37.985133,6938.921352000001,0.186,-4.482,0.021
5.9117,128.181886,37.985182,6938.543095200001,0.187,-4.492,0.021
5.9285,128.181887,37.985231,6938.1636192000005,0.188,-4.503,0.021
5.9452,128.181887,37.985279,6937.783228800001,0.189,-4.514,0.021
5.9619,128.181887,37.985328,6937.401619200001,0.19,-4.524,0.021
5.9786,128.181887,37.985377,6937.0190952,0.191,-4.535,0.021
5.9952,128.181887,37.985426,6936.635352000001,0.191,-4.546,0.021
6.0119,128.181887,37.985475,6936.2503896,0.192,-4.556,0.021
6.0287,128.181887,37.985523,6935.8645128,0.193,-4.567,0.021
6.0454,128.181887,37.985572,6935.4774168,0.194,-4.578,0.021
6.0621,128.181887,37.985621,6935.0894064,0.195,-4.588,0.021
6.0788,128.181887,37.98567,6934.7001768,0.196,-4.599,0.021
6.0954,128.181887,37.985719,6934.310032800001,0.197,-4.61,0.022
6.1121,128.181887,37.985768,6933.918669600001,0.197,-4.62,0.022
6.1289,128.181887,37.985817,6933.526392000001,0.198,-4.631,0.022
6.1456,128.181887,37.985866,6933.1328952,0.199,-4.641,0.022
6.1623,128.181887,37.985915,6932.738179200001,0.2,-4.652,0.022
6.179,128.181887,37.985963,6932.3425488,0.201,-4.662,0.022
6.1956,128.181887,37.986012,6931.9456992000005,0.202,-4.673,0.022
6.2124,128.181887,37.986061,6931.5479352,0.203,-4.684,0.022
6.2291,128.181887,37.98611,6931.1489520000005,0.204,-4.694,0.022
6.2458,128.181887,37.986159,6930.7490544,0.204,-4.705,0.022
6.2625,128.181887,37.986208,6930.3479376000005,0.205,-4.715,0.022
6.2791,128.181887,37.986257,6929.945906400001,0.206,-4.726,0.023
6.2958,128.181887,37.986306,6929.5426560000005,0.207,-4.736,0.023
6.3126,128.181887,37.986355,6929.1381864,0.208,-4.747,0.023
6.3293,128.181887,37.986405,6928.7328024,0.209,-4.757,0.023
6.346,128.181887,37.986454,6928.326504000001,0.21,-4.768,0.023
6.3627,128.181887,37.986503,6927.9189864,0.211,-4.778,0.023
6.3793,128.181888,37.986552,6927.5102496,0.212,-4.788,0.023
6.3961,128.181888,37.986601,6927.1005984,0.213,-4.799,0.023
6.4128,128.181888,37.98665,6926.689728,0.213,-4.809,0.023
6.4295,128.181888,37.986699,6926.2779432,0.214,-4.82,0.023
6.4462,128.181888,37.986748,6925.8649392,0.215,-4.83,0.023
6.4628,128.181888,37.986797,6925.4510208,0.216,-4.841,0.023
6.4795,128.181888,37.986847,6925.035883200001,0.217,-4.851,0.024
6.4963,128.181888,37.986896,6924.619831200001,0.218,-4.861,0.024
6.513,128.181888,37.986945,6924.202560000001,0.219,-4.872,0.024
6.5297,128.181888,37.986994,6923.784374400001,0.22,-4.882,0.024
6.5464,128.181888,37.987043,6923.364969600001,0.221,-4.892,0.024
6.5631,128.181888,37.987092,6922.944650400001,0.222,-4.903,0.024
6.5798,128.181888,37.987142,6922.523112,0.223,-4.913,0.024
6.5965,128.181888,37.987191,6922.1006592,0.223,-4.923,0.024
6.6132,128.181888,37.98724,6921.6769872,0.224,-4.934,0.024
6.6299,128.181888,37.987289,6921.252096,0.225,-4.944,0.024
6.6466,128.181888,37.987339,6920.8262904,0.226,-4.954,0.024
6.6633,128.181888,37.987388,6920.399570400001,0.227,-4.965,0.025
6.68,128.181888,37.987437,6919.9716312,0.228,-4.975,0.025
6.6967,128.181888,37.987487,6919.542472800001,0.229,-4.985,0.025
6.7134,128.181888,37.987536,6919.1124,0.23,-4.995,0.025
6.7301,128.181888,37.987585,6918.6814128000005,0.231,-5.006,0.025
6.7468,128.181888,37.987635,6918.249206400001,0.232,-5.016,0.025
6.7635,128.181888,37.987684,6917.8157808000005,0.233,-5.026,0.025
6.7802,128.181888,37.987733,6917.381440800001,0.234,-5.036,0.025
6.7969,128.181889,37.987783,6916.9461864,0.235,-5.047,0.025
6.8136,128.181889,37.987832,6916.5097128,0.236,-5.057,0.025
6.8303,128.181889,37.987882,6916.072324800001,0.237,-5.067,0.025
6.847,128.181889,37.987931,6915.633717600001,0.237,-5.077,0.026
6.8637,128.181889,37.987981,6915.1938912000005,0.238,-5.087,0.026
6.8804,128.181889,37.98803,6914.753150400001,0.239,-5.098,0.026
6.8971,128.181889,37.988079,6914.3114952000005,0.24,-5.108,0.026
6.9138,128.181889,37.988129,6913.8686208,0.241,-5.118,0.026
6.9305,128.181889,37.988178,6913.424527200001,0.242,-5.128,0.026
6.9472,128.181889,37.988228,6912.979519200001,0.243,-5.138,0.026
6.9639,128.181889,37.988277,6912.533596800001,0.244,-5.148,0.026
6.9806,128.181889,37.988327,6912.0864552,0.245,-5.158,0.026
6.9973,128.181889,37.988376,6911.6383992,0.246,-5.169,0.026
7.014,128.181889,37.988426,6911.189124,0.247,-5.179,0.026
7.0307,128.181889,37.988476,6910.7389344,0.248,-5.189,0.026
7.0474,128.181889,37.988525,6910.2875256,0.249,-5.199,0.027
7.0641,128.181889,37.988575,6909.8352024,0.25,-5.209,0.027
7.0808,128.181889,37.988624,6909.381660000001,0.251,-5.219,0.027
7.0975,128.181889,37.988674,6908.9272032,0.252,-5.229,0.027
7.1142,128.181889,37.988724,6908.4715272,0.253,-5.239,0.027
7.1309,128.181889,37.988773,6908.0149368,0.254,-5.249,0.027
7.1476,128.181889,37.988823,6907.557127200001,0.255,-5.259,0.027
7.1643,128.18189,37.988872,6907.0984032,0.256,-5.269,0.027
7.181,128.18189,37.988922,6906.63846,0.257,-5.279,0.027
7.1977,128.18189,37.988972,6906.1776024,0.258,-5.289,0.027
7.2144,128.18189,37.989021,6905.7158304,0.259,-5.299,0.028
7.2311,128.18189,37.989071,6905.2528392,0.26,-5.309,0.028
7.2478,128.18189,37.989121,6904.788933600001,0.261,-5.319,0.028
7.2645,128.18189,37.989171,6904.3238088,0.262,-5.329,0.028
7.2812,128.18189,37.98922,6903.8574648,0.263,-5.339,0.028
7.2979,128.18189,37.98927,6903.390511200001,0.264,-5.349,0.028
7.3146,128.18189,37.98932,6902.922033600001,0.265,-5.359,0.028
7.3313,128.18189,37.98937,6902.452946400001,0.266,-5.369,0.028
7.348,128.18189,37.989419,6901.9823352,0.267,-5.379,0.028
7.3647,128.18189,37.989469,6901.5111144,0.268,-5.389,0.028
7.3814,128.18189,37.989519,6901.038674400001,0.269,-5.399,0.028
7.3981,128.18189,37.989569,6900.565015200001,0.27,-5.409,0.029
7.4148,128.18189,37.989619,6900.0904416,0.271,-5.418,0.029
7.4315,128.18189,37.989668,6899.6149536,0.272,-5.428,0.029
7.4482,128.18189,37.989718,6899.138246400001,0.273,-5.438,0.029
7.4649,128.18189,37.989768,6898.660624800001,0.274,-5.448,0.029
7.4816,128.18189,37.989818,6898.181784000001,0.275,-5.458,0.029
7.4983,128.18189,37.989868,6897.7020288,0.276,-5.468,0.029
7.515,128.181891,37.989918,6897.2210544,0.277,-5.478,0.029
7.5317,128.181891,37.989968,6896.739165600001,0.278,-5.487,0.029
7.5484,128.181891,37.990018,6896.2563624,0.279,-5.497,0.029
7.5651,128.181891,37.990068,6895.77234,0.28,-5.507,0.029
7.5818,128.181891,37.990118,6895.2870984,0.281,-5.517,0.03
7.5985,128.181891,37.990168,6894.801247200001,0.282,-5.527,0.03
7.6152,128.181891,37.990218,6894.313872,0.283,-5.536,0.03
7.6319,128.181891,37.990268,6893.825887200001,0.284,-5.546,0.03
7.6486,128.181891,37.990318,6893.336683200001,0.285,-5.556,0.03
7.6653,128.181891,37.990368,6892.84626,0.286,-5.566,0.03
7.682,128.181891,37.990418,6892.3549224,0.287,-5.575,0.03
7.6987,128.181891,37.990468,6891.862670400001,0.288,-5.585,0.03
7.7154,128.181891,37.990518,6891.3691992,0.289,-5.595,0.03
7.7321,128.181891,37.990568,6890.8748136,0.29,-5.605,0.03
7.7488,128.181891,37.990618,6890.3792088,0.291,-5.614,0.031
7.7655,128.181891,37.990668,6889.8826896,0.292,-5.624,0.031
7.7822,128.181891,37.990718,6889.3852560000005,0.293,-5.634,0.031
7.7989,128.181891,37.990768,6888.8866032,0.294,-5.643,0.031
7.8156,128.181891,37.990818,6888.387036,0.295,-5.653,0.031
7.8323,128.181891,37.990868,6887.8862496,0.296,-5.663,0.031
7.849,128.181892,37.990918,6887.3845488,0.297,-5.672,0.031
7.8657,128.181892,37.990969,6886.881933600001,0.298,-5.682,0.031
7.8824,128.181892,37.991019,6886.3780992,0.3,-5.692,0.031
7.8991,128.181892,37.991069,6885.8730456,0.301,-5.701,0.031
7.9158,128.181892,37.991119,6885.367382400001,0.302,-5.711,0.032
7.9325,128.181892,37.991169,6884.860500000001,0.303,-5.721,0.032
7.9492,128.181892,37.991219,6884.3523984,0.304,-5.73,0.032
7.9659,128.181892,37.99127,6883.8433824,0.305,-5.74,0.032
7.9826,128.181892,37.99132,6883.333452000001,0.306,-5.749,0.032
7.9993,128.181892,37.99137,6882.8223024,0.307,-5.759,0.032
8.016,128.181892,37.99142,6882.310238400001,0.308,-5.768,0.032
8.0327,128.181892,37.991471,6881.79726,0.309,-5.778,0.032
8.0494,128.181892,37.991521,6881.2830624,0.31,-5.788,0.032
8.0661,128.181892,37.991571,6880.767645600001,0.311,-5.797,0.032
8.0828,128.181892,37.991622,6880.2516192,0.312,-5.807,0.033
8.0994,128.181892,37.991672,6879.7343736,0.313,-5.816,0.033
8.1161,128.181892,37.991722,6879.2159088,0.315,-5.826,0.033
8.1329,128.181892,37.991773,6878.6965296,0.316,-5.835,0.033
8.1496,128.181893,37.991823,6878.176236,0.317,-5.845,0.033
8.1663,128.181893,37.991873,6877.655028,0.318,-5.854,0.033
8.183,128.181893,37.991924,6877.132600800001,0.319,-5.864,0.033
8.1997,128.181893,37.991974,6876.608954400001,0.32,-5.873,0.033
8.2164,128.181893,37.992024,6876.0846984,0.321,-5.883,0.033
8.2331,128.181893,37.992075,6875.5589184,0.322,-5.892,0.033
8.2498,128.181893,37.992125,6875.0325288,0.323,-5.902,0.034
8.2665,128.181893,37.992176,6874.504920000001,0.324,-5.911,0.034
8.2831,128.181893,37.992226,6873.976396800001,0.325,-5.92,0.034
8.2998,128.181893,37.992277,6873.446654400001,0.327,-5.93,0.034
8.3166,128.181893,37.992327,6872.915997600001,0.328,-5.939,0.034
8.3333,128.181893,37.992378,6872.3844264,0.329,-5.949,0.034
8.35,128.181893,37.992428,6871.851636,0.33,-5.958,0.034
8.3667,128.181893,37.992478,6871.3179312,0.331,-5.967,0.034
8.3834,128.181893,37.992529,6870.783312,0.332,-5.977,0.034
8.4001,128.181893,37.99258,6870.2474736,0.333,-5.986,0.034
8.4168,128.181893,37.99263,6869.7107208,0.334,-5.996,0.035
8.4335,128.181893,37.992681,6869.1727488,0.335,-6.005,0.035
8.4502,128.181894,37.992731,6868.6338624,0.336,-6.014,0.035
8.4668,128.181894,37.992782,6868.0940616,0.338,-6.024,0.035
8.4835,128.181894,37.992832,6867.553346400001,0.339,-6.033,0.035
8.5003,128.181894,37.992883,6867.011412,0.34,-6.042,0.035
8.517,128.181894,37.992934,6866.4682584,0.341,-6.052,0.035
8.5337,128.181894,37.992984,6865.9244952,0.342,-6.061,0.035
8.5504,128.181894,37.993035,6865.3795128,0.343,-6.07,0.035
8.5671,128.181894,37.993085,6864.833311200001,0.344,-6.08,0.035
8.5838,128.181894,37.993136,6864.2865,0.345,-6.089,0.036
8.6005,128.181894,37.993187,6863.738469600001,0.347,-6.098,0.036
8.6172,128.181894,37.993237,6863.189220000001,0.348,-6.107,0.036
8.6339,128.181894,37.993288,6862.639360800001,0.349,-6.117,0.036
8.6505,128.181894,37.993339,6862.0879776,0.35,-6.126,0.036
8.6672,128.181894,37.993389,6861.5359848,0.351,-6.135,0.036
8.684,128.181894,37.99344,6860.9827728,0.352,-6.144,0.036
8.7007,128.181894,37.993491,6860.428646400001,0.353,-6.154,0.036
8.7174,128.181895,37.993542,6859.873605600001,0.355,-6.163,0.036
8.7341,128.181895,37.993592,6859.3173456,0.356,-6.172,0.037
8.7508,128.181895,37.993643,6858.7601712,0.357,-6.181,0.037
8.7675,128.181895,37.993694,6858.2020824,0.358,-6.19,0.037
8.7842,128.181895,37.993745,6857.642774400001,0.359,-6.2,0.037
8.8009,128.181895,37.993796,6857.082552000001,0.36,-6.209,0.037
8.8176,128.181895,37.993846,6856.521415200001,0.361,-6.218,0.037
8.8342,128.181895,37.993897,6855.9590592,0.363,-6.227,0.037
8.8509,128.181895,37.993948,6855.3957887999995,0.364,-6.236,0.037
8.8676,128.181895,37.993999,6854.8312992,0.365,-6.245,0.037
8.8844,128.181895,37.99405,6854.2662,0.366,-6.254,0.037
8.9011,128.181895,37.994101,6853.6998816000005,0.367,-6.264,0.038
8.9178,128.181895,37.994151,6853.1326488,0.368,-6.273,0.038
8.9345,128.181895,37.994202,6852.564196800001,0.37,-6.282,0.038
8.9512,128.181895,37.994253,6851.9948304,0.371,-6.291,0.038
8.9679,128.181895,37.994304,6851.4245496,0.372,-6.3,0.038
8.9846,128.181896,37.994355,6850.8530496,0.373,-6.309,0.038
9.0013,128.181896,37.994406,6850.2806352,0.374,-6.318,0.038
9.0179,128.181896,37.994457,6849.707306400001,0.375,-6.327,0.038
9.0346,128.181896,37.994508,6849.1330632,0.377,-6.336,0.038
9.0513,128.181896,37.994559,6848.557600800001,0.378,-6.345,0.039
9.0681,128.181896,37.99461,6847.981224000001,0.379,-6.354,0.039
9.0848,128.181896,37.994661,6847.403932800001,0.38,-6.363,0.039
9.1015,128.181896,37.994712,6846.8254224,0.381,-6.372,0.039
9.1182,128.181896,37.994763,6846.245997600001,0.383,-6.381,0.039
9.1349,128.181896,37.994814,6845.6656584,0.384,-6.39,0.039
9.1516,128.181896,37.994865,6845.0841,0.385,-6.399,0.039
9.1683,128.181896,37.994916,6844.5016272,0.386,-6.408,0.039
9.185,128.181896,37.994967,6843.91824,0.387,-6.417,0.039
9.2016,128.181896,37.995018,6843.333938400001,0.389,-6.426,0.04
9.2183,128.181896,37.995069,6842.7484176,0.39,-6.435,0.04
9.235,128.181897,37.99512,6842.161982400001,0.391,-6.444,0.04
9.2518,128.181897,37.995171,6841.5746328000005,0.392,-6.453,0.04
9.2685,128.181897,37.995223,6840.986064000001,0.393,-6.462,0.04
9.2852,128.181897,37.995274,6840.3965808,0.395,-6.471,0.04
9.3019,128.181897,37.995325,6839.8061832,0.396,-6.48,0.04
9.3186,128.181897,37.995376,6839.2148712,0.397,-6.489,0.04
9.3353,128.181897,37.995427,6838.62234,0.398,-6.498,0.04
9.352,128.181897,37.995478,6838.0288944,0.399,-6.507,0.041
9.3687,128.181897,37.99553,6837.4345344,0.401,-6.516,0.041
9.3854,128.181897,37.995581,6836.838955200001,0.402,-6.524,0.041
9.402,128.181897,37.995632,6836.2424616,0.403,-6.533,0.041
9.4187,128.181897,37.995683,6835.6450536,0.404,-6.542,0.041
9.4355,128.181897,37.995734,6835.0467312,0.406,-6.551,0.041
9.4522,128.181897,37.995786,6834.4471896000005,0.407,-6.56,0.041
9.4689,128.181898,37.995837,6833.8467336,0.408,-6.569,0.041
9.4856,128.181898,37.995888,6833.245363200001,0.409,-6.578,0.041
9.5023,128.181898,37.995939,6832.6430784,0.41,-6.586,0.042
9.519,128.181898,37.995991,6832.039574400001,0.412,-6.595,0.042
9.5357,128.181898,37.996042,6831.4351560000005,0.413,-6.604,0.042
9.5524,128.181898,37.996093,6830.829823200001,0.414,-6.613,0.042
9.5691,128.181898,37.996145,6830.2232711999995,0.415,-6.622,0.042
9.5857,128.181898,37.996196,6829.6161096000005,0.417,-6.63,0.042
9.6024,128.181898,37.996247,6829.007728800001,0.418,-6.639,0.042
9.6192,128.181898,37.996299,6828.398433600001,0.419,-6.648,0.042
9.6359,128.181898,37.99635,6827.787919200001,0.42,-6.657,0.042
9.6526,128.181898,37.996402,6827.1764904,0.422,-6.665,0.043
9.6693,128.181898,37.996453,6826.564147200001,0.423,-6.674,0.043
9.686,128.181898,37.996504,6825.9508896,0.424,-6.683,0.043
9.7027,128.181899,37.996556,6825.3367176,0.425,-6.692,0.043
9.7194,128.181899,37.996607,6824.7213264,0.427,-6.7,0.043
9.7361,128.181899,37.996659,6824.1050208,0.428,-6.709,0.043
9.7528,128.181899,37.99671,6823.4878008000005,0.429,-6.718,0.043
9.7694,128.181899,37.996761,6822.8693616,0.43,-6.727,0.043
9.7861,128.181899,37.996813,6822.2503128,0.432,-6.735,0.043
9.8029,128.181899,37.996864,6821.6300448,0.433,-6.744,0.044
9.8196,128.181899,37.996916,6821.0088624,0.434,-6.753,0.044
9.8363,128.181899,37.996967,6820.3864608,0.435,-6.761,0.044
9.853,128.181899,37.997019,6819.7634496,0.437,-6.77,0.044
9.8697,128.181899,37.99707,6819.1392192,0.438,-6.779,0.044
9.8864,128.181899,37.997122,6818.514074400001,0.439,-6.787,0.044
9.9031,128.181899,37.997174,6817.8877104,0.44,-6.796,0.044
9.9198,128.181899,37.997225,6817.260736800001,0.442,-6.804,0.044
9.9365,128.1819,37.997277,6816.632544,0.443,-6.813,0.045
9.9531,128.1819,37.997328,6816.003436800001,0.444,-6.822,0.045
9.9698,128.1819,37.99738,6815.373415200001,0.446,-6.83,0.045
9.9865,128.1819,37.997432,6814.742174400001,0.447,-6.839,0.045
10.0033,128.1819,37.997483,6814.1100192,0.448,-6.847,0.045
10.02,128.1819,37.997535,6813.4769496,0.449,-6.856,0.045
10.0367,128.1819,37.997586,6812.842965600001,0.451,-6.865,0.045
10.0534,128.1819,37.997638,6812.2080672,0.452,-6.873,0.045
10.0701,128.1819,37.99769,6811.5719496,0.453,-6.882,0.045
10.0868,128.1819,37.997741,6810.9352224,0.455,-6.89,0.046
10.1035,128.1819,37.997793,6810.2969712,0.456,-6.899,0.046
10.1202,128.1819,37.997845,6809.658110400001,0.457,-6.907,0.046
10.1368,128.1819,37.997896,6809.0183352,0.459,-6.916,0.046
10.1535,128.181901,37.997948,6808.377340800001,0.46,-6.924,0.046
10.1702,128.181901,37.998,6807.735432,0.461,-6.933,0.046
10.187,128.181901,37.998052,6807.092608800001,0.462,-6.941,0.046
10.2037,128.181901,37.998103,6806.4488712,0.464,-6.95,0.046
10.2204,128.181901,37.998155,6805.8039144,0.465,-6.958,0.047
10.2371,128.181901,37.998207,6805.158348,0.466,-6.967,0.047
10.2538,128.181901,37.998259,6804.5115624,0.468,-6.975,0.047
10.2705,128.181901,37.998311,6803.8638624000005,0.469,-6.984,0.047
10.2872,128.181901,37.998362,6803.2149432,0.47,-6.992,0.047
10.3039,128.181901,37.998414,6802.565414400001,0.472,-7.001,0.047
10.3205,128.181901,37.998466,6801.9146664,0.473,-7.009,0.047
10.3372,128.181901,37.998518,6801.263004,0.474,-7.018,0.047
10.3539,128.181902,37.99857,6800.6104272,0.476,-7.026,0.047
10.3707,128.181902,37.998622,6799.9569360000005,0.477,-7.034,0.048
10.3874,128.181902,37.998673,6799.3022256,0.478,-7.043,0.048
10.4041,128.181902,37.998725,6798.6469056000005,0.48,-7.051,0.048
10.4208,128.181902,37.998777,6797.9903664,0.481,-7.06,0.048
10.4375,128.181902,37.998829,6797.3329128000005,0.482,-7.068,0.048
10.4542,128.181902,37.998881,6796.6745448,0.484,-7.076,0.048
10.4709,128.181902,37.998933,6796.0149576,0.485,-7.085,0.048
10.4876,128.181902,37.998985,6795.354760800001,0.486,-7.093,0.048
10.5042,128.181902,37.999037,6794.6933448,0.488,-7.101,0.049
10.5209,128.181902,37.999089,6794.0310144000005,0.489,-7.11,0.049
10.5376,128.181902,37.999141,6793.3677696,0.49,-7.118,0.049
10.5544,128.181903,37.999193,6792.703305600001,0.492,-7.126,0.049
10.5711,128.181903,37.999245,6792.038232000001,0.493,-7.135,0.049
10.5878,128.181903,37.999297,6791.3719392,0.494,-7.143,0.049
10.6045,128.181903,37.999349,6790.704732,0.496,-7.151,0.049
10.6212,128.181903,37.999401,6790.0366104,0.497,-7.16,0.049
10.6379,128.181903,37.999453,6789.367574400001,0.498,-7.168,0.05
10.6546,128.181903,37.999505,6788.697624,0.5,-7.176,0.05
10.6713,128.181903,37.999557,6788.0264544,0.501,-7.185,0.05
10.6879,128.181903,37.999609,6787.354370400001,0.502,-7.193,0.05
10.7046,128.181903,37.999661,6786.6816768,0.504,-7.201,0.05
10.7213,128.181903,37.999713,6786.007764000001,0.505,-7.209,0.05
10.7381,128.181903,37.999766,6785.332632000001,0.506,-7.218,0.05
10.7548,128.181904,37.999818,6784.6568904000005,0.508,-7.226,0.05
10.7715,128.181904,37.99987,6783.9799296,0.509,-7.234,0.051
10.7882,128.181904,37.999922,6783.3023592,0.511,-7.242,0.051
10.8049,128.181904,37.999974,6782.6235696,0.512,-7.25,0.051
10.8216,128.181904,38.000026,6781.943865600001,0.513,-7.259,0.051
10.8383,128.181904,38.000078,6781.2632472000005,0.515,-7.267,0.051
10.855,128.181904,38.000131,6780.5814096,0.516,-7.275,0.051
10.8717,128.181904,38.000183,6779.8989624,0.517,-7.283,0.051
10.8883,128.181904,38.000235,6779.215296,0.519,-7.291,0.051
10.905,128.181904,38.000287,6778.53102,0.52,-7.3,0.052
10.9218,128.181904,38.00034,6777.845524800001,0.522,-7.308,0.052
10.9385,128.181905,38.000392,6777.159115200001,0.523,-7.316,0.052
10.9552,128.181905,38.000444,6776.471486400001,0.524,-7.324,0.052
10.9719,128.181905,38.000496,6775.783248,0.526,-7.332,0.052
10.9886,128.181905,38.000549,6775.0940952,0.527,-7.34,0.052
11.0053,128.181905,38.000601,6774.4037232,0.529,-7.348,0.052
11.022,128.181905,38.000653,6773.7124368,0.53,-7.356,0.052
11.0387,128.181905,38.000706,6773.020236,0.531,-7.365,0.053
11.0554,128.181905,38.000758,6772.3271208,0.533,-7.373,0.053
11.072,128.181905,38.00081,6771.6330912,0.534,-7.381,0.053
11.0887,128.181905,38.000863,6770.9381472000005,0.536,-7.389,0.053
11.1054,128.181905,38.000915,6770.241984000001,0.537,-7.397,0.053
11.1222,128.181906,38.000967,6769.545211200001,0.538,-7.405,0.053
11.1389,128.181906,38.00102,6768.847219200001,0.54,-7.413,0.053
11.1556,128.181906,38.001072,6768.1483128,0.541,-7.421,0.053
11.1723,128.181906,38.001125,6767.448492,0.543,-7.429,0.054
11.189,128.181906,38.001177,6766.747756800001,0.544,-7.437,0.054
11.2057,128.181906,38.001229,6766.0461072,0.545,-7.445,0.054
11.2224,128.181906,38.001282,6765.343238400001,0.547,-7.453,0.054
11.2391,128.181906,38.001334,6764.639760000001,0.548,-7.461,0.054
11.2557,128.181906,38.001387,6763.9350624,0.55,-7.469,0.054
11.2724,128.181906,38.001439,6763.229755200001,0.551,-7.477,0.054
11.2891,128.181906,38.001492,6762.523228800001,0.553,-7.485,0.055
11.3059,128.181907,38.001544,6761.815788000001,0.554,-7.493,0.055
11.3226,128.181907,38.001597,6761.1074328,0.555,-7.501,0.055
11.3393,128.181907,38.001649,6760.3981632,0.557,-7.509,0.055
11.356,128.181907,38.001702,6759.687674400001,0.558,-7.517,0.055
11.3727,128.181907,38.001754,6758.976576,0.56,-7.525,0.055
11.3894,128.181907,38.001807,6758.2642584000005,0.561,-7.533,0.055
11.4061,128.181907,38.001859,6757.5513312,0.563,-7.541,0.055
11.4228,128.181907,38.001912,6756.8371848,0.564,-7.549,0.056
11.4394,128.181907,38.001965,6756.122124,0.565,-7.557,0.056
11.4561,128.181907,38.002017,6755.4061488,0.567,-7.565,0.056
11.4728,128.181908,38.00207,6754.6892592,0.568,-7.572,0.056
11.4896,128.181908,38.002122,6753.9714552000005,0.57,-7.58,0.056
11.5063,128.181908,38.002175,6753.2527368,0.571,-7.588,0.056
11.523,128.181908,38.002228,6752.533104,0.573,-7.596,0.056
11.5397,128.181908,38.00228,6751.812252000001,0.574,-7.604,0.056
11.5564,128.181908,38.002333,6751.0907904000005,0.576,-7.612,0.057
11.5731,128.181908,38.002386,6750.3681096,0.577,-7.62,0.057
11.5898,128.181908,38.002438,6749.644514400001,0.578,-7.628,0.057
11.6065,128.181908,38.002491,6748.9203096,0.58,-7.635,0.057
11.6231,128.181908,38.002544,6748.1948856,0.581,-7.643,0.057
11.6398,128.181908,38.002597,6747.468547200001,0.583,-7.651,0.057
11.6565,128.181909,38.002649,6746.7412944,0.584,-7.659,0.057
11.6733,128.181909,38.002702,6746.0131272,0.586,-7.667,0.058
11.69,128.181909,38.002755,6745.2837408000005,0.587,-7.674,0.058
11.7067,128.181909,38.002808,6744.5537448000005,0.589,-7.682,0.058
11.7234,128.181909,38.00286,6743.8228344,0.59,-7.69,0.058
11.7401,128.181909,38.002913,6743.090704800001,0.592,-7.698,0.058
11.7568,128.181909,38.002966,6742.357965600001,0.593,-7.706,0.058
11.7735,128.181909,38.003019,6741.6240072,0.595,-7.713,0.058
11.7902,128.181909,38.003072,6740.889134399999,0.596,-7.721,0.059
11.8068,128.181909,38.003125,6740.153347200001,0.598,-7.729,0.059
11.8235,128.18191,38.003177,6739.4169504,0.599,-7.737,0.059
11.8402,128.18191,38.00323,6738.6793344,0.601,-7.744,0.059
11.857,128.18191,38.003283,6737.940804,0.602,-7.752,0.059
11.8737,128.18191,38.003336,6737.2013592,0.604,-7.76,0.059
11.8904,128.18191,38.003389,6736.461,0.605,-7.767,0.059
11.9071,128.18191,38.003442,6735.7194216,0.606,-7.775,0.059
11.9238,128.18191,38.003495,6734.977233600001,0.608,-7.783,0.06
11.9405,128.18191,38.003548,6734.2341312,0.609,-7.791,0.06
11.9572,128.18191,38.003601,6733.489809600001,0.611,-7.798,0.06
11.9739,128.181911,38.003654,6732.744878400001,0.612,-7.806,0.06
11.9905,128.181911,38.003707,6731.9990328,0.614,-7.814,0.06
12.0072,128.181911,38.00376,6731.2519680000005,0.615,-7.821,0.06
12.0239,128.181911,38.003812,6730.5039888,0.617,-7.829,0.06
12.0407,128.181911,38.003865,6729.7554,0.618,-7.836,0.061
12.0574,128.181911,38.003919,6729.005592,0.62,-7.844,0.061
12.0741,128.181911,38.003972,6728.2548696,0.621,-7.852,0.061
12.0908,128.181911,38.004025,6727.5035376000005,0.623,-7.859,0.061
12.1075,128.181911,38.004078,6726.7509864,0.624,-7.867,0.061
12.1242,128.181911,38.004131,6725.9975208,0.626,-7.875,0.061
12.1409,128.181912,38.004184,6725.2431408,0.628,-7.882,0.061
12.1576,128.181912,38.004237,6724.4878464,0.629,-7.89,0.062
12.1743,128.181912,38.00429,6723.731637600001,0.631,-7.897,0.062
12.1909,128.181912,38.004343,6722.974514400001,0.632,-7.905,0.062
12.2076,128.181912,38.004396,6722.2164768,0.634,-7.912,0.062
12.2243,128.181912,38.004449,6721.457524800001,0.635,-7.92,0.062
12.2411,128.181912,38.004502,6720.6973536000005,0.637,-7.928,0.062
12.2578,128.181912,38.004556,6719.9365728,0.638,-7.935,0.062
12.2745,128.181912,38.004609,6719.1748776,0.64,-7.943,0.063
12.2912,128.181913,38.004662,6718.412268,0.641,-7.95,0.063
12.3079,128.181913,38.004715,6717.6484392,0.643,-7.958,0.063
12.3246,128.181913,38.004768,6716.884000800001,0.644,-7.965,0.063
12.3413,128.181913,38.004821,6716.118648,0.646,-7.973,0.063
12.358,128.181913,38.004875,6715.352076,0.647,-7.98,0.063
12.3746,128.181913,38.004928,6714.5848944,0.649,-7.988,0.063
12.3913,128.181913,38.004981,6713.8164936,0.65,-7.995,0.064
12.408,128.181913,38.005034,6713.047483200001,0.652,-8.003,0.064
12.4248,128.181913,38.005088,6712.2775584,0.654,-8.01,0.064
12.4415,128.181914,38.005141,6711.506414400001,0.655,-8.018,0.064
12.4582,128.181914,38.005194,6710.734660800001,0.657,-8.025,0.064
12.4749,128.181914,38.005247,6709.961688,0.658,-8.032,0.064
12.4916,128.181914,38.005301,6709.1881056,0.66,-8.04,0.064
12.5083,128.181914,38.005354,6708.413304000001,0.661,-8.047,0.065
12.525,128.181914,38.005407,6707.6375880000005,0.663,-8.055,0.065
12.5417,128.181914,38.005461,6706.8612624,0.664,-8.062,0.065
12.5583,128.181914,38.005514,6706.0837176,0.666,-8.07,0.065
12.575,128.181914,38.005567,6705.3055632000005,0.667,-8.077,0.065
12.5917,128.181915,38.005621,6704.5261896,0.669,-8.084,0.065
12.6085,128.181915,38.005674,6703.746206400001,0.671,-8.092,0.065
12.6252,128.181915,38.005728,6702.965004000001,0.672,-8.099,0.066
12.6419,128.181915,38.005781,6702.182887200001,0.674,-8.106,0.066
12.6586,128.181915,38.005834,6701.400160800001,0.675,-8.114,0.066
12.6753,128.181915,38.005888,6700.616215200001,0.677,-8.121,0.066
12.692,128.181915,38.005941,6699.831660000001,0.678,-8.129,0.066
12.7087,128.181915,38.005995,6699.0458856000005,0.68,-8.136,0.066
12.7254,128.181916,38.006048,6698.259196800001,0.682,-8.143,0.066
12.742,128.181916,38.006102,6697.4718984,0.683,-8.151,0.067
12.7587,128.181916,38.006155,6696.6833808,0.685,-8.158,0.067
12.7754,128.181916,38.006209,6695.8942536,0.686,-8.165,0.067
12.7922,128.181916,38.006262,6695.1039072,0.688,-8.172,0.067
12.8089,128.181916,38.006316,6694.3129512000005,0.689,-8.18,0.067
12.8256,128.181916,38.006369,6693.520776,0.691,-8.187,0.067
12.8423,128.181916,38.006423,6692.7279912,0.693,-8.194,0.067
12.859,128.181916,38.006476,6691.933987200001,0.694,-8.202,0.068
12.8757,128.181917,38.00653,6691.139373600001,0.696,-8.209,0.068
12.8924,128.181917,38.006583,6690.3435408000005,0.697,-8.216,0.068
12.9091,128.181917,38.006637,6689.5470984,0.699,-8.223,0.068
12.9257,128.181917,38.006691,6688.749741600001,0.701,-8.231,0.068
12.9424,128.181917,38.006744,6687.9511656,0.702,-8.238,0.068
12.9591,128.181917,38.006798,6687.15198,0.704,-8.245,0.069
12.9759,128.181917,38.006852,6686.35188,0.705,-8.252,0.069
12.9926,128.181917,38.006905,6685.5505608,0.707,-8.259,0.069
13.0093,128.181918,38.006959,6684.748632000001,0.709,-8.267,0.069
13.026,128.181918,38.007012,6683.9457888,0.71,-8.274,0.069
13.0427,128.181918,38.007066,6683.1420312,0.712,-8.281,0.069
13.0594,128.181918,38.00712,6682.337359200001,0.713,-8.288,0.069
13.0761,128.181918,38.007174,6681.5317728,0.715,-8.295,0.07
13.0928,128.181918,38.007227,6680.725272000001,0.717,-8.303,0.07
13.1095,128.181918,38.007281,6679.917856800001,0.718,-8.31,0.07
13.1262,128.181918,38.007335,6679.1095272,0.72,-8.317,0.07
13.1429,128.181919,38.007388,6678.300283200001,0.721,-8.324,0.07
13.1596,128.181919,38.007442,6677.490124800001,0.723,-8.331,0.07
13.1763,128.181919,38.007496,6676.679052,0.725,-8.338,0.07
13.193,128.181919,38.00755,6675.867064800001,0.726,-8.345,0.071
13.2097,128.181919,38.007604,6675.054468,0.728,-8.353,0.071
13.2264,128.181919,38.007657,6674.240652,0.73,-8.36,0.071
13.2431,128.181919,38.007711,6673.4259216,0.731,-8.367,0.071
13.2598,128.181919,38.007765,6672.6105816,0.733,-8.374,0.071
13.2765,128.18192,38.007819,6671.7940224,0.734,-8.381,0.071
13.2932,128.18192,38.007873,6670.9768536,0.736,-8.388,0.072
13.3099,128.18192,38.007927,6670.1584656,0.738,-8.395,0.072
13.3266,128.18192,38.00798,6669.339468,0.739,-8.402,0.072
13.3433,128.18192,38.008034,6668.519556000001,0.741,-8.409,0.072
13.36,128.18192,38.008088,6667.6987296,0.743,-8.416,0.072
13.3767,128.18192,38.008142,6666.876684000001,0.744,-8.423,0.072
13.3934,128.18192,38.008196,6666.054028800001,0.746,-8.43,0.073
13.4101,128.181921,38.00825,6665.2304592,0.747,-8.437,0.073
13.4268,128.181921,38.008304,6664.4059752,0.749,-8.444,0.073
13.4435,128.181921,38.008358,6663.5808816,0.751,-8.451,0.073
13.4602,128.181921,38.008412,6662.754568800001,0.752,-8.458,0.073
13.4769,128.181921,38.008466,6661.927341600001,0.754,-8.465,0.073
13.4936,128.181921,38.00852,6661.099200000001,0.756,-8.472,0.073
13.5103,128.181921,38.008574,6660.2704488,0.757,-8.479,0.074
13.527,128.181921,38.008628,6659.440478400001,0.759,-8.486,0.074
13.5437,128.181922,38.008682,6658.6098984,0.761,-8.493,0.074
13.5604,128.181922,38.008736,6657.778404000001,0.762,-8.5,0.074
13.5771,128.181922,38.00879,6656.945995200001,0.764,-8.507,0.074
13.5938,128.181922,38.008844,6656.1123672,0.766,-8.514,0.074
13.6105,128.181922,38.008898,6655.278129599999,0.767,-8.521,0.075
13.6272,128.181922,38.008952,6654.442977600001,0.769,-8.528,0.075
13.6439,128.181922,38.009006,6653.6069112000005,0.771,-8.535,0.075
13.6606,128.181922,38.00906,6652.7702352,0.772,-8.542,0.075
13.6773,128.181923,38.009114,6651.93234,0.774,-8.549,0.075
13.694,128.181923,38.009168,6651.0935304,0.776,-8.556,0.075
13.7107,128.181923,38.009223,6650.254111200001,0.777,-8.563,0.075
13.7274,128.181923,38.009277,6649.4134728,0.779,-8.569,0.076
13.7441,128.181923,38.009331,6648.572224800001,0.781,-8.576,0.076
13.7608,128.181923,38.009385,6647.7300624,0.782,-8.583,0.076
13.7775,128.181923,38.009439,6646.8869856,0.784,-8.59,0.076
13.7942,128.181924,38.009493,6646.0429944,0.786,-8.597,0.076
13.8109,128.181924,38.009548,6645.1980888,0.787,-8.604,0.076
13.8276,128.181924,38.009602,6644.3522688,0.789,-8.611,0.077
13.8443,128.181924,38.009656,6643.5055344,0.791,-8.618,0.077
13.861,128.181924,38.00971,6642.6581904,0.792,-8.624,0.077
13.8777,128.181924,38.009764,6641.8096272,0.794,-8.631,0.077
13.8944,128.181924,38.009819,6640.9604544,0.796,-8.638,0.077
13.9111,128.181925,38.009873,6640.1103672,0.797,-8.645,0.077
13.9278,128.181925,38.009927,6639.259365600001,0.799,-8.652,0.078
13.9445,128.181925,38.009982,6638.4074496,0.801,-8.658,0.078
13.9612,128.181925,38.010036,6637.5546192,0.803,-8.665,0.078
13.9779,128.181925,38.01009,6636.7008744,0.804,-8.672,0.078
13.9946,128.181925,38.010144,6635.846215200001,0.806,-8.679,0.078
14.0113,128.181925,38.010199,6634.9909464,0.808,-8.685,0.078
14.028,128.181925,38.010253,6634.134763200001,0.809,-8.692,0.079
14.0447,128.181926,38.010308,6633.277360800001,0.811,-8.699,0.079
14.0614,128.181926,38.010362,6632.4193488,0.813,-8.706,0.079
14.0781,128.181926,38.010416,6631.5604224,0.814,-8.712,0.079
14.0948,128.181926,38.010471,6630.7005816,0.816,-8.719,0.079
14.1115,128.181926,38.010525,6629.8398264,0.818,-8.726,0.079
14.1282,128.181926,38.010579,6628.9784616,0.82,-8.733,0.08
14.1449,128.181926,38.010634,6628.1158776,0.821,-8.739,0.08
14.1616,128.181927,38.010688,6627.252684000001,0.823,-8.746,0.08
14.1783,128.181927,38.010743,6626.388576,0.825,-8.753,0.08
14.195,128.181927,38.010797,6625.5235536,0.826,-8.759,0.08
14.2117,128.181927,38.010852,6624.6576168,0.828,-8.766,0.08
14.2284,128.181927,38.010906,6623.790765600001,0.83,-8.773,0.081
14.2451,128.181927,38.010961,6622.923000000001,0.831,-8.779,0.081
14.2618,128.181927,38.011015,6622.054624800001,0.833,-8.786,0.081
14.2785,128.181928,38.01107,6621.1853352,0.835,-8.793,0.081
14.2952,128.181928,38.011124,6620.3148264,0.837,-8.799,0.081
14.3119,128.181928,38.011179,6619.443708,0.838,-8.806,0.081
14.3286,128.181928,38.011233,6618.57198,0.84,-8.813,0.082
14.3453,128.181928,38.011288,6617.6990328,0.842,-8.819,0.082
14.362,128.181928,38.011342,6616.8251712,0.844,-8.826,0.082
14.3787,128.181928,38.011397,6615.9507,0.845,-8.832,0.082
14.3954,128.181929,38.011452,6615.075314400001,0.847,-8.839,0.082
14.4121,128.181929,38.011506,6614.1990144,0.849,-8.846,0.082
14.4288,128.181929,38.011561,6613.321800000001,0.85,-8.852,0.083
14.4455,128.181929,38.011615,6612.4436712,0.852,-8.859,0.083
14.4622,128.181929,38.01167,6611.564628,0.854,-8.865,0.083
14.4789,128.181929,38.011725,6610.6849752,0.856,-8.872,0.083
14.4956,128.18193,38.011779,6609.804408,0.857,-8.879,0.083
14.5123,128.18193,38.011834,6608.9226216,0.859,-8.885,0.083
14.529,128.18193,38.011889,6608.0405304,0.861,-8.892,0.084
14.5457,128.18193,38.011943,6607.157220000001,0.863,-8.898,0.084
14.5624,128.18193,38.011998,6606.2729952,0.864,-8.905,0.084
14.5791,128.18193,38.012053,6605.388160800001,0.866,-8.911,0.084
14.5958,128.18193,38.012108,6604.502412,0.868,-8.918,0.084
14.6125,128.181931,38.012162,6603.6157488,0.87,-8.924,0.084
14.6292,128.181931,38.012217,6602.7281712,0.871,-8.931,0.085
14.6459,128.181931,38.012272,6601.839679200001,0.873,-8.937,0.085
14.6626,128.181931,38.012327,6600.950272800001,0.875,-8.944,0.085
14.6793,128.181931,38.012381,6600.060256800001,0.877,-8.95,0.085
14.696,128.181931,38.012436,6599.1693264000005,0.878,-8.957,0.085
14.7127,128.181931,38.012491,6598.2774816,0.88,-8.963,0.085
14.7294,128.181932,38.012546,6597.3847224,0.882,-8.97,0.086
14.7461,128.181932,38.012601,6596.4913536,0.884,-8.976,0.086
14.7628,128.181932,38.012655,6595.596765600001,0.885,-8.982,0.086
14.7795,128.181932,38.01271,6594.701568,0.887,-8.989,0.086
14.7962,128.181932,38.012765,6593.805456000001,0.889,-8.995,0.086
14.8129,128.181932,38.01282,6592.9087344,0.891,-9.002,0.086
14.8296,128.181933,38.012875,6592.0107935999995,0.893,-9.008,0.087
14.8463,128.181933,38.01293,6591.1122432,0.894,-9.015,0.087
14.863,128.181933,38.012985,6590.2127784,0.896,-9.021,0.087
14.8797,128.181933,38.01304,6589.3123992,0.898,-9.027,0.087
14.8964,128.181933,38.013095,6588.4111056,0.9,-9.034,0.087
14.9131,128.181933,38.01315,6587.508897600001,0.901,-9.04,0.088
14.9298,128.181933,38.013204,6586.60608,0.903,-9.047,0.088
14.9465,128.181934,38.013259,6585.702348,0.905,-9.053,0.088
14.9632,128.181934,38.013314,6584.7977016,0.907,-9.059,0.088
14.9799,128.181934,38.013369,6583.892140800001,0.908,-9.066,0.088
14.9966,128.181934,38.013424,6582.985970400001,0.91,-9.072,0.088
15.0133,128.181934,38.013479,6582.0785808,0.912,-9.078,0.089
15.03,128.181934,38.013534,6581.1705816,0.914,-9.085,0.089
15.0467,128.181935,38.013589,6580.2619728,0.916,-9.091,0.089
15.0634,128.181935,38.013645,6579.3521448,0.917,-9.097,0.089
15.0801,128.181935,38.0137,6578.4417072,0.919,-9.104,0.089
15.0968,128.181935,38.013755,6577.530050400001,0.921,-9.11,0.089
15.1135,128.181935,38.01381,6576.6180888,0.923,-9.116,0.09
15.1302,128.181935,38.013865,6575.704908,0.925,-9.122,0.09
15.1469,128.181936,38.01392,6574.7908128,0.926,-9.129,0.09
15.1636,128.181936,38.013975,6573.876108,0.928,-9.135,0.09
15.1803,128.181936,38.01403,6572.960488799999,0.93,-9.141,0.09
15.197,128.181936,38.014085,6572.043955200001,0.932,-9.148,0.091
15.2137,128.181936,38.01414,6571.1268119999995,0.934,-9.154,0.091
15.2304,128.181936,38.014196,6570.2087544000005,0.935,-9.16,0.091
15.2471,128.181937,38.014251,6569.2894776,0.937,-9.166,0.091
15.2638,128.181937,38.014306,6568.369896,0.939,-9.172,0.091
15.2805,128.181937,38.014361,6567.449095200001,0.941,-9.179,0.091
15.2972,128.181937,38.014416,6566.5276848,0.943,-9.185,0.092
15.3139,128.181937,38.014472,6565.6053600000005,0.944,-9.191,0.092
15.3306,128.181937,38.014527,6564.6821208,0.946,-9.197,0.092
15.3473,128.181938,38.014582,6563.7579672,0.948,-9.204,0.092
15.364,128.181938,38.014637,6562.8332040000005,0.95,-9.21,0.092
15.3807,128.181938,38.014692,6561.9075264,0.952,-9.216,0.092
15.3974,128.181938,38.014748,6560.9809344,0.953,-9.222,0.093
15.4141,128.181938,38.014803,6560.053428,0.955,-9.228,0.093
15.4308,128.181938,38.014858,6559.125312,0.957,-9.234,0.093
15.4475,128.181939,38.014914,6558.1962816000005,0.959,-9.241,0.093
15.4642,128.181939,38.014969,6557.2663368,0.961,-9.247,0.093
15.4809,128.181939,38.015024,6556.3357824,0.962,-9.253,0.094
15.4976,128.181939,38.01508,6555.4040088,0.964,-9.259,0.094
15.5143,128.181939,38.015135,6554.4716256,0.966,-9.265,0.094
15.531,128.181939,38.01519,6553.5386328,0.968,-9.271,0.094
15.5477,128.18194,38.015246,6552.6044208,0.97,-9.277,0.094
15.5644,128.18194,38.015301,6551.6695992,0.972,-9.283,0.094
15.5811,128.18194,38.015356,6550.7338632,0.973,-9.29,0.095
15.5978,128.18194,38.015412,6549.7972128,0.975,-9.296,0.095
15.6145,128.18194,38.015467,6548.8599527999995,0.977,-9.302,0.095
15.6312,128.18194,38.015523,6547.9217784,0.979,-9.308,0.095
15.6479,128.181941,38.015578,6546.9826896,0.981,-9.314,0.095
15.6646,128.181941,38.015634,6546.0426864,0.983,-9.32,0.096
15.6813,128.181941,38.015689,6545.102073600001,0.984,-9.326,0.096
15.698,128.181941,38.015745,6544.1605464,0.986,-9.332,0.096
15.7147,128.181941,38.0158,6543.2184096,0.988,-9.338,0.096
15.7314,128.181941,38.015855,6542.2750536,0.99,-9.344,0.096
15.7481,128.181942,38.015911,6541.331088000001,0.992,-9.35,0.097
15.7648,128.181942,38.015967,6540.386208,0.994,-9.356,0.097
15.7815,128.181942,38.016022,6539.4407184,0.995,-9.362,0.097
15.7982,128.181942,38.016078,6538.4940096,0.997,-9.368,0.097
15.8149,128.181942,38.016133,6537.5466912,0.999,-9.374,0.097
15.8316,128.181942,38.016189,6536.598763200001,1.001,-9.38,0.097
15.8483,128.181943,38.016244,6535.649616,1.003,-9.386,0.098
15.865,128.181943,38.0163,6534.6998592,1.005,-9.392,0.098
15.8817,128.181943,38.016355,6533.749188000001,1.007,-9.398,0.098
15.8984,128.181943,38.016411,6532.7979072,1.008,-9.404,0.098
15.9151,128.181943,38.016467,6531.845712,1.01,-9.41,0.098
15.9318,128.181944,38.016522,6530.8926024,1.012,-9.416,0.099
15.9485,128.181944,38.016578,6529.938578400001,1.014,-9.422,0.099
15.9652,128.181944,38.016634,6528.9839448,1.016,-9.428,0.099
15.9819,128.181944,38.016689,6528.0283968,1.018,-9.434,0.099
15.9986,128.181944,38.016745,6527.0722392,1.019,-9.44,0.099
16.0153,128.181944,38.016801,6526.1148624,1.021,-9.446,0.1
16.032,128.181945,38.016856,6525.156876,1.023,-9.452,0.1
16.0487,128.181945,38.016912,6524.19828,1.025,-9.458,0.1
16.0654,128.181945,38.016968,6523.238464800001,1.027,-9.464,0.1
16.0821,128.181945,38.017023,6522.27804,1.029,-9.469,0.1
16.0988,128.181945,38.017079,6521.316700800001,1.031,-9.475,0.1
16.1155,128.181946,38.017135,6520.354752000001,1.033,-9.481,0.101
16.1322,128.181946,38.017191,6519.3918888,1.034,-9.487,0.101
16.1489,128.181946,38.017246,6518.428111200001,1.036,-9.493,0.101
16.1656,128.181946,38.017302,6517.463724000001,1.038,-9.499,0.101
16.1822,128.181946,38.017358,6516.4984224,1.04,-9.505,0.101
16.1989,128.181946,38.017414,6515.532206400001,1.042,-9.51,0.102
16.2156,128.181947,38.01747,6514.565076,1.044,-9.516,0.102
16.2323,128.181947,38.017526,6513.597336,1.046,-9.522,0.102
