Time,Longitude,Latitude,Altitude,Roll (deg),Pitch (deg),Yaw (deg)
0.0,128.181881,37.923646,7000.146528,0.0,-0.003,0.0
0.0167,128.181881,37.923691,7000.1605488000005,0.0,-0.012,0.0
0.0334,128.181881,37.923736,7000.172740800001,0.087,-0.026,0.011
0.0501,128.181881,37.923781,7000.183104000001,0.258,-0.043,0.034
0.0668,128.181881,37.923826,7000.190724000001,0.516,-0.062,0.064
0.0834,128.181881,37.923871,7000.1959056000005,0.864,-0.082,0.097
0.1002,128.181881,37.923916,7000.1980392,1.3,-0.102,0.132
0.1169,128.181881,37.923961,7000.196820000001,1.824,-0.122,0.167
0.1336,128.181881,37.924006,7000.1919431999995,2.433,-0.139,0.201
0.1503,128.181881,37.924051,7000.183104000001,3.123,-0.154,0.235
0.1669,128.181881,37.924096,7000.169692800001,3.891,-0.166,0.267
0.1837,128.181881,37.924141,7000.152928800001,4.734,-0.173,0.299
0.2004,128.181881,37.924186,7000.1325072,5.649,-0.175,0.331
0.2171,128.181881,37.924231,7000.108123200001,6.633,-0.172,0.362
0.2338,128.181881,37.924276,7000.0803864,7.682,-0.163,0.393
0.2505,128.181881,37.924321,7000.048992000001,8.794,-0.147,0.424
0.2672,128.181881,37.924366,7000.014244800001,9.966,-0.125,0.456
0.2839,128.181881,37.924411,6999.9761448,11.195,-0.095,0.489
0.3006,128.181881,37.924457,6999.9353016000005,12.48,-0.059,0.523
0.3172,128.181881,37.924502,6999.891105600001,13.817,-0.016,0.559
0.3339,128.181881,37.924547,6999.8444712,15.204,0.033,0.598
0.3507,128.181881,37.924592,6999.7947888,16.64,0.089,0.639
0.3674,128.181881,37.924637,6999.742972800001,18.122,0.152,0.682
0.3841,128.181881,37.924683,6999.688718400001,19.648,0.22,0.73
0.4008,128.181881,37.924728,6999.6320256,21.218,0.295,0.781
0.4175,128.181881,37.924773,6999.573504,22.828,0.375,0.837
0.4342,128.181881,37.924819,6999.5131536,24.478,0.459,0.897
0.4509,128.181881,37.924864,6999.4512792000005,26.167,0.548,0.962
0.4676,128.181881,37.924909,6999.387576,27.892,0.64,1.033
0.4843,128.181881,37.924954,6999.3229584,29.654,0.736,1.109
0.501,128.181881,37.925,6999.2568168,31.45,0.834,1.191
0.5176,128.181881,37.925045,6999.189760800001,33.28,0.933,1.279
0.5344,128.181881,37.925091,6999.1217904000005,35.143,1.034,1.373
0.5511,128.181881,37.925136,6999.0529056000005,37.039,1.135,1.473
0.5678,128.181881,37.925181,6998.983716,38.966,1.235,1.579
0.5845,128.181881,37.925227,6998.9139168,40.925,1.333,1.691
0.6012,128.181881,37.925272,6998.843508,42.913,1.425,1.806
0.6179,128.181881,37.925318,6998.7727944,44.932,1.51,1.922
0.6345,128.181881,37.925363,6998.7014712,46.981,1.586,2.037
0.6513,128.181882,37.925408,6998.6304528,49.053,1.652,2.15
0.6679,128.181882,37.925454,6998.5591296,51.144,1.706,2.259
0.6847,128.181882,37.925499,6998.488111200001,53.248,1.753,2.367
0.7014,128.181882,37.925545,6998.416788,55.363,1.791,2.472
0.7181,128.181883,37.92559,6998.345464800001,57.488,1.819,2.572
0.7348,128.181883,37.925636,6998.274141600001,59.621,1.836,2.664
0.7514,128.181883,37.925681,6998.2019040000005,61.599,1.845,2.73
0.7682,128.181884,37.925727,6998.1296664,63.426,1.842,2.759
0.7848,128.181884,37.925773,6998.057124000001,65.103,1.819,2.739
0.8016,128.181885,37.925818,6997.9842768,66.634,1.779,2.679
0.8183,128.181885,37.925864,6997.9114296,68.021,1.728,2.594
0.835,128.181886,37.925909,6997.8379728,69.272,1.672,2.495
0.8517,128.181887,37.925955,6997.764516,70.392,1.613,2.388
0.8684,128.181888,37.926,6997.6907544000005,71.387,1.554,2.28
0.8851,128.181888,37.926046,6997.616688000001,72.265,1.497,2.174
0.9018,128.181889,37.926091,6997.542012,73.03,1.444,2.071
0.9185,128.18189,37.926137,6997.4670312,73.687,1.393,1.973
0.9352,128.181891,37.926183,6997.3914408,74.239,1.345,1.881
0.9519,128.181892,37.926228,6997.314936000001,74.699,1.305,1.794
0.9686,128.181893,37.926274,6997.2381264000005,75.086,1.271,1.712
0.9853,128.181895,37.926319,6997.1604024,75.42,1.238,1.637
1.002,128.181896,37.926365,6997.0820688,75.718,1.204,1.568
1.0187,128.181897,37.926411,6997.002516,75.996,1.168,1.506
1.0353,128.181898,37.926456,6996.921744,76.268,1.129,1.45
1.0521,128.1819,37.926502,6996.8397528,76.542,1.087,1.4
1.0688,128.181901,37.926547,6996.7562376000005,76.828,1.043,1.355
1.0855,128.181902,37.926593,6996.6708935999995,77.129,0.998,1.314
1.1022,128.181904,37.926639,6996.5843304,77.447,0.953,1.278
1.1189,128.181905,37.926684,6996.4956336000005,77.782,0.908,1.245
1.1356,128.181907,37.92673,6996.4054128,78.134,0.864,1.215
1.1522,128.181908,37.926776,6996.313668000001,78.502,0.822,1.188
1.169,128.18191,37.926821,6996.2197896,78.887,0.78,1.164
1.1857,128.181911,37.926867,6996.124082400001,79.285,0.739,1.142
1.2024,128.181913,37.926913,6996.0268512,79.697,0.699,1.123
1.2191,128.181914,37.926959,6995.9274864,80.122,0.66,1.105
1.2358,128.181916,37.927004,6995.8262928,80.56,0.622,1.09
1.2525,128.181918,37.92705,6995.723270400001,81.011,0.585,1.077
1.2691,128.181919,37.927096,6995.618419200001,81.476,0.548,1.065
1.2859,128.181921,37.927141,6995.5114344,81.957,0.511,1.055
1.3026,128.181923,37.927187,6995.402316,82.386,0.479,1.045
1.3193,128.181924,37.927233,6995.291368800001,82.764,0.451,1.038
1.3359,128.181926,37.927279,6995.178288000001,83.094,0.427,1.031
1.3527,128.181928,37.927324,6995.063683200001,83.38,0.403,1.026
1.3694,128.18193,37.92737,6994.9472496,83.628,0.38,1.023
1.386,128.181931,37.927416,6994.8289872000005,83.842,0.356,1.022
1.4028,128.181933,37.927462,6994.708896,84.03,0.331,1.022
1.4195,128.181935,37.927508,6994.5866712,84.197,0.305,1.023
1.4362,128.181937,37.927553,6994.4626176,84.347,0.279,1.026
1.4528,128.181939,37.927599,6994.3364304,84.487,0.252,1.03
1.4696,128.181941,37.927645,6994.208414400001,84.62,0.226,1.035
1.4863,128.181943,37.927691,6994.0779600000005,84.751,0.199,1.04
1.5029,128.181945,37.927737,6993.946286400001,84.985,0.165,1.053
1.5197,128.181947,37.927782,6993.812479200001,85.309,0.122,1.069
1.5364,128.181949,37.927828,6993.676233600001,85.706,0.077,1.085
1.5531,128.18195,37.927874,6993.537549600001,86.086,0.037,1.099
1.5697,128.181952,37.92792,6993.3964272,86.444,0.004,1.111
1.5865,128.181955,37.927966,6993.253476,86.78,-0.021,1.123
1.6032,128.181957,37.928012,6993.1080864000005,87.095,-0.044,1.134
1.6198,128.181959,37.928058,6992.9605632,87.393,-0.063,1.144
1.6366,128.181961,37.928104,6992.810906400001,87.675,-0.082,1.155
1.6533,128.181963,37.928149,6992.659116,87.947,-0.099,1.166
1.67,128.181965,37.928195,6992.5051920000005,88.211,-0.116,1.178
1.6867,128.181967,37.928241,6992.3488296,88.471,-0.132,1.189
1.7034,128.181969,37.928287,6992.190638400001,88.732,-0.149,1.201
1.7201,128.181971,37.928333,6992.0300088,88.995,-0.165,1.214
1.7368,128.181974,37.928379,6991.8672456,89.264,-0.182,1.226
1.7535,128.181976,37.928425,6991.702044,89.541,-0.198,1.239
1.7702,128.181978,37.928471,6991.535013600001,89.829,-0.214,1.253
1.7869,128.18198,37.928517,6991.3655448,90.127,-0.231,1.266
1.8036,128.181982,37.928563,6991.193942400001,90.436,-0.248,1.28
1.8203,128.181985,37.928609,6991.019901600001,90.756,-0.264,1.294
1.837,128.181987,37.928655,6990.844032,91.086,-0.281,1.308
1.8537,128.181989,37.928701,6990.665724,91.426,-0.298,1.323
1.8704,128.181991,37.928747,6990.4849776,91.776,-0.315,1.337
1.8871,128.181994,37.928793,6990.302097600001,92.135,-0.332,1.352
1.9038,128.181996,37.928839,6990.117084,92.503,-0.349,1.367
1.9205,128.181998,37.928885,6989.9299368,92.879,-0.366,1.382
1.9372,128.182,37.928931,6989.740351200001,93.262,-0.383,1.398
1.9539,128.182003,37.928977,6989.548632,93.651,-0.4,1.413
1.9706,128.182005,37.929023,6989.354474400001,94.046,-0.417,1.429
1.9873,128.182007,37.929069,6989.158183200001,94.445,-0.434,1.445
2.004,128.18201,37.929115,6988.9594536,94.847,-0.451,1.461
2.0207,128.182012,37.929161,6988.7585904,95.251,-0.468,1.478
2.0374,128.182014,37.929207,6988.5555936,95.656,-0.485,1.495
2.0541,128.182017,37.929254,6988.3498536,96.06,-0.502,1.512
2.0707,128.182019,37.9293,6988.14198,96.462,-0.519,1.529
2.0875,128.182022,37.929346,6987.9319728,96.861,-0.536,1.547
2.1042,128.182024,37.929392,6987.7195272,97.255,-0.553,1.565
2.1208,128.182026,37.929438,6987.5046432,97.643,-0.57,1.584
2.1376,128.182029,37.929484,6987.287016,97.94,-0.581,1.603
2.1543,128.182031,37.92953,6987.066950400001,98.15,-0.588,1.624
2.171,128.182034,37.929576,6986.8444464,98.287,-0.593,1.646
2.1877,128.182036,37.929623,6986.619504,98.366,-0.6,1.668
2.2044,128.182039,37.929669,6986.3921232,98.404,-0.61,1.69
2.2211,128.182042,37.929715,6986.1626088,98.413,-0.623,1.712
2.2378,128.182044,37.929761,6985.930351200001,98.402,-0.64,1.734
2.2544,128.182047,37.929807,6985.695960000001,98.375,-0.658,1.756
2.2712,128.182049,37.929853,6985.4591304,98.335,-0.678,1.777
2.2879,128.182052,37.9299,6985.2198624,98.279,-0.697,1.799
2.3045,128.182055,37.929946,6984.9778512,98.207,-0.716,1.821
2.3213,128.182057,37.929992,6984.7334016,98.113,-0.734,1.843
2.338,128.18206,37.930038,6984.486513600001,97.995,-0.75,1.866
2.3546,128.182063,37.930084,6984.2368824000005,97.847,-0.766,1.888
2.3714,128.182066,37.930131,6983.9848128,97.665,-0.78,1.912
2.3881,128.182069,37.930177,6983.7303048,97.443,-0.793,1.935
2.4048,128.182071,37.930223,6983.4730536,97.181,-0.806,1.959
2.4215,128.182074,37.930269,6983.213364,96.873,-0.818,1.983
2.4382,128.182077,37.930316,6982.9509312,96.515,-0.829,2.007
2.4549,128.18208,37.930362,6982.686060000001,96.101,-0.84,2.032
2.4716,128.182083,37.930408,6982.4184456,95.624,-0.849,2.057
2.4882,128.182086,37.930454,6982.148392800001,95.086,-0.857,2.082
2.505,128.182089,37.9305,6981.876206400001,94.489,-0.865,2.107
2.5217,128.182093,37.930547,6981.6012768,93.834,-0.873,2.132
2.5383,128.182096,37.930593,6981.3239088,93.124,-0.881,2.157
2.5551,128.182099,37.930639,6981.0444072,92.362,-0.89,2.182
2.5718,128.182102,37.930685,6980.762772,91.55,-0.898,2.206
2.5884,128.182106,37.930732,6980.4786984,90.689,-0.907,2.23
2.6052,128.182109,37.930778,6980.193405600001,89.988,-0.928,2.254
2.6219,128.182112,37.930824,6979.905979200001,89.44,-0.963,2.276
2.6386,128.182116,37.93087,6979.616419200001,89.048,-1.004,2.298
2.6553,128.182119,37.930917,6979.3247255999995,88.813,-1.049,2.319
2.6719,128.182122,37.930963,6979.0312032,88.733,-1.094,2.34
2.6887,128.182126,37.931009,6978.734937600001,88.77,-1.137,2.36
2.7054,128.182129,37.931055,6978.436538400001,88.905,-1.175,2.379
2.722,128.182133,37.931102,6978.1360056,89.123,-1.209,2.398
2.7388,128.182136,37.931148,6977.8333391999995,89.411,-1.239,2.417
2.7555,128.18214,37.931194,6977.5282344,89.756,-1.267,2.435
2.7721,128.182143,37.931241,6977.220996000001,90.149,-1.292,2.452
2.7889,128.182147,37.931287,6976.911624,90.581,-1.316,2.47
2.8056,128.18215,37.931333,6976.600118400001,91.046,-1.338,2.488
2.8222,128.182154,37.93138,6976.286479200001,91.538,-1.359,2.505
2.839,128.182157,37.931426,6975.970096800001,91.943,-1.373,2.523
2.8557,128.182161,37.931472,6975.6518856,92.265,-1.379,2.542
2.8724,128.182164,37.931519,6975.331236,92.501,-1.382,2.561
2.8891,128.182168,37.931565,6975.0084528,92.652,-1.383,2.581
2.9057,128.182172,37.931612,6974.6835360000005,92.718,-1.383,2.602
2.9225,128.182175,37.931658,6974.3561808,92.701,-1.385,2.623
2.9392,128.182179,37.931704,6974.0269968,92.606,-1.387,2.645
2.9558,128.182183,37.931751,6973.695679200001,92.434,-1.39,2.668
2.9726,128.182186,37.931797,6973.3619232,92.19,-1.394,2.691
2.9893,128.18219,37.931844,6973.026033600001,91.876,-1.398,2.714
3.0059,128.182194,37.93189,6972.6877056,91.497,-1.402,2.738
3.0227,128.182198,37.931936,6972.3475488,91.057,-1.405,2.763
3.0394,128.182202,37.931983,6972.0052584000005,90.556,-1.408,2.787
3.056,128.182206,37.932029,6971.6608344,89.999,-1.411,2.811
3.0728,128.18221,37.932076,6971.3142768,89.386,-1.415,2.836
3.0895,128.182214,37.932122,6970.9658904,88.72,-1.419,2.86
3.1062,128.182218,37.932168,6970.615370400001,88.003,-1.423,2.884
3.1229,128.182222,37.932215,6970.2630216,87.238,-1.428,2.907
3.1395,128.182226,37.932261,6969.908844,86.428,-1.433,2.93
3.1563,128.18223,37.932308,6969.5528376,85.573,-1.438,2.953
3.173,128.182235,37.932354,6969.1950024,84.677,-1.444,2.975
3.1896,128.182239,37.9324,6968.8365576,83.948,-1.463,2.997
3.2064,128.182243,37.932447,6968.476284000001,83.379,-1.495,3.019
3.2231,128.182248,37.932493,6968.1141816,82.974,-1.535,3.041
3.2397,128.182252,37.93254,6967.7502504,82.732,-1.577,3.063
3.2565,128.182256,37.932586,6967.3844904,82.651,-1.621,3.084
3.2732,128.182261,37.932633,6967.016901600001,82.723,-1.663,3.104
3.2899,128.182265,37.932679,6966.647179200001,82.927,-1.703,3.123
3.3066,128.18227,37.932726,6966.2753232000005,83.244,-1.74,3.142
3.3233,128.182274,37.932772,6965.901638400001,83.657,-1.774,3.16
3.34,128.182278,37.932819,6965.525515200001,84.152,-1.805,3.177
3.3567,128.182283,37.932865,6965.1475632,84.714,-1.834,3.194
3.3734,128.182287,37.932912,6964.766868000001,85.196,-1.851,3.211
3.3901,128.182292,37.932958,6964.3840392,85.599,-1.859,3.226
3.4068,128.182296,37.933005,6963.9996864,85.92,-1.862,3.243
3.4235,128.182301,37.933051,6963.613200000001,86.157,-1.862,3.259
3.4402,128.182305,37.933098,6963.2248848,86.31,-1.862,3.276
3.4569,128.18231,37.933144,6962.835045600001,86.381,-1.861,3.294
3.4736,128.182314,37.933191,6962.443072800001,86.374,-1.862,3.313
3.4903,128.182319,37.933237,6962.0492712,86.291,-1.863,3.333
3.507,128.182324,37.933284,6961.6539456,86.136,-1.865,3.353
3.5237,128.182328,37.933331,6961.257096,85.911,-1.868,3.373
3.5404,128.182333,37.933377,6960.8581128000005,85.62,-1.871,3.395
3.5571,128.182338,37.933424,6960.4576056000005,85.265,-1.875,3.417
3.5738,128.182343,37.93347,6960.055574400001,84.849,-1.879,3.439
3.5905,128.182348,37.933517,6959.652019200001,84.375,-1.883,3.461
3.6072,128.182353,37.933563,6959.2466352,83.846,-1.888,3.483
3.6239,128.182357,37.93361,6958.8397272,83.263,-1.893,3.505
3.6406,128.182362,37.933657,6958.4312952,82.63,-1.899,3.527
3.6573,128.182368,37.933703,6958.0213392,81.948,-1.905,3.549
3.674,128.182373,37.93375,6957.609859200001,81.221,-1.911,3.57
3.6907,128.182378,37.933796,6957.197160000001,80.448,-1.918,3.591
3.7074,128.182383,37.933843,6956.7832416,79.634,-1.925,3.611
3.7241,128.182388,37.93389,6956.3677992,78.78,-1.933,3.63
3.7408,128.182393,37.933936,6955.951442400001,77.888,-1.941,3.649
3.7575,128.182399,37.933983,6955.5335616,76.959,-1.949,3.667
3.7742,128.182404,37.934029,6955.1156808000005,76.203,-1.971,3.687
3.7909,128.182409,37.934076,6954.696276,75.614,-2.005,3.708
3.8076,128.182415,37.934123,6954.275652000001,75.195,-2.047,3.731
3.8243,128.18242,37.934169,6953.853504000001,74.945,-2.091,3.753
3.841,128.182425,37.934216,6953.430136800001,74.861,-2.137,3.775
3.8577,128.182431,37.934263,6953.0049408,74.94,-2.182,3.796
3.8744,128.182436,37.934309,6952.577916,75.174,-2.226,3.816
3.8911,128.182442,37.934356,6952.1490624,75.552,-2.268,3.835
3.9078,128.182447,37.934403,6951.71838,76.052,-2.308,3.854
3.9245,128.182453,37.934449,6951.285564000001,76.657,-2.344,3.872
3.9412,128.182458,37.934496,6950.8506144,77.187,-2.368,3.887
3.9579,128.182464,37.934543,6950.4135312,77.641,-2.379,3.9
3.9746,128.182469,37.934589,6949.975228800001,78.015,-2.383,3.912
3.9913,128.182475,37.934636,6949.5354024,78.306,-2.384,3.925
4.008,128.18248,37.934683,6949.094052000001,78.512,-2.384,3.938
4.0247,128.182486,37.93473,6948.6514824000005,78.636,-2.384,3.952
4.0414,128.182492,37.934776,6948.2076936,78.68,-2.385,3.968
4.058,128.182497,37.934823,6947.7623808,78.648,-2.386,3.985
4.0748,128.182503,37.93487,6947.3161536,78.542,-2.387,4.003
4.0915,128.182509,37.934916,6946.8687072,78.366,-2.389,4.021
4.1082,128.182515,37.934963,6946.4200416,78.122,-2.391,4.041
4.1249,128.18252,37.93501,6945.9704616,77.814,-2.394,4.061
4.1415,128.182526,37.935057,6945.5196624,77.445,-2.397,4.082
4.1583,128.182532,37.935103,6945.067644,77.016,-2.401,4.102
4.175,128.182538,37.93515,6944.614711200001,76.531,-2.404,4.123
4.1917,128.182544,37.935197,6944.1605592000005,75.992,-2.408,4.144
4.2084,128.18255,37.935244,6943.705492800001,75.401,-2.413,4.165
4.2251,128.182556,37.935291,6943.249512,74.761,-2.418,4.186
4.2417,128.182562,37.935337,6942.7926168,74.074,-2.423,4.206
4.2585,128.182569,37.935384,6942.3348072,73.341,-2.429,4.226
4.2752,128.182575,37.935431,6941.876083200001,72.566,-2.435,4.246
4.2919,128.182581,37.935478,6941.4167496,71.75,-2.441,4.264
4.3086,128.182587,37.935524,6940.9568064000005,70.894,-2.449,4.282
4.3252,128.182594,37.935571,6940.4959488,70.001,-2.456,4.3
4.342,128.1826,37.935618,6940.0347864000005,69.072,-2.464,4.316
4.3587,128.182607,37.935665,6939.573014400001,68.109,-2.473,4.331
4.3754,128.182613,37.935712,6939.1109376,67.114,-2.482,4.346
4.3921,128.182619,37.935758,6938.6482512,66.088,-2.492,4.36
4.4088,128.182626,37.935805,6938.186174400001,65.242,-2.515,4.378
4.4254,128.182633,37.935852,6937.723183200001,64.571,-2.55,4.4
4.4422,128.182639,37.935899,6937.259582400001,64.076,-2.593,4.425
4.4589,128.182646,37.935946,6936.7950672,63.757,-2.639,4.45
4.4756,128.182652,37.935992,6936.329637600001,63.402,-2.673,4.47
4.4923,128.182659,37.936039,6935.8639032,63.012,-2.692,4.488
4.5089,128.182666,37.936086,6935.3981688,62.58,-2.702,4.505
4.5256,128.182673,37.936133,6934.9324344,62.101,-2.705,4.525
4.5424,128.182679,37.93618,6934.4667,61.572,-2.705,4.547
4.5591,128.182686,37.936227,6934.001270400001,60.992,-2.702,4.574
4.5758,128.182693,37.936273,6933.5361456,60.364,-2.698,4.605
4.5925,128.1827,37.93632,6933.0713256,59.688,-2.69,4.641
4.6091,128.182707,37.936367,6932.6068104000005,58.968,-2.68,4.682
4.6259,128.182714,37.936414,6932.1429048,58.204,-2.667,4.729
4.6426,128.182721,37.936461,6931.6796088,57.399,-2.65,4.781
4.6593,128.182728,37.936508,6931.2169224,56.556,-2.63,4.838
4.676,128.182735,37.936555,6930.7548456,55.675,-2.607,4.899
4.6927,128.182743,37.936601,6930.293988,54.758,-2.579,4.965
4.7093,128.18275,37.936648,6929.8340448,53.807,-2.548,5.036
4.7261,128.182757,37.936695,6929.3756256,52.824,-2.512,5.11
4.7428,128.182764,37.936742,6928.9181208,51.809,-2.472,5.189
4.7595,128.182772,37.936789,6928.4624448,50.765,-2.428,5.272
4.7762,128.182779,37.936836,6928.008597600001,49.692,-2.379,5.357
4.7928,128.182787,37.936883,6927.556579200001,48.591,-2.326,5.445
4.8096,128.182794,37.93693,6927.1063896,47.463,-2.271,5.533
4.8263,128.182802,37.936977,6926.6589432,46.308,-2.212,5.622
4.843,128.182809,37.937023,6926.2136304,45.129,-2.15,5.712
4.8597,128.182817,37.93707,6925.771060800001,43.925,-2.085,5.802
4.8764,128.182825,37.937117,6925.3315391999995,42.696,-2.017,5.891
4.893,128.182833,37.937164,6924.895065600001,41.444,-1.946,5.98
4.9098,128.18284,37.937211,6924.46164,40.168,-1.884,6.058
4.9265,128.182848,37.937258,6924.0312624,38.871,-1.844,6.114
4.9432,128.182856,37.937305,6923.603628000001,37.552,-1.838,6.14
4.9599,128.182864,37.937352,6923.1793464,36.211,-1.863,6.14
4.9765,128.182872,37.937399,6922.7587224,34.848,-1.911,6.123
4.9932,128.18288,37.937446,6922.341146400001,33.463,-1.972,6.096
5.01,128.182888,37.937492,6921.9272280000005,32.057,-2.04,6.063
5.0267,128.182896,37.937539,6921.5169672,30.627,-2.112,6.029
5.0434,128.182905,37.937586,6921.1100592,29.175,-2.186,5.995
5.0601,128.182913,37.937633,6920.706504,27.7,-2.259,5.963
5.0767,128.182921,37.93768,6920.3066064,26.202,-2.332,5.932
5.0935,128.182929,37.937727,6919.9103663999995,24.682,-2.404,5.904
5.1102,128.182937,37.937774,6919.517479200001,23.141,-2.474,5.878
5.1269,128.182946,37.937821,6919.1279448000005,21.579,-2.542,5.855
5.1436,128.182954,37.937867,6918.7423728,19.995,-2.604,5.837
5.1602,128.182962,37.937914,6918.3604584,18.392,-2.653,5.824
5.1769,128.182971,37.937961,6917.982201600001,16.769,-2.687,5.818
5.1937,128.182979,37.938008,6917.6079072,15.127,-2.702,5.818
5.2104,128.182987,37.938055,6917.23788,13.466,-2.7,5.824
5.2271,128.182996,37.938102,6916.871815200001,11.787,-2.679,5.835
5.2438,128.183004,37.938149,6916.5100176000005,10.091,-2.64,5.849
5.2604,128.183013,37.938196,6916.152792000001,8.379,-2.585,5.865
5.2772,128.183021,37.938242,6915.800138400001,6.65,-2.515,5.882
5.2939,128.183029,37.938289,6915.4523616,4.907,-2.431,5.899
5.3106,128.183038,37.938336,6915.109156800001,3.148,-2.334,5.914
5.3273,128.183046,37.938383,6914.771438400001,1.375,-2.226,5.927
5.3439,128.183055,37.93843,6914.439206400001,-0.412,-2.109,5.937
5.3606,128.183063,37.938477,6914.112156000001,-2.213,-1.984,5.943
5.3774,128.183071,37.938524,6913.790896800001,-4.029,-1.851,5.944
5.3941,128.18308,37.938571,6913.475733600001,-5.86,-1.713,5.94
5.4108,128.183088,37.938618,6913.1666663999995,-7.705,-1.569,5.931
5.4275,128.183096,37.938664,6912.863695200001,-9.564,-1.42,5.915
5.4441,128.183105,37.938711,6912.567124800001,-11.439,-1.267,5.894
5.4609,128.183113,37.938758,6912.276955200001,-13.329,-1.111,5.865
5.4776,128.183121,37.938805,6911.993796000001,-15.236,-0.952,5.829
5.4943,128.18313,37.938852,6911.7170376,-17.159,-0.791,5.786
5.511,128.183138,37.938899,6911.4475944000005,-19.099,-0.627,5.736
5.5277,128.183146,37.938946,6911.1848568000005,-21.056,-0.462,5.677
5.5443,128.183154,37.938993,6910.9294344,-23.032,-0.296,5.61
5.5611,128.183162,37.93904,6910.6810224,-25.026,-0.13,5.534
5.5778,128.18317,37.939087,6910.4399256,-27.039,0.037,5.45
5.5945,128.183178,37.939133,6910.2058392,-29.073,0.204,5.356
5.6112,128.183186,37.93918,6909.979068000001,-31.127,0.372,5.253
5.6278,128.183194,37.939227,6909.759612,-33.201,0.538,5.14
5.6445,128.183202,37.939274,6909.5471664,-35.298,0.704,5.017
5.6613,128.183209,37.939321,6909.3417312,-37.417,0.868,4.883
5.678,128.183217,37.939368,6909.143306400001,-39.558,1.031,4.739
5.6947,128.183224,37.939415,6908.9515872,-41.723,1.191,4.583
5.7114,128.183232,37.939462,6908.766878400001,-43.911,1.349,4.416
5.728,128.183239,37.939509,6908.5888752,-46.124,1.503,4.237
5.7448,128.183246,37.939556,6908.416968,-48.361,1.653,4.047
5.7615,128.183254,37.939603,6908.2514616,-50.623,1.799,3.844
5.7782,128.183261,37.93965,6908.0917464,-52.911,1.94,3.628
5.7949,128.183267,37.939697,6907.9378224,-55.224,2.075,3.399
5.8115,128.183274,37.939744,6907.7893848,-57.563,2.204,3.157
5.8282,128.183281,37.939791,6907.6455192,-59.913,2.326,2.902
5.845,128.183287,37.939838,6907.5059208,-62.242,2.442,2.636
5.8617,128.183294,37.939885,6907.3696752,-64.519,2.549,2.364
5.8784,128.1833,37.939932,6907.2364776,-66.72,2.647,2.09
5.8951,128.183306,37.939979,6907.106023200001,-68.823,2.734,1.815
5.9117,128.183312,37.940026,6906.9780072,-70.812,2.81,1.541
5.9285,128.183318,37.940073,6906.851820000001,-72.676,2.875,1.269
5.9452,128.183324,37.94012,6906.727156800001,-74.41,2.928,0.999
5.9619,128.18333,37.940167,6906.6037128,-76.011,2.969,0.731
5.9786,128.183336,37.940214,6906.4811832000005,-77.481,2.999,0.466
5.9952,128.183341,37.940261,6906.3592632,-78.823,3.019,0.204
6.0119,128.183346,37.940308,6906.237648,-80.043,3.028,359.945
6.0287,128.183352,37.940355,6906.1160328000005,-81.148,3.028,359.689
6.0454,128.183357,37.940402,6905.9944176,-82.144,3.019,359.438
6.0621,128.183362,37.940449,6905.872497600001,-83.041,3.002,359.191
6.0788,128.183367,37.940496,6905.749968,-83.847,2.978,358.948
6.0954,128.183372,37.940543,6905.626828800001,-84.57,2.948,358.711
6.1121,128.183376,37.940591,6905.5033848,-85.219,2.912,358.478
6.1289,128.183381,37.940638,6905.3790264,-85.801,2.871,358.252
6.1456,128.183386,37.940685,6905.2537536,-86.325,2.826,358.03
6.1623,128.18339,37.940732,6905.1272616,-86.803,2.78,357.814
6.179,128.183394,37.940779,6904.999855200001,-87.244,2.734,357.604
6.1956,128.183398,37.940826,6904.8709248000005,-87.656,2.69,357.398
6.2124,128.183402,37.940873,6904.7407752,-88.038,2.648,357.198
6.2291,128.183406,37.94092,6904.609406400001,-88.392,2.605,357.003
6.2458,128.18341,37.940968,6904.4768184,-88.713,2.563,356.812
6.2625,128.183414,37.941015,6904.342706400001,-89.001,2.52,356.629
6.2791,128.183417,37.941062,6904.207070400001,-89.251,2.477,356.455
6.2958,128.183421,37.941109,6904.0699104000005,-89.462,2.433,356.295
6.3126,128.183424,37.941156,6903.9312264,-89.628,2.389,356.15
6.3293,128.183427,37.941203,6903.7910184,-89.744,2.346,356.021
6.346,128.18343,37.941251,6903.6489816,-89.808,2.303,355.904
6.3627,128.183433,37.941298,6903.5054208,-89.818,2.261,355.798
6.3793,128.183436,37.941345,6903.3600312,-89.769,2.22,355.701
6.3961,128.183439,37.941392,6903.2128128,-89.661,2.18,355.612
6.4128,128.183441,37.941439,6903.064070400001,-89.489,2.141,355.529
6.4295,128.183444,37.941486,6902.913804,-89.257,2.104,355.45
6.4462,128.183446,37.941534,6902.761708800001,-88.966,2.068,355.374
6.4628,128.183449,37.941581,6902.6086992,-88.69,2.029,355.299
6.4795,128.183451,37.941628,6902.453860800001,-88.434,1.987,355.226
6.4963,128.183453,37.941675,6902.2978032,-88.198,1.945,355.153
6.513,128.183455,37.941722,6902.1399168,-87.979,1.903,355.078
6.5297,128.183457,37.94177,6901.981116,-87.775,1.862,355.0
6.5464,128.183458,37.941817,6901.8204864,-87.583,1.822,354.919
6.5631,128.18346,37.941864,6901.6589424,-87.396,1.785,354.836
6.5798,128.183461,37.941911,6901.495569600001,-87.213,1.749,354.752
6.5965,128.183463,37.941958,6901.3312824,-87.029,1.715,354.667
6.6132,128.183464,37.942005,6901.1654712,-86.843,1.683,354.579
6.6299,128.183465,37.942053,6900.998136,-86.653,1.653,354.488
6.6466,128.183466,37.9421,6900.829886400001,-86.457,1.625,354.396
6.6633,128.183467,37.942147,6900.6604176,-86.255,1.598,354.3
6.68,128.183467,37.942194,6900.4897296,-86.047,1.572,354.2
6.6967,128.183468,37.942241,6900.3178224,-85.833,1.548,354.096
6.7134,128.183468,37.942288,6900.144696,-85.612,1.525,353.988
6.7301,128.183469,37.942336,6899.970655200001,-85.385,1.503,353.876
6.7468,128.183469,37.942383,6899.795395200001,-85.149,1.483,353.763
6.7635,128.183469,37.94243,6899.6192208,-84.903,1.464,353.649
6.7802,128.183469,37.942477,6899.442132,-84.649,1.446,353.534
6.7969,128.183469,37.942524,6899.263824000001,-84.387,1.429,353.417
6.8136,128.183468,37.942571,6899.0849064,-84.116,1.414,353.3
6.8303,128.183468,37.942618,6898.905074400001,-83.839,1.399,353.18
6.847,128.183467,37.942666,6898.724328,-83.555,1.386,353.058
6.8637,128.183467,37.942713,6898.542972,-83.263,1.374,352.937
6.8804,128.183466,37.94276,6898.3607016000005,-82.964,1.364,352.814
6.8971,128.183465,37.942807,6898.1778216,-82.659,1.354,352.691
6.9138,128.183464,37.942854,6897.994332,-82.349,1.346,352.566
6.9305,128.183463,37.942901,6897.8105376,-82.033,1.34,352.44
6.9472,128.183461,37.942948,6897.625828800001,-81.711,1.334,352.313
6.9639,128.18346,37.942995,6897.44112,-81.384,1.33,352.187
6.9806,128.183459,37.943042,6897.255801600001,-81.052,1.327,352.06
6.9973,128.183457,37.94309,6897.0701784,-80.715,1.326,351.934
7.014,128.183455,37.943137,6896.8842504,-80.373,1.326,351.807
7.0307,128.183453,37.943184,6896.6983224000005,-80.029,1.327,351.677
7.0474,128.183451,37.943231,6896.5123944,-79.686,1.331,351.544
7.0641,128.183449,37.943278,6896.3261616,-79.342,1.336,351.409
7.0808,128.183447,37.943325,6896.140233600001,-78.999,1.343,351.27
7.0975,128.183444,37.943372,6895.9543056,-78.66,1.352,351.126
7.1142,128.183442,37.943419,6895.7686824,-78.322,1.363,350.98
7.1309,128.183439,37.943466,6895.5830592,-77.986,1.375,350.832
7.1476,128.183436,37.943513,6895.3980456,-77.652,1.39,350.682
7.1643,128.183433,37.94356,6895.2133368,-77.319,1.405,350.532
7.181,128.18343,37.943607,6895.029237600001,-76.991,1.423,350.382
7.1977,128.183427,37.943654,6894.845748,-76.668,1.441,350.234
7.2144,128.183423,37.943701,6894.6625632000005,-76.347,1.46,350.087
7.2311,128.18342,37.943748,6894.480292800001,-76.03,1.48,349.942
7.2478,128.183416,37.943795,6894.298936800001,-75.716,1.501,349.799
7.2645,128.183412,37.943842,6894.1184952,-75.408,1.522,349.658
7.2812,128.183408,37.943889,6893.9386632000005,-75.108,1.545,349.519
7.2979,128.183404,37.943936,6893.7600504,-74.813,1.567,349.383
7.3146,128.1834,37.943983,6893.582352000001,-74.525,1.591,349.248
7.3313,128.183396,37.94403,6893.4058728,-74.244,1.615,349.115
7.348,128.183391,37.944077,6893.2306128,-73.973,1.639,348.984
7.3647,128.183387,37.944123,6893.056572,-73.708,1.664,348.854
7.3814,128.183382,37.94417,6892.8840552,-73.451,1.69,348.725
7.3981,128.183377,37.944217,6892.7127576,-73.204,1.716,348.598
7.4148,128.183372,37.944264,6892.542069600001,-72.895,1.747,348.473
7.4315,128.183367,37.944311,6892.3729056,-72.528,1.782,348.35
7.4482,128.183362,37.944358,6892.204656000001,-72.119,1.818,348.229
7.4649,128.183356,37.944404,6892.0376256,-71.671,1.856,348.109
7.4816,128.183351,37.944451,6891.872424000001,-71.2,1.893,347.99
7.4983,128.183345,37.944498,6891.7090512,-70.719,1.93,347.871
7.515,128.183339,37.944545,6891.5472024,-70.235,1.967,347.754
7.5317,128.183333,37.944592,6891.387792,-69.758,2.003,347.638
7.5484,128.183327,37.944638,6891.230210400001,-69.295,2.039,347.522
7.5651,128.183321,37.944685,6891.075372,-68.851,2.075,347.407
7.5818,128.183315,37.944732,6890.922972,-68.43,2.112,347.293
7.5985,128.183308,37.944778,6890.773010400001,-68.042,2.149,347.179
7.6152,128.183302,37.944825,6890.625792000001,-67.683,2.187,347.066
7.6319,128.183295,37.944872,6890.4813168,-67.355,2.226,346.953
7.6486,128.183288,37.944918,6890.3398896,-67.058,2.266,346.84
7.6653,128.183281,37.944965,6890.2012056,-66.791,2.305,346.727
7.682,128.183274,37.945011,6890.0655696,-66.551,2.344,346.612
7.6987,128.183266,37.945058,6889.9329816,-66.341,2.383,346.497
7.7154,128.183259,37.945105,6889.803441600001,-66.158,2.422,346.382
7.7321,128.183251,37.945151,6889.676949600001,-66.002,2.462,346.265
7.7488,128.183244,37.945198,6889.553505600001,-65.872,2.502,346.149
7.7655,128.183236,37.945244,6889.4331096000005,-65.765,2.542,346.031
7.7822,128.183228,37.94529,6889.3157616,-65.679,2.584,345.913
7.7989,128.18322,37.945337,6889.201156800001,-65.613,2.626,345.795
7.8156,128.183211,37.945383,6889.0899048,-65.564,2.668,345.676
7.8323,128.183203,37.94543,6888.981700800001,-65.53,2.711,345.557
7.849,128.183195,37.945476,6888.8765448,-65.509,2.754,345.436
7.8657,128.183186,37.945522,6888.7741320000005,-65.501,2.797,345.315
7.8824,128.183177,37.945569,6888.6747672,-65.503,2.84,345.194
7.8991,128.183168,37.945615,6888.5787552,-65.512,2.882,345.071
7.9158,128.183159,37.945661,6888.485486400001,-65.528,2.923,344.948
7.9325,128.18315,37.945707,6888.395265600001,-65.549,2.963,344.823
7.9492,128.183141,37.945754,6888.307788000001,-65.574,3.001,344.697
7.9659,128.183131,37.9458,6888.2236632,-65.603,3.038,344.57
7.9826,128.183122,37.945846,6888.1422816,-65.637,3.073,344.441
7.9993,128.183112,37.945892,6888.0636432,-65.674,3.108,344.311
8.016,128.183102,37.945938,6887.9883576,-65.714,3.141,344.18
8.0327,128.183092,37.945984,6887.915815200001,-65.757,3.172,344.048
8.0494,128.183082,37.94603,6887.8460159999995,-65.804,3.203,343.915
8.0661,128.183072,37.946076,6887.7792648,-65.856,3.234,343.782
8.0828,128.183062,37.946122,6887.715256800001,-65.913,3.264,343.647
8.0994,128.183051,37.946168,6887.6539920000005,-65.974,3.294,343.513
8.1161,128.183041,37.946214,6887.5957751999995,-66.041,3.323,343.377
8.1329,128.18303,37.94626,6887.540301600001,-66.112,3.353,343.242
8.1496,128.183019,37.946306,6887.4875712,-66.188,3.382,343.106
8.1663,128.183008,37.946351,6887.437584000001,-66.269,3.411,342.969
8.183,128.182997,37.946397,6887.3906448,-66.354,3.44,342.832
8.1997,128.182986,37.946443,6887.346144,-66.443,3.469,342.695
8.2164,128.182975,37.946489,6887.3043864,-66.538,3.497,342.558
8.2331,128.182963,37.946534,6887.265676800001,-66.636,3.525,342.42
8.2498,128.182952,37.94658,6887.229405600001,-66.74,3.553,342.281
8.2665,128.18294,37.946626,6887.1958776,-66.848,3.581,342.143
8.2831,128.182928,37.946671,6887.165092800001,-66.962,3.607,342.004
8.2998,128.182916,37.946717,6887.1370512,-67.082,3.634,341.864
8.3166,128.182904,37.946762,6887.111448,-67.207,3.66,341.725
8.3333,128.182892,37.946808,6887.0885880000005,-67.337,3.685,341.584
8.35,128.18288,37.946853,6887.0681664,-67.473,3.711,341.444
8.3667,128.182867,37.946898,6887.050792800001,-67.615,3.735,341.303
8.3834,128.182854,37.946944,6887.0355528,-67.763,3.759,341.162
8.4001,128.182842,37.946989,6887.023056000001,-67.916,3.783,341.021
8.4168,128.182829,37.947034,6887.0133024,-68.073,3.805,340.88
8.4335,128.182816,37.94708,6887.0056824,-68.237,3.828,340.739
8.4502,128.182803,37.947125,6887.000805600001,-68.406,3.849,340.597
8.4668,128.182789,37.94717,6886.9980624,-68.58,3.87,340.455
8.4835,128.182776,37.947215,6886.9980624,-68.758,3.891,340.313
8.5003,128.182763,37.94726,6887.000196000001,-68.941,3.911,340.171
8.517,128.182749,37.947306,6887.004768000001,-69.128,3.93,340.028
8.5337,128.182735,37.947351,6887.0114736000005,-69.319,3.949,339.885
8.5504,128.182721,37.947396,6887.0206176,-69.515,3.967,339.742
8.5671,128.182707,37.947441,6887.031895200001,-69.715,3.984,339.598
8.5838,128.182693,37.947486,6887.045611200001,-69.921,4.0,339.454
8.6005,128.182679,37.947531,6887.061156000001,-70.131,4.016,339.31
8.6172,128.182664,37.947576,6887.0788344,-70.345,4.031,339.165
8.6339,128.18265,37.94762,6887.098646400001,-70.564,4.046,339.02
8.6505,128.182635,37.947665,6887.120592,-70.785,4.059,338.875
8.6672,128.18262,37.94771,6887.1443664,-71.011,4.072,338.729
8.684,128.182605,37.947755,6887.1702744,-71.239,4.085,338.583
8.7007,128.18259,37.9478,6887.197706400001,-71.472,4.096,338.437
8.7174,128.182575,37.947844,6887.227272,-71.707,4.107,338.291
8.7341,128.18256,37.947889,6887.2586664,-71.946,4.117,338.144
8.7508,128.182544,37.947934,6887.2915848,-72.188,4.126,337.996
8.7675,128.182529,37.947978,6887.326332000001,-72.432,4.134,337.849
8.7842,128.182513,37.948023,6887.3626032,-72.679,4.141,337.701
8.8009,128.182497,37.948067,6887.4003984,-72.929,4.148,337.553
8.8176,128.182481,37.948112,6887.4400224,-73.181,4.153,337.404
8.8342,128.182465,37.948156,6887.4808656000005,-73.436,4.158,337.255
8.8509,128.182449,37.948201,6887.5232328,-73.692,4.162,337.106
8.8676,128.182432,37.948245,6887.567124000001,-73.951,4.165,336.957
8.8844,128.182416,37.948289,6887.6122344,-74.211,4.168,336.807
8.9011,128.182399,37.948334,6887.6588688,-74.474,4.169,336.657
8.9178,128.182382,37.948378,6887.7064176,-74.739,4.169,336.507
8.9345,128.182365,37.948422,6887.7551856,-75.005,4.169,336.357
8.9512,128.182348,37.948466,6887.8051728,-75.273,4.167,336.206
8.9679,128.182331,37.948511,6887.8563792,-75.543,4.165,336.055
8.9846,128.182314,37.948555,6887.9085000000005,-75.814,4.162,335.904
9.0013,128.182296,37.948599,6887.9615352,-76.086,4.158,335.752
9.0179,128.182279,37.948643,6888.0154848,-76.359,4.152,335.6
9.0346,128.182261,37.948687,6888.070044,-76.634,4.146,335.448
9.0513,128.182243,37.948731,6888.1255176,-76.909,4.139,335.296
9.0681,128.182225,37.948775,6888.1819056,-77.186,4.131,335.144
9.0848,128.182207,37.948819,6888.2389032,-77.464,4.123,334.991
9.1015,128.182189,37.948863,6888.2965104,-77.742,4.113,334.838
9.1182,128.182171,37.948906,6888.3547272000005,-78.021,4.102,334.685
9.1349,128.182152,37.94895,6888.4132488000005,-78.301,4.09,334.532
9.1516,128.182133,37.948994,6888.47238,-78.582,4.077,334.379
9.1683,128.182115,37.949037,6888.531816,-78.863,4.064,334.225
9.185,128.182096,37.949081,6888.591556800001,-79.145,4.049,334.071
9.2016,128.182077,37.949125,6888.6519072,-79.428,4.034,333.917
9.2183,128.182058,37.949168,6888.7119528,-79.711,4.017,333.763
9.235,128.182038,37.949212,6888.772608,-79.995,3.999,333.609
9.2518,128.182019,37.949255,6888.8329584,-80.28,3.981,333.455
9.2685,128.181999,37.949299,6888.8936136,-80.565,3.961,333.3
9.2852,128.18198,37.949342,6888.9542688,-80.85,3.941,333.145
9.3019,128.18196,37.949385,6889.0146192,-81.135,3.919,332.99
9.3186,128.18194,37.949429,6889.0749696,-81.421,3.897,332.835
9.3353,128.18192,37.949472,6889.134710400001,-81.707,3.874,332.68
9.352,128.1819,37.949515,6889.194756000001,-81.994,3.85,332.524
9.3687,128.181879,37.949558,6889.254192,-82.281,3.824,332.369
9.3854,128.181859,37.949601,6889.3130184,-82.568,3.798,332.213
9.402,128.181838,37.949645,6889.37154,-82.855,3.771,332.057
9.4187,128.181818,37.949688,6889.429756800001,-83.143,3.743,331.901
9.4355,128.181797,37.949731,6889.487059200001,-83.43,3.713,331.745
9.4522,128.181776,37.949773,6889.544056800001,-83.718,3.683,331.588
9.4689,128.181755,37.949816,6889.6001400000005,-84.006,3.652,331.432
9.4856,128.181733,37.949859,6889.6556136,-84.294,3.62,331.275
9.5023,128.181712,37.949902,6889.710172800001,-84.583,3.587,331.119
9.519,128.181691,37.949945,6889.7638176,-84.871,3.553,330.963
9.5357,128.181669,37.949987,6889.816548,-85.159,3.518,330.806
9.5524,128.181647,37.95003,6889.8680592,-85.448,3.482,330.649
9.5691,128.181625,37.950073,6889.918656000001,-85.736,3.445,330.493
9.5857,128.181603,37.950115,6889.968338400001,-86.025,3.407,330.336
9.6024,128.181581,37.950158,6890.016496800001,-86.313,3.368,330.18
9.6192,128.181559,37.9502,6890.0637408,-86.602,3.328,330.023
9.6359,128.181537,37.950242,6890.109460800001,-86.89,3.288,329.866
9.6526,128.181514,37.950285,6890.1539616,-87.179,3.246,329.71
9.6693,128.181491,37.950327,6890.196938400001,-87.467,3.203,329.553
9.686,128.181469,37.950369,6890.2383912000005,-87.756,3.16,329.397
9.7027,128.181446,37.950412,6890.27832,-88.044,3.115,329.24
9.7194,128.181423,37.950454,6890.316420000001,-88.332,3.069,329.084
9.7361,128.1814,37.950496,6890.3529960000005,-88.62,3.023,328.927
9.7528,128.181376,37.950538,6890.388048,-88.908,2.975,328.771
9.7694,128.181353,37.95058,6890.4209664,-89.195,2.927,328.615
9.7861,128.181329,37.950622,6890.452056000001,-89.483,2.878,328.458
9.8029,128.181306,37.950664,6890.4813168,-89.77,2.827,328.302
9.8196,128.181282,37.950705,6890.5087488,-90.057,2.776,328.146
9.8363,128.181258,37.950747,6890.534047200001,-90.344,2.724,327.99
9.853,128.181234,37.950789,6890.557212,-90.63,2.671,327.834
9.8697,128.18121,37.950831,6890.577938400001,-90.917,2.617,327.678
9.8864,128.181185,37.950872,6890.596836000001,-91.203,2.562,327.523
9.9031,128.181161,37.950914,6890.613295200001,-91.488,2.506,327.367
9.9198,128.181136,37.950955,6890.627316,-91.774,2.449,327.212
9.9365,128.181112,37.950997,6890.6388984,-92.059,2.391,327.056
9.9531,128.181087,37.951038,6890.648042400001,-92.344,2.333,326.901
9.9698,128.181062,37.95108,6890.654748,-92.629,2.273,326.746
9.9865,128.181037,37.951121,6890.658710400001,-92.913,2.213,326.591
10.0033,128.181012,37.951162,6890.6599295999995,-93.197,2.151,326.436
10.02,128.180987,37.951203,6890.658710400001,-93.48,2.089,326.282
10.0367,128.180961,37.951244,6890.6544432,-93.764,2.026,326.127
10.0534,128.180936,37.951286,6890.6474328,-94.046,1.962,325.973
10.0701,128.18091,37.951327,6890.637679200001,-94.329,1.897,325.819
10.0868,128.180884,37.951368,6890.6245728,-94.61,1.831,325.665
10.1035,128.180858,37.951408,6890.608723200001,-94.892,1.764,325.511
10.1202,128.180832,37.951449,6890.5898256,-95.173,1.697,325.358
10.1368,128.180806,37.95149,6890.5675752,-95.453,1.628,325.204
10.1535,128.18078,37.951531,6890.5422768,-95.733,1.559,325.051
10.1702,128.180753,37.951572,6890.5136256,-96.013,1.489,324.898
10.187,128.180727,37.951612,6890.4816216,-96.292,1.418,324.745
10.2037,128.1807,37.951653,6890.446264800001,-96.57,1.346,324.593
10.2204,128.180673,37.951693,6890.4075552,-96.848,1.273,324.44
10.2371,128.180646,37.951734,6890.365188000001,-97.125,1.2,324.288
10.2538,128.180619,37.951774,6890.3191632,-97.402,1.125,324.136
10.2705,128.180592,37.951814,6890.2694808,-97.677,1.05,323.985
10.2872,128.180565,37.951855,6890.2164456,-97.953,0.974,323.833
10.3039,128.180537,37.951895,6890.159447999999,-98.227,0.897,323.682
10.3205,128.18051,37.951935,6890.0984880000005,-98.501,0.819,323.531
10.3372,128.180482,37.951975,6890.0338704000005,-98.775,0.741,323.38
10.3539,128.180455,37.952015,6889.9652904,-99.047,0.662,323.23
10.3707,128.180427,37.952055,6889.892443199999,-99.319,0.581,323.079
10.3874,128.180399,37.952095,6889.815938400001,-99.591,0.5,322.929
10.4041,128.180371,37.952135,6889.7351664,-99.861,0.419,322.78
10.4208,128.180342,37.952175,6889.6501272000005,-100.131,0.336,322.63
10.4375,128.180314,37.952215,6889.5611256,-100.4,0.253,322.481
10.4542,128.180286,37.952254,6889.467552000001,-100.669,0.169,322.332
10.4709,128.180257,37.952294,6889.369711200001,-100.936,0.084,322.184
10.4876,128.180228,37.952334,6889.2676032,-101.203,-0.001,322.035
10.5042,128.180199,37.952373,6889.1609232,-101.47,-0.087,321.887
10.5209,128.180171,37.952413,6889.0496712,-101.735,-0.174,321.739
10.5376,128.180141,37.952452,6888.933847200001,-102.0,-0.262,321.592
10.5544,128.180112,37.952491,6888.813451200001,-102.264,-0.351,321.445
10.5711,128.180083,37.952531,6888.6884832000005,-102.527,-0.441,321.298
10.5878,128.180054,37.95257,6888.558638400001,-102.79,-0.531,321.151
10.6045,128.180024,37.952609,6888.4239168,-103.051,-0.622,321.005
10.6212,128.179994,37.952648,6888.2846232,-103.312,-0.713,320.859
10.6379,128.179965,37.952687,6888.1401479999995,-103.572,-0.805,320.713
10.6546,128.179935,37.952726,6887.990796,-103.83,-0.899,320.568
10.6713,128.179905,37.952765,6887.8362624,-104.088,-0.992,320.423
10.6879,128.179875,37.952804,6887.6768520000005,-104.345,-1.087,320.278
10.7046,128.179845,37.952842,6887.51226,-104.601,-1.182,320.134
10.7213,128.179814,37.952881,6887.3421816,-104.856,-1.278,319.99
10.7381,128.179784,37.95292,6887.1672264,-105.11,-1.374,319.846
10.7548,128.179753,37.952958,6886.9867848,-105.364,-1.471,319.702
10.7715,128.179723,37.952997,6886.801161599999,-105.616,-1.569,319.559
10.7882,128.179692,37.953035,6886.609747200001,-105.868,-1.668,319.416
10.8049,128.179661,37.953074,6886.4131512,-106.118,-1.767,319.274
10.8216,128.17963,37.953112,6886.2110688,-106.368,-1.867,319.132
10.8383,128.179599,37.95315,6886.0031952,-106.617,-1.968,318.99
10.855,128.179568,37.953189,6885.7898352,-106.866,-2.069,318.849
10.8717,128.179536,37.953227,6885.570684000001,-107.113,-2.171,318.707
10.8883,128.179505,37.953265,6885.346046400001,-107.36,-2.273,318.567
10.905,128.179473,37.953303,6885.1153128000005,-107.605,-2.376,318.426
10.9218,128.179442,37.953341,6884.878788000001,-107.849,-2.48,318.286
10.9385,128.17941,37.953379,6884.636472,-108.093,-2.584,318.147
10.9552,128.179378,37.953416,6884.38806,-108.335,-2.689,318.007
10.9719,128.179346,37.953454,6884.133856800001,-108.577,-2.794,317.868
10.9886,128.179314,37.953492,6883.8735576,-108.817,-2.901,317.73
11.0053,128.179282,37.953529,6883.6068576,-109.056,-3.007,317.591
11.022,128.17925,37.953567,6883.3343664,-109.294,-3.114,317.453
11.0387,128.179217,37.953604,6883.055474400001,-109.531,-3.222,317.316
11.0554,128.179185,37.953642,6882.7701816,-109.767,-3.331,317.179
11.072,128.179152,37.953679,6882.4787928000005,-110.003,-3.44,317.042
11.0887,128.179119,37.953716,6882.1810032,-110.237,-3.549,316.905
11.1054,128.179086,37.953754,6881.8768128,-110.47,-3.659,316.769
11.1222,128.179054,37.953791,6881.5662216,-110.702,-3.77,316.634
11.1389,128.179021,37.953828,6881.248924800001,-110.934,-3.881,316.498
11.1556,128.178987,37.953865,6880.9252272,-111.164,-3.993,316.363
11.1723,128.178954,37.953902,6880.594824000001,-111.393,-4.105,316.228
11.189,128.178921,37.953939,6880.258020000001,-111.621,-4.218,316.094
11.2057,128.178887,37.953975,6879.914205600001,-111.848,-4.331,315.96
11.2224,128.178854,37.954012,6879.5636856,-112.074,-4.445,315.826
11.2391,128.17882,37.954049,6879.20646,-112.299,-4.559,315.693
11.2557,128.178786,37.954085,6878.842224000001,-112.523,-4.674,315.56
11.2724,128.178753,37.954122,6878.471282400001,-112.746,-4.79,315.428
11.2891,128.178719,37.954158,6878.0933304,-112.967,-4.905,315.295
11.3059,128.178685,37.954195,6877.7083680000005,-113.188,-5.022,315.163
11.3226,128.17865,37.954231,6877.3163952,-113.408,-5.139,315.032
11.3393,128.178616,37.954267,6876.9171072,-113.627,-5.256,314.901
11.356,128.178582,37.954304,6876.5111136000005,-113.844,-5.374,314.77
11.3727,128.178547,37.95434,6876.097500000001,-114.061,-5.492,314.639
11.3894,128.178513,37.954376,6875.676876,-114.276,-5.611,314.509
11.4061,128.178478,37.954412,6875.248936800001,-114.585,-5.737,314.383
11.4228,128.178443,37.954448,6874.8133776,-114.985,-5.871,314.261
11.4394,128.178409,37.954483,6874.3695888,-115.477,-6.01,314.141
11.4561,128.178374,37.954519,6873.917570400001,-116.059,-6.153,314.024
11.4728,128.178338,37.954555,6873.4567128,-116.733,-6.299,313.907
11.4896,128.178303,37.95459,6872.987016,-117.495,-6.448,313.792
11.5063,128.178268,37.954626,6872.5081752,-118.344,-6.599,313.677
11.523,128.178232,37.954661,6872.0198856,-119.277,-6.753,313.562
11.5397,128.178197,37.954697,6871.521537600001,-120.291,-6.911,313.447
11.5564,128.178161,37.954732,6871.0128264,-121.385,-7.073,313.332
11.5731,128.178125,37.954767,6870.494056800001,-122.556,-7.238,313.218
11.5898,128.178089,37.954802,6869.964619200001,-123.801,-7.409,313.103
11.6065,128.178053,37.954837,6869.4245136,-125.12,-7.585,312.99
11.6231,128.178017,37.954872,6868.8725208,-126.344,-7.747,312.874
11.6398,128.177981,37.954907,6868.310469600001,-127.477,-7.895,312.756
11.6565,128.177945,37.954942,6867.737750400001,-128.518,-8.031,312.641
11.6733,128.177908,37.954976,6867.154668,-129.463,-8.158,312.529
11.69,128.177872,37.955011,6866.5615272000005,-130.312,-8.28,312.422
11.7067,128.177835,37.955045,6865.958328000001,-131.065,-8.399,312.322
11.7234,128.177799,37.95508,6865.3453752,-131.724,-8.516,312.228
11.7401,128.177762,37.955114,6864.723278400001,-132.292,-8.632,312.14
11.7568,128.177725,37.955149,6864.091428000001,-132.773,-8.747,312.057
11.7735,128.177689,37.955183,6863.450738400001,-133.17,-8.861,311.98
11.7902,128.177652,37.955218,6862.8012096,-133.487,-8.974,311.907
11.8068,128.177615,37.955252,6862.142841600001,-133.726,-9.087,311.837
11.8235,128.177578,37.955286,6861.476244,-133.892,-9.199,311.771
11.8402,128.17754,37.95532,6860.8014168,-133.988,-9.309,311.707
11.857,128.177503,37.955354,6860.11836,-134.015,-9.419,311.646
11.8737,128.177466,37.955388,6859.427988,-133.976,-9.528,311.587
11.8904,128.177429,37.955423,6858.7296912,-133.875,-9.636,311.528
11.9071,128.177391,37.955457,6858.024384000001,-133.713,-9.743,311.471
11.9238,128.177354,37.955491,6857.311456800001,-133.492,-9.848,311.415
11.9405,128.177317,37.955525,6856.5909096000005,-133.213,-9.952,311.358
11.9572,128.177279,37.955559,6855.862742400001,-132.88,-10.055,311.302
11.9739,128.177242,37.955592,6855.1269552,-132.492,-10.157,311.244
11.9905,128.177204,37.955626,6854.3838528,-132.053,-10.258,311.186
12.0072,128.177166,37.95566,6853.6328256,-131.562,-10.358,311.127
12.0239,128.177129,37.955694,6852.874483200001,-131.022,-10.456,311.067
12.0407,128.177091,37.955728,6852.1085207999995,-130.433,-10.553,311.004
12.0574,128.177053,37.955761,6851.334938400001,-129.796,-10.65,310.939
12.0741,128.177015,37.955795,6850.554040800001,-129.113,-10.745,310.871
12.0908,128.176977,37.955829,6849.765218400001,-128.385,-10.839,310.801
12.1075,128.176939,37.955862,6848.9690808000005,-127.611,-10.933,310.727
12.1242,128.176901,37.955896,6848.165628000001,-126.794,-11.025,310.65
12.1409,128.176863,37.95593,6847.354250400001,-125.937,-11.116,310.569
12.1576,128.176825,37.955963,6846.5361672,-125.205,-11.227,310.486
12.1743,128.176786,37.955996,6845.7098544,-124.591,-11.362,310.394
12.1909,128.176748,37.95603,6844.8750072,-124.1,-11.515,310.295
12.2076,128.176709,37.956063,6844.0319304,-123.732,-11.677,310.188
12.2243,128.176671,37.956096,6843.180014400001,-123.487,-11.846,310.077
12.2411,128.176632,37.956129,6842.3192592000005,-123.365,-12.016,309.962
12.2578,128.176594,37.956163,6841.449055200001,-123.362,-12.187,309.844
12.2745,128.176555,37.956196,6840.5697072,-123.475,-12.357,309.725
12.2912,128.176516,37.956229,6839.680300800001,-123.698,-12.525,309.606
12.3079,128.176477,37.956261,6838.781140800001,-124.029,-12.692,309.488
12.3246,128.176438,37.956294,6837.871922400001,-124.462,-12.857,309.37
12.3413,128.176399,37.956327,6836.952036000001,-124.993,-13.022,309.253
12.358,128.17636,37.95636,6836.021481600001,-125.62,-13.187,309.138
12.3746,128.17632,37.956392,6835.0796496,-126.337,-13.352,309.024
12.3913,128.176281,37.956425,6834.1268448,-127.141,-13.519,308.912
12.408,128.176242,37.956457,6833.1621528,-128.031,-13.687,308.802
12.4248,128.176202,37.956489,6832.185268800001,-129.001,-13.857,308.693
12.4415,128.176163,37.956521,6831.196497600001,-130.051,-14.031,308.586
12.4582,128.176123,37.956553,6830.1952296,-131.178,-14.208,308.48
12.4749,128.176083,37.956585,6829.181769600001,-132.378,-14.389,308.377
12.4916,128.176043,37.956617,6828.155508,-133.651,-14.575,308.276
12.5083,128.176003,37.956649,6827.1164448,-134.994,-14.765,308.177
12.525,128.175963,37.956681,6826.0639704000005,-136.239,-14.937,308.076
12.5417,128.175923,37.956712,6824.999608800001,-137.39,-15.08,307.983
12.5583,128.175883,37.956744,6823.923360000001,-138.445,-15.192,307.908
12.575,128.175843,37.956776,6822.835224,-139.399,-15.28,307.851
12.5917,128.175803,37.956807,6821.7361152,-140.251,-15.353,307.808
12.6085,128.175763,37.956838,6820.625728800001,-141.003,-15.417,307.777
12.6252,128.175722,37.95687,6819.5043696,-141.655,-15.475,307.753
12.6419,128.175682,37.956901,6818.372952000001,-142.212,-15.53,307.735
12.6586,128.175642,37.956932,6817.2311712,-142.678,-15.584,307.722
12.6753,128.175601,37.956963,6816.079941600001,-143.055,-15.639,307.711
12.692,128.175561,37.956995,6814.9189584000005,-143.349,-15.694,307.701
12.7087,128.17552,37.957026,6813.7488312000005,-143.562,-15.75,307.692
12.7254,128.17548,37.957057,6812.570169600001,-143.697,-15.807,307.684
12.742,128.175439,37.957088,6811.382668800001,-143.758,-15.865,307.675
12.7587,128.175399,37.957119,6810.1872432,-143.747,-15.925,307.666
12.7754,128.175358,37.95715,6808.983892800001,-143.667,-15.986,307.656
12.7922,128.175317,37.957181,6807.7729224,-143.52,-16.048,307.645
12.8089,128.175277,37.957212,6806.5546368000005,-143.309,-16.111,307.633
12.8256,128.175236,37.957242,6805.3287312,-143.035,-16.175,307.619
12.8423,128.175195,37.957273,6804.095205600001,-142.701,-16.241,307.604
12.859,128.175154,37.957304,6802.8543648,-142.308,-16.307,307.586
12.8757,128.175113,37.957335,6801.605904,-141.858,-16.374,307.567
12.8924,128.175072,37.957366,6800.3498232,-141.352,-16.443,307.545
12.9091,128.175031,37.957397,6799.0864272,-140.792,-16.512,307.52
12.9257,128.17499,37.957427,6797.815411200001,-140.18,-16.583,307.492
12.9424,128.174949,37.957458,6796.53708,-139.515,-16.654,307.462
12.9591,128.174908,37.957489,6795.2511288000005,-138.801,-16.727,307.428
12.9759,128.174867,37.957519,6793.9578624,-138.037,-16.801,307.39
12.9926,128.174826,37.95755,6792.656976,-137.225,-16.875,307.348
13.0093,128.174785,37.95758,6791.3487744,-136.365,-16.951,307.302
13.026,128.174744,37.957611,6790.0329528,-135.459,-17.028,307.252
13.0427,128.174702,37.957642,6788.709816,-134.507,-17.105,307.197
13.0594,128.174661,37.957672,6787.379364,-133.51,-17.183,307.138
13.0761,128.17462,37.957702,6786.0419016000005,-132.648,-17.285,307.077
13.0928,128.174578,37.957733,6784.695904800001,-131.915,-17.418,307.007
13.1095,128.174537,37.957763,6783.341678400001,-131.309,-17.582,306.915
13.1262,128.174495,37.957793,6781.9786128000005,-130.835,-17.77,306.801
13.1429,128.174454,37.957824,6780.6060984,-130.491,-17.973,306.671
13.1596,128.174412,37.957854,6779.22444,-130.277,-18.184,306.528
13.1763,128.174371,37.957884,6777.833332800001,-130.19,-18.399,306.377
13.193,128.174329,37.957914,6776.4318624,-130.225,-18.614,306.222
13.2097,128.174287,37.957944,6775.0203336,-130.378,-18.827,306.066
13.2264,128.174245,37.957974,6773.5981368,-130.645,-19.037,305.912
13.2431,128.174203,37.958003,6772.1649672,-131.021,-19.243,305.762
13.2598,128.174161,37.958033,6770.720824800001,-131.501,-19.446,305.615
13.2765,128.174119,37.958063,6769.2651000000005,-132.081,-19.646,305.473
13.2932,128.174077,37.958092,6767.797792800001,-132.756,-19.843,305.336
13.3099,128.174035,37.958122,6766.3182936,-133.522,-20.039,305.203
13.3266,128.173993,37.958151,6764.825992800001,-134.377,-20.234,305.076
13.3433,128.173951,37.95818,6763.3211952,-135.316,-20.429,304.954
13.36,128.173909,37.95821,6761.8029864,-136.337,-20.625,304.836
13.3767,128.173866,37.958239,6760.271976,-137.437,-20.822,304.723
13.3934,128.173824,37.958268,6758.7278592,-138.614,-21.021,304.615
13.4101,128.173782,37.958296,6757.1700264,-139.864,-21.222,304.511
13.4268,128.173739,37.958325,6755.5984776000005,-141.186,-21.427,304.413
13.4435,128.173697,37.958354,6754.0132128000005,-142.402,-21.61,304.312
13.4602,128.173654,37.958383,6752.415146400001,-143.517,-21.762,304.218
13.4769,128.173612,37.958411,6750.804888000001,-144.532,-21.873,304.146
13.4936,128.173569,37.95844,6749.1824376,-145.446,-21.942,304.103
13.5103,128.173527,37.958468,6747.5481,-146.256,-21.979,304.086
13.527,128.173484,37.958496,6745.9024848,-146.962,-21.995,304.086
13.5437,128.173441,37.958525,6744.245592,-147.565,-21.999,304.098
13.5604,128.173399,37.958553,6742.5783360000005,-148.069,-21.999,304.117
13.5771,128.173356,37.958581,6740.9007168,-148.477,-21.997,304.138
13.5938,128.173313,37.958609,6739.213344,-148.793,-21.996,304.161
13.6105,128.173271,37.958638,6737.5162176,-149.019,-21.997,304.184
13.6272,128.173228,37.958666,6735.810252000001,-149.16,-22.001,304.205
13.6439,128.173185,37.958694,6734.095447200001,-149.219,-22.009,304.225
13.6606,128.173142,37.958722,6732.3721080000005,-149.2,-22.021,304.242
13.6773,128.1731,37.95875,6730.640844,-149.104,-22.037,304.257
13.694,128.173057,37.958778,6728.90196,-148.934,-22.056,304.27
13.7107,128.173014,37.958806,6727.155760800001,-148.695,-22.078,304.279
13.7274,128.172971,37.958834,6725.402551200001,-148.387,-22.104,304.286
13.7441,128.172928,37.958861,6723.6417216,-148.013,-22.133,304.291
13.7608,128.172885,37.958889,6721.8738816000005,-147.575,-22.166,304.292
13.7775,128.172842,37.958917,6720.0990312,-147.076,-22.201,304.291
13.7942,128.172799,37.958945,6718.316560800001,-146.516,-22.24,304.286
13.8109,128.172756,37.958973,6716.5273848,-145.898,-22.281,304.278
13.8276,128.172713,37.959001,6714.7308936,-145.223,-22.325,304.266
13.8443,128.17267,37.959028,6712.9273920000005,-144.492,-22.373,304.251
13.861,128.172627,37.959056,6711.1165752,-143.708,-22.423,304.232
13.8777,128.172584,37.959084,6709.2990528,-142.871,-22.475,304.209
13.8944,128.172541,37.959112,6707.474215200001,-141.983,-22.53,304.181
13.9111,128.172498,37.959139,6705.6423672,-141.044,-22.588,304.15
13.9278,128.172454,37.959167,6703.803508800001,-140.056,-22.648,304.113
13.9445,128.172411,37.959194,6701.9573352,-139.019,-22.71,304.071
13.9612,128.172368,37.959222,6700.104456000001,-138.128,-22.799,304.03
13.9779,128.172325,37.959249,6698.243652000001,-137.372,-22.922,303.981
13.9946,128.172281,37.959277,6696.3746184,-136.749,-23.082,303.909
14.0113,128.172238,37.959304,6694.4967456,-136.26,-23.281,303.805
14.028,128.172195,37.959332,6692.610033600001,-135.903,-23.507,303.672
14.0447,128.172151,37.959359,6690.713568,-135.68,-23.751,303.516
14.0614,128.172108,37.959386,6688.8076536,-135.587,-24.005,303.346
14.0781,128.172064,37.959413,6686.8916808,-135.622,-24.263,303.168
14.0948,128.172021,37.95944,6684.96504,-135.78,-24.52,302.986
14.1115,128.171977,37.959467,6683.0277312,-136.057,-24.774,302.807
14.1282,128.171934,37.959494,6681.0791448,-136.447,-25.022,302.632
14.1449,128.17189,37.959521,6679.1192808000005,-136.947,-25.265,302.463
14.1616,128.171846,37.959548,6677.1475296,-137.551,-25.502,302.302
14.1783,128.171803,37.959575,6675.1635864,-138.255,-25.735,302.148
14.195,128.171759,37.959601,6673.167146400001,-139.054,-25.963,302.002
14.2117,128.171715,37.959628,6671.1576000000005,-139.945,-26.189,301.863
14.2284,128.171672,37.959654,6669.134947200001,-140.924,-26.411,301.733
14.2451,128.171628,37.95968,6667.0988832,-141.987,-26.633,301.609
14.2618,128.171584,37.959707,6665.0491032,-143.131,-26.854,301.493
14.2785,128.17154,37.959733,6662.985912,-144.354,-27.075,301.384
14.2952,128.171497,37.959759,6660.9087,-145.654,-27.296,301.282
14.3119,128.171453,37.959785,6658.8171624,-146.839,-27.494,301.178
14.3286,128.171409,37.959811,6656.713128,-147.918,-27.656,301.08
14.3453,128.171365,37.959836,6654.5959872,-148.891,-27.774,301.004
14.362,128.171321,37.959862,6652.467264000001,-149.761,-27.836,300.963
14.3787,128.171277,37.959888,6650.3263488,-150.527,-27.85,300.956
14.3954,128.171234,37.959914,6648.174156000001,-151.187,-27.831,300.974
14.4121,128.17119,37.959939,6646.0109904,-151.74,-27.794,301.006
14.4288,128.171146,37.959965,6643.837156800001,-152.19,-27.75,301.045
14.4455,128.171102,37.95999,6641.65296,-152.539,-27.704,301.088
14.4622,128.171058,37.960015,6639.459314400001,-152.791,-27.661,301.129
14.4789,128.171014,37.960041,6637.256220000001,-152.948,-27.623,301.169
14.4956,128.17097,37.960066,6635.044286400001,-153.015,-27.59,301.205
14.5123,128.170926,37.960092,6632.8238184,-152.996,-27.563,301.238
14.529,128.170882,37.960117,6630.5951208,-152.894,-27.543,301.267
14.5457,128.170839,37.960142,6628.3572792,-152.809,-27.546,301.288
14.5624,128.170795,37.960167,6626.1099888,-152.755,-27.585,301.296
14.5791,128.170751,37.960192,6623.853554400001,-152.728,-27.668,301.282
14.5958,128.170707,37.960217,6621.5864520000005,-152.721,-27.806,301.238
14.6125,128.170663,37.960242,6619.3092912,-152.729,-28.005,301.158
14.6292,128.170619,37.960267,6617.0217672,-152.748,-28.252,301.048
14.6459,128.170575,37.960292,6614.7235752,-152.779,-28.536,300.915
14.6626,128.170531,37.960317,6612.4147152000005,-152.819,-28.845,300.766
14.6793,128.170487,37.960342,6610.0951872000005,-152.868,-29.164,300.609
14.696,128.170443,37.960367,6607.764686400001,-152.926,-29.484,300.451
14.7127,128.170399,37.960392,6605.4229080000005,-152.992,-29.797,300.296
14.7294,128.170355,37.960416,6603.0698520000005,-153.064,-30.102,300.145
14.7461,128.170311,37.960441,6600.7052136,-153.141,-30.397,300.002
14.7628,128.170267,37.960465,6598.3286880000005,-153.22,-30.681,299.866
14.7795,128.170223,37.96049,6595.9405799999995,-153.303,-30.956,299.738
14.7962,128.17018,37.960514,6593.5405848,-153.389,-31.22,299.616
14.8129,128.170136,37.960539,6591.1283976,-153.475,-31.477,299.503
14.8296,128.170092,37.960563,6588.704018400001,-153.56,-31.726,299.398
14.8463,128.170048,37.960587,6586.267447200001,-153.647,-31.968,299.301
14.863,128.170004,37.960611,6583.818379200001,-153.736,-32.202,299.209
14.8797,128.16996,37.960635,6581.3568144,-153.827,-32.431,299.121
14.8964,128.169916,37.960659,6578.8827528,-153.921,-32.654,299.037
14.9131,128.169872,37.960683,6576.3958896,-154.016,-32.871,298.956
14.9298,128.169828,37.960707,6573.8965296,-154.112,-33.083,298.879
14.9465,128.169784,37.960731,6571.384368,-154.21,-33.292,298.803
14.9632,128.169741,37.960755,6568.8594048,-154.309,-33.496,298.73
14.9799,128.169697,37.960779,6566.32164,-154.407,-33.696,298.659
14.9966,128.169653,37.960802,6563.771073600001,-154.506,-33.894,298.59
15.0133,128.169609,37.960826,6561.207705600001,-154.605,-34.088,298.523
15.03,128.169565,37.960849,6558.6312312,-154.704,-34.281,298.457
15.0467,128.169521,37.960873,6556.0419552,-154.802,-34.47,298.392
15.0634,128.169478,37.960896,6553.4395728,-154.899,-34.658,298.329
15.0801,128.169434,37.960919,6550.824084000001,-154.997,-34.844,298.267
15.0968,128.16939,37.960943,6548.1957936,-155.093,-35.027,298.206
15.1135,128.169347,37.960966,6545.554396800001,-155.189,-35.21,298.146
15.1302,128.169303,37.960989,6542.8998936,-155.284,-35.39,298.086
15.1469,128.169259,37.961012,6540.232284000001,-155.379,-35.569,298.028
15.1636,128.169216,37.961035,6537.551568,-155.472,-35.747,297.97
15.1803,128.169172,37.961058,6534.8577456,-155.565,-35.924,297.913
15.197,128.169128,37.96108,6532.1508168,-155.657,-36.1,297.856
15.2137,128.169085,37.961103,6529.4310864,-155.749,-36.274,297.8
15.2304,128.169041,37.961126,6526.6979448,-155.839,-36.449,297.744
15.2471,128.168998,37.961148,6523.951696800001,-155.928,-36.622,297.689
15.2638,128.168954,37.961171,6521.192342400001,-156.017,-36.795,297.634
15.2805,128.168911,37.961193,6518.4195768,-156.104,-36.967,297.579
15.2972,128.168867,37.961216,6515.6340096,-156.191,-37.139,297.524
15.3139,128.168824,37.961238,6512.835336,-156.277,-37.311,297.47
15.3306,128.168781,37.96126,6510.0232512,-156.361,-37.482,297.415
15.3473,128.168737,37.961282,6507.198060000001,-156.445,-37.653,297.361
15.364,128.168694,37.961304,6504.3600672,-156.528,-37.824,297.307
15.3807,128.168651,37.961326,6501.5086632,-156.61,-37.994,297.253
15.3974,128.168608,37.961348,6498.643848,-156.691,-38.164,297.199
15.4141,128.168564,37.96137,6495.7662312,-156.771,-38.335,297.145
