Time,Longitude,Latitude,Altitude,Roll (deg),Pitch (deg),Yaw (deg)
0.0,128.181881,37.968463,7002.830292000001,0.0,-0.003,179.999
0.0167,128.181881,37.968418,7002.8116992000005,0.0,-0.012,180.0
0.0334,128.181881,37.968374,7002.792496800001,0.0,-0.026,180.0
0.0501,128.181881,37.968329,7002.7720752,0.0,-0.042,180.0
0.0668,128.181881,37.968284,7002.751044,0.0,-0.06,180.0
0.0834,128.181881,37.968239,7002.7287936,0.0,-0.08,180.0
0.1002,128.181881,37.968194,7002.705933600001,0.0,-0.1,180.0
0.1169,128.181881,37.968149,7002.682159200001,0.001,-0.12,180.0
0.1336,128.181881,37.968104,7002.657165600001,0.001,-0.14,180.0
0.1503,128.181881,37.968059,7002.6315624,0.001,-0.161,180.0
0.1669,128.181881,37.968014,7002.60474,0.002,-0.181,180.0
0.1837,128.181881,37.967969,7002.5770032,0.002,-0.201,180.0
0.2004,128.181881,37.967924,7002.548352000001,0.002,-0.221,180.0
0.2171,128.181881,37.967879,7002.5187864,0.003,-0.24,180.0
0.2338,128.181881,37.967834,7002.4883064000005,0.003,-0.26,180.0
0.2505,128.181881,37.967788,7002.4566072,0.004,-0.279,180.0
0.2672,128.181881,37.967743,7002.423993599999,0.005,-0.297,180.0
0.2839,128.181881,37.967698,7002.390160800001,0.005,-0.316,180.0
0.3006,128.181881,37.967653,7002.3554136,0.006,-0.334,180.0
0.3172,128.181881,37.967608,7002.319752000001,0.007,-0.352,180.0
0.3339,128.181881,37.967563,7002.283176,0.008,-0.37,180.0
0.3507,128.181881,37.967518,7002.245076,0.008,-0.387,180.0
0.3674,128.181881,37.967473,7002.2063664,0.01,-0.405,180.0
0.3841,128.181881,37.967428,7002.166437600001,0.011,-0.422,180.0
0.4008,128.181881,37.967382,7002.1252896,0.012,-0.439,180.0
0.4175,128.181881,37.967337,7002.083227200001,0.013,-0.456,180.001
0.4342,128.181881,37.967292,7002.0399456000005,0.015,-0.472,180.001
0.4509,128.181881,37.967247,7001.995749600001,0.016,-0.489,180.001
0.4676,128.181881,37.967202,7001.9503343999995,0.018,-0.505,180.001
0.4843,128.181881,37.967157,7001.904004800001,0.02,-0.521,180.001
0.501,128.181881,37.967111,7001.856456,0.022,-0.537,180.001
0.5176,128.181881,37.967066,7001.807688000001,0.024,-0.553,180.001
0.5344,128.181881,37.967021,7001.757700800001,0.026,-0.569,180.001
0.5511,128.181881,37.966976,7001.7067992,0.029,-0.584,180.002
0.5678,128.181881,37.966931,7001.654983200001,0.032,-0.6,180.002
0.5845,128.181881,37.966885,7001.6016432,0.035,-0.615,180.002
0.6012,128.181881,37.96684,7001.5473888,0.038,-0.63,180.002
0.6179,128.181881,37.966795,7001.491915200001,0.041,-0.645,180.002
0.6345,128.181881,37.96675,7001.4355272,0.045,-0.661,180.003
0.6513,128.181881,37.966704,7001.377615200001,0.049,-0.676,180.003
0.6679,128.181881,37.966659,7001.3187888,0.054,-0.69,180.003
0.6847,128.181881,37.966614,7001.2587432,0.059,-0.705,180.003
0.7014,128.181881,37.966568,7001.197783200001,0.064,-0.72,180.004
0.7181,128.181881,37.966523,7001.1352992,0.07,-0.735,180.004
0.7348,128.181881,37.966478,7001.071900800001,0.076,-0.749,180.004
0.7514,128.181881,37.966432,7001.0072832000005,0.082,-0.764,180.005
0.7682,128.181881,37.966387,7000.9414464,0.09,-0.778,180.005
0.7848,128.181881,37.966342,7000.8743904,0.098,-0.793,180.006
0.8016,128.181881,37.966296,7000.806420000001,0.106,-0.807,180.006
0.8183,128.181881,37.966251,7000.7369256,0.115,-0.821,180.007
0.835,128.181881,37.966206,7000.6665168,0.125,-0.835,180.007
0.8517,128.181881,37.96616,7000.5948888,0.136,-0.85,180.008
0.8684,128.181881,37.966115,7000.5220416,0.148,-0.864,180.008
0.8851,128.181881,37.966069,7000.4479752,0.161,-0.878,180.009
0.9018,128.181881,37.966024,7000.3726896,0.175,-0.892,180.01
0.9185,128.181881,37.965978,7000.2961847999995,0.189,-0.906,180.011
0.9352,128.181881,37.965933,7000.218460800001,0.206,-0.92,180.011
0.9519,128.181881,37.965888,7000.1395176000005,0.223,-0.934,180.012
0.9686,128.181881,37.965842,7000.059355200001,0.242,-0.948,180.013
0.9853,128.181881,37.965797,6999.977973600001,0.263,-0.962,180.015
1.002,128.181881,37.965751,6999.895372800001,0.285,-0.976,180.016
1.0187,128.181881,37.965706,6999.8115528,0.31,-0.99,180.017
1.0353,128.181881,37.96566,6999.7265136000005,0.336,-1.004,180.018
1.0521,128.181881,37.965615,6999.6399504,0.365,-1.018,180.02
1.0688,128.181881,37.965569,6999.5524728,0.396,-1.032,180.022
1.0855,128.181881,37.965524,6999.4634712,0.429,-1.046,180.023
1.1022,128.181881,37.965478,6999.373250400001,0.466,-1.06,180.025
1.1189,128.181881,37.965433,6999.281810400001,0.505,-1.074,180.027
1.1356,128.181881,37.965387,6999.1888464,0.548,-1.087,180.03
1.1522,128.181881,37.965341,6999.0946632000005,0.594,-1.101,180.032
1.169,128.181881,37.965296,6998.999260800001,0.644,-1.115,180.035
1.1857,128.181881,37.96525,6998.9023344,0.699,-1.129,180.038
1.2024,128.181881,37.965205,6998.8041888,0.758,-1.144,180.041
1.2191,128.181881,37.965159,6998.7045192000005,0.822,-1.158,180.044
1.2358,128.181881,37.965113,6998.6036304,0.891,-1.172,180.048
1.2525,128.181881,37.965068,6998.5009128,0.967,-1.186,180.052
1.2691,128.18188,37.965022,6998.396976,1.048,-1.2,180.056
1.2859,128.18188,37.964977,6998.2915152000005,1.137,-1.215,180.06
1.3026,128.18188,37.964931,6998.1848352,1.233,-1.229,180.065
1.3193,128.18188,37.964885,6998.0763264,1.337,-1.244,180.071
1.3359,128.18188,37.96484,6997.9662935999995,1.449,-1.258,180.077
1.3527,128.18188,37.964794,6997.854432,1.572,-1.273,180.083
1.3694,128.18188,37.964748,6997.7413512,1.704,-1.288,180.09
1.386,128.18188,37.964702,6997.6261368000005,1.848,-1.303,180.097
1.4028,128.18188,37.964657,6997.5093984,2.004,-1.318,180.105
1.4195,128.18188,37.964611,6997.391136,2.173,-1.333,180.114
1.4362,128.18188,37.964565,6997.27074,2.357,-1.349,180.123
1.4528,128.18188,37.964519,6997.1485152000005,2.556,-1.365,180.132
1.4696,128.18188,37.964474,6997.0244616,2.774,-1.381,180.142
1.4863,128.18188,37.964428,6996.8982744,3.011,-1.397,180.152
1.5029,128.18188,37.964382,6996.7702584,3.268,-1.413,180.162
1.5197,128.18188,37.964336,6996.639804,3.548,-1.43,180.172
1.5364,128.18188,37.96429,6996.507216,3.852,-1.447,180.183
1.5531,128.18188,37.964245,6996.3721896,4.183,-1.465,180.194
1.5697,128.18188,37.964199,6996.2350295999995,4.542,-1.483,180.205
1.5865,128.18188,37.964153,6996.0951264000005,4.933,-1.501,180.216
1.6032,128.18188,37.964107,6995.9527848,5.358,-1.52,180.228
1.6198,128.18188,37.964061,6995.8073952,5.82,-1.54,180.24
1.6366,128.18188,37.964015,6995.6592624,6.323,-1.56,180.253
1.6533,128.18188,37.963969,6995.5080816,6.869,-1.581,180.266
1.67,128.18188,37.963923,6995.353548,7.463,-1.602,180.28
1.6867,128.18188,37.963878,6995.1974904,8.027,-1.624,180.289
1.7034,128.18188,37.963832,6995.0389944,8.558,-1.645,180.293
1.7201,128.18188,37.963786,6994.8789744000005,9.062,-1.666,180.295
1.7368,128.18188,37.96374,6994.7177352,9.545,-1.687,180.296
1.7535,128.18188,37.963694,6994.5558864,10.013,-1.708,180.298
1.7702,128.18188,37.963648,6994.391904,10.471,-1.73,180.3
1.7869,128.18188,37.963602,6994.226397600001,10.925,-1.752,180.304
1.8036,128.18188,37.963556,6994.0593672,11.381,-1.774,180.309
1.8203,128.18188,37.96351,6993.890508,11.841,-1.797,180.315
1.837,128.18188,37.963464,6993.719820000001,12.309,-1.819,180.321
1.8537,128.18188,37.963418,6993.5469984,12.788,-1.843,180.328
1.8704,128.18188,37.963371,6993.3720432,13.281,-1.866,180.336
1.8871,128.18188,37.963325,6993.195259200001,13.788,-1.889,180.343
1.9038,128.18188,37.963279,6993.0163416000005,14.312,-1.913,180.351
1.9205,128.18188,37.963233,6992.8352904,14.854,-1.937,180.36
1.9372,128.181879,37.963187,6992.6518008,15.416,-1.961,180.368
1.9539,128.181879,37.963141,6992.4661776,15.997,-1.986,180.376
1.9706,128.181879,37.963095,6992.2781159999995,16.6,-2.011,180.385
1.9873,128.181879,37.963049,6992.0879208,17.225,-2.036,180.393
2.004,128.181879,37.963002,6991.8949824,17.874,-2.062,180.402
2.0207,128.181879,37.962956,6991.699910400001,18.546,-2.088,180.411
2.0374,128.181879,37.96291,6991.5024,19.244,-2.114,180.419
2.0541,128.181879,37.962864,6991.3021464,19.968,-2.141,180.428
2.0707,128.181879,37.962818,6991.099149600001,20.72,-2.169,180.437
2.0875,128.181879,37.962771,6990.8937144,21.499,-2.197,180.445
2.1042,128.181879,37.962725,6990.685536,22.308,-2.225,180.454
2.1208,128.181879,37.962679,6990.474614400001,23.147,-2.255,180.462
2.1376,128.181879,37.962633,6990.2609496000005,24.018,-2.284,180.47
2.1543,128.181879,37.962586,6990.0445416,24.921,-2.315,180.477
2.171,128.181878,37.96254,6989.8250856,25.859,-2.345,180.484
2.1877,128.181878,37.962494,6989.6028864,26.832,-2.377,180.491
2.2044,128.181878,37.962447,6989.3773344,27.842,-2.409,180.497
2.2211,128.181878,37.962401,6989.1490392,28.889,-2.441,180.502
2.2378,128.181878,37.962355,6988.917391200001,29.975,-2.474,180.507
2.2544,128.181878,37.962308,6988.683,31.101,-2.508,180.511
2.2712,128.181878,37.962262,6988.444951200001,32.268,-2.542,180.514
2.2879,128.181878,37.962216,6988.203854400001,33.477,-2.577,180.517
2.3045,128.181878,37.962169,6987.959709600001,34.731,-2.613,180.519
2.3213,128.181878,37.962123,6987.7119072,36.03,-2.649,180.52
2.338,128.181878,37.962076,6987.460752000001,37.375,-2.686,180.519
2.3546,128.181878,37.96203,6987.2065488,38.768,-2.723,180.518
2.3714,128.181878,37.961983,6986.9483832000005,40.21,-2.762,180.516
2.3881,128.181878,37.961937,6986.687169600001,41.701,-2.8,180.513
2.4048,128.181878,37.96189,6986.4226032,43.24,-2.839,180.509
2.4215,128.181878,37.961844,6986.154379200001,44.824,-2.878,180.503
2.4382,128.181878,37.961797,6985.8831072,46.453,-2.917,180.496
2.4549,128.181878,37.961751,6985.608482400001,48.125,-2.957,180.487
2.4716,128.181878,37.961704,6985.3308096,49.838,-2.996,180.476
2.4882,128.181878,37.961657,6985.049784000001,51.59,-3.035,180.464
2.505,128.181878,37.961611,6984.765405600001,53.382,-3.074,180.451
2.5217,128.181878,37.961564,6984.477979200001,55.21,-3.113,180.436
2.5383,128.181878,37.961518,6984.1872,57.074,-3.151,180.42
2.5551,128.181878,37.961471,6983.8936776,58.973,-3.189,180.402
2.5718,128.181878,37.961424,6983.596802399999,60.905,-3.226,180.383
2.5884,128.181878,37.961377,6983.296879200001,62.869,-3.263,180.362
2.6052,128.181878,37.961331,6982.9942128,64.865,-3.299,180.34
2.6219,128.181878,37.961284,6982.6881936,66.891,-3.334,180.317
2.6386,128.181878,37.961237,6982.3794312,68.946,-3.368,180.293
2.6553,128.181878,37.961191,6982.0676207999995,71.029,-3.402,180.268
2.6719,128.181878,37.961144,6981.7527624,73.14,-3.435,180.242
2.6887,128.181878,37.961097,6981.435160800001,75.277,-3.467,180.215
2.7054,128.181878,37.96105,6981.114511200001,77.441,-3.497,180.187
2.722,128.181878,37.961003,6980.7911184,79.629,-3.527,180.158
2.7388,128.181878,37.960957,6980.464982400001,81.842,-3.556,180.129
2.7555,128.181879,37.96091,6980.1357984,84.078,-3.583,180.099
2.7721,128.181879,37.960863,6979.804176,86.337,-3.61,180.069
2.7889,128.181879,37.960816,6979.469810400001,88.618,-3.635,180.038
2.8056,128.181879,37.960769,6979.132396800001,90.921,-3.659,180.006
2.8222,128.181879,37.960722,6978.7928496,93.245,-3.682,179.975
2.839,128.181879,37.960675,6978.450254400001,95.589,-3.704,179.943
2.8557,128.181879,37.960628,6978.1052208,97.952,-3.725,179.914
2.8724,128.18188,37.960581,6977.7577488,100.334,-3.746,179.894
2.8891,128.18188,37.960534,6977.4075336000005,102.734,-3.769,179.889
2.9057,128.18188,37.960487,6977.05488,105.15,-3.796,179.903
2.9225,128.18188,37.96044,6976.699788000001,107.581,-3.83,179.938
2.9392,128.18188,37.960393,6976.3422576,110.028,-3.87,179.993
2.9558,128.181881,37.960346,6975.981984000001,112.488,-3.921,180.07
2.9726,128.181881,37.960299,6975.6189672,114.961,-3.982,180.166
2.9893,128.181881,37.960252,6975.253207199999,117.446,-4.056,180.281
3.0059,128.181881,37.960205,6974.8843992,119.935,-4.144,180.412
3.0227,128.181881,37.960158,6974.512238400001,122.414,-4.245,180.559
3.0394,128.181881,37.960111,6974.136115200001,124.867,-4.362,180.72
3.056,128.181881,37.960064,6973.7560296,127.281,-4.494,180.893
3.0728,128.181882,37.960017,6973.3710672,129.644,-4.642,181.077
3.0895,128.181882,37.959969,6972.981228000001,131.944,-4.807,181.268
3.1062,128.181882,37.959922,6972.5852928,134.173,-4.989,181.467
3.1229,128.181881,37.959875,6972.1832616,136.324,-5.188,181.67
3.1395,128.181881,37.959828,6971.774524800001,138.39,-5.405,181.875
3.1563,128.181881,37.959781,6971.3584728000005,140.368,-5.637,182.081
3.173,128.181881,37.959734,6970.934496000001,142.256,-5.886,182.286
3.1896,128.181881,37.959687,6970.5022896,144.053,-6.15,182.489
3.2064,128.18188,37.959639,6970.061244,145.758,-6.428,182.688
3.2231,128.18188,37.959592,6969.6110544,147.375,-6.718,182.882
3.2397,128.181879,37.959545,6969.151416,148.904,-7.02,183.07
3.2565,128.181879,37.959498,6968.681719200001,150.348,-7.333,183.25
3.2732,128.181878,37.959451,6968.2016592,151.712,-7.653,183.423
3.2899,128.181878,37.959404,6967.7106264,152.999,-7.981,183.588
3.3066,128.181877,37.959357,6967.2086208,154.212,-8.315,183.744
3.3233,128.181876,37.959309,6966.6950328,155.357,-8.653,183.891
3.34,128.181876,37.959262,6966.1695576,156.437,-8.995,184.029
3.3567,128.181875,37.959215,6965.6321952,157.457,-9.336,184.157
3.3734,128.181874,37.959168,6965.082336,158.42,-9.673,184.274
3.3901,128.181873,37.959121,6964.51998,159.332,-10.003,184.379
3.4068,128.181872,37.959074,6963.944822400001,160.196,-10.326,184.474
3.4235,128.181871,37.959027,6963.3565584,161.015,-10.641,184.557
3.4402,128.18187,37.95898,6962.754883200001,161.793,-10.948,184.631
3.4569,128.181868,37.958933,6962.139796800001,162.533,-11.246,184.695
3.4736,128.181867,37.958885,6961.5109944000005,163.237,-11.535,184.751
3.4903,128.181866,37.958838,6960.868476,163.909,-11.817,184.799
3.507,128.181865,37.958791,6960.2119368,164.551,-12.092,184.84
3.5237,128.181863,37.958744,6959.541072,165.164,-12.36,184.875
3.5404,128.181862,37.958697,6958.8561864,165.751,-12.621,184.903
3.5571,128.181861,37.95865,6958.1569752,166.314,-12.876,184.927
3.5738,128.181859,37.958603,6957.443438400001,166.854,-13.126,184.945
3.5905,128.181858,37.958556,6956.7152712,167.372,-13.371,184.958
3.6072,128.181856,37.958509,6955.973388,167.942,-13.612,184.964
3.6239,128.181855,37.958462,6955.2177888,168.559,-13.849,184.96
3.6406,128.181853,37.958415,6954.4487784,169.215,-14.082,184.951
3.6573,128.181851,37.958369,6953.666356800001,169.9,-14.311,184.939
3.674,128.18185,37.958322,6952.8693048000005,170.602,-14.536,184.924
3.6907,128.181848,37.958275,6952.058232,171.311,-14.758,184.906
3.7074,128.181846,37.958228,6951.2319192,172.02,-14.977,184.887
3.7241,128.181845,37.958181,6950.390976,172.719,-15.192,184.867
3.7408,128.181843,37.958134,6949.535097600001,173.402,-15.405,184.844
3.7575,128.181841,37.958087,6948.663674400001,174.065,-15.616,184.819
3.7742,128.181839,37.95804,6947.776706400001,174.703,-15.825,184.792
3.7909,128.181838,37.957994,6946.8741936,175.314,-16.032,184.763
3.8076,128.181836,37.957947,6945.956136000001,175.895,-16.238,184.731
3.8243,128.181834,37.9579,6945.022533600001,176.447,-16.443,184.698
3.841,128.181832,37.957854,6944.0733864,176.969,-16.646,184.662
3.8577,128.18183,37.957807,6943.1080848,177.462,-16.849,184.624
3.8744,128.181828,37.95776,6942.1275432,177.928,-17.051,184.586
3.8911,128.181826,37.957714,6941.130847200001,178.368,-17.252,184.547
3.9078,128.181824,37.957667,6940.118606400001,178.783,-17.452,184.508
3.9245,128.181823,37.95762,6939.0908208,179.174,-17.651,184.467
3.9412,128.181821,37.957574,6938.0471856,179.541,-17.849,184.426
3.9579,128.181819,37.957527,6936.9877008,179.887,-18.047,184.383
3.9746,128.181817,37.957481,6935.9126712,-179.787,-18.243,184.339
3.9913,128.181815,37.957434,6934.8220968000005,-179.481,-18.439,184.294
4.008,128.181813,37.957388,6933.7156728,-179.192,-18.633,184.248
4.0247,128.181811,37.957341,6932.593704,-178.919,-18.827,184.2
4.0414,128.181809,37.957295,6931.4561904,-178.66,-19.02,184.152
4.058,128.181807,37.957249,6930.3028272,-178.415,-19.212,184.103
4.0748,128.181805,37.957202,6929.134224,-178.181,-19.402,184.054
4.0915,128.181803,37.957156,6927.9497712,-177.959,-19.592,184.003
4.1082,128.181801,37.95711,6926.7500784,-177.746,-19.781,183.953
4.1249,128.181799,37.957063,6925.534536,-177.542,-19.969,183.901
4.1415,128.181797,37.957017,6924.3037536,-177.346,-20.156,183.85
4.1583,128.181795,37.956971,6923.0574264,-177.157,-20.342,183.798
4.175,128.181793,37.956925,6921.7952496,-176.975,-20.527,183.746
4.1917,128.181791,37.956878,6920.5178328,-176.798,-20.711,183.694
4.2084,128.18179,37.956832,6919.225176,-176.626,-20.894,183.643
4.2251,128.181788,37.956786,6917.916669600001,-176.458,-21.077,183.593
4.2417,128.181786,37.95674,6916.592923200001,-176.293,-21.259,183.544
4.2585,128.181784,37.956694,6915.253632000001,-176.132,-21.44,183.496
4.2752,128.181782,37.956648,6913.898796,-175.975,-21.62,183.449
4.2919,128.18178,37.956602,6912.528720000001,-175.82,-21.8,183.403
4.3086,128.181778,37.956556,6911.1430992000005,-175.668,-21.979,183.358
4.3252,128.181776,37.95651,6909.742238400001,-175.519,-22.158,183.313
4.342,128.181774,37.956465,6908.3258328,-175.373,-22.336,183.269
4.3587,128.181772,37.956419,6906.893882400001,-175.229,-22.514,183.227
4.3754,128.181771,37.956373,6905.446692,-175.088,-22.692,183.185
4.3921,128.181769,37.956327,6903.9842616,-174.95,-22.868,183.144
4.4088,128.181767,37.956281,6902.5062864,-174.814,-23.045,183.103
4.4254,128.181765,37.956236,6901.0130712,-174.68,-23.221,183.064
4.4422,128.181763,37.95619,6899.504311200001,-174.55,-23.397,183.025
4.4589,128.181761,37.956144,6897.980006400001,-174.423,-23.573,182.986
4.4756,128.18176,37.956099,6896.4407664,-174.299,-23.748,182.947
4.4923,128.181758,37.956053,6894.8859816,-174.178,-23.923,182.908
4.5089,128.181756,37.956008,6893.315652000001,-174.06,-24.098,182.869
4.5256,128.181754,37.955962,6891.7303872,-173.946,-24.272,182.83
4.5424,128.181753,37.955917,6890.129577600001,-173.835,-24.446,182.791
4.5591,128.181751,37.955871,6888.5132232000005,-173.727,-24.62,182.751
4.5758,128.181749,37.955826,6886.881933600001,-173.622,-24.794,182.712
4.5925,128.181747,37.955781,6885.2350992,-173.52,-24.968,182.672
4.6091,128.181746,37.955735,6883.573024800001,-173.422,-25.141,182.633
4.6259,128.181744,37.95569,6881.895710400001,-173.326,-25.314,182.593
4.6426,128.181742,37.955645,6880.2031560000005,-173.233,-25.487,182.553
4.6593,128.181741,37.9556,6878.4953616,-173.143,-25.66,182.514
4.676,128.181739,37.955554,6876.7720224,-173.056,-25.833,182.474
4.6927,128.181737,37.955509,6875.033748,-172.972,-26.005,182.434
4.7093,128.181736,37.955464,6873.279928800001,-172.892,-26.178,182.394
4.7261,128.181734,37.955419,6871.510869600001,-172.814,-26.35,182.354
4.7428,128.181733,37.955374,6869.7268752,-172.74,-26.522,182.315
4.7595,128.181731,37.955329,6867.927336000001,-172.669,-26.694,182.275
4.7762,128.18173,37.955284,6866.1128616,-172.601,-26.866,182.235
4.7928,128.181728,37.95524,6864.282842400001,-172.536,-27.038,182.195
4.8096,128.181727,37.955195,6862.437888,-172.475,-27.21,182.156
4.8263,128.181725,37.95515,6860.5776936,-172.417,-27.381,182.116
4.843,128.181724,37.955105,6858.7022592,-172.362,-27.553,182.077
4.8597,128.181722,37.955061,6856.8115848,-172.31,-27.724,182.037
4.8764,128.181721,37.955016,6854.905670400001,-172.262,-27.896,181.998
4.893,128.181719,37.954971,6852.9848208,-172.217,-28.067,181.959
4.9098,128.181718,37.954927,6851.0487312000005,-172.175,-28.238,181.919
4.9265,128.181717,37.954882,6849.097401600001,-172.136,-28.41,181.88
4.9432,128.181715,37.954838,6847.131136800001,-172.101,-28.581,181.841
4.9599,128.181714,37.954793,6845.149632000001,-172.068,-28.752,181.803
4.9765,128.181713,37.954749,6843.152887200001,-172.039,-28.923,181.764
4.9932,128.181711,37.954705,6841.1412072,-172.013,-29.094,181.726
5.01,128.18171,37.95466,6839.114287200001,-171.99,-29.265,181.687
5.0267,128.181709,37.954616,6837.072432,-171.97,-29.436,181.649
5.0434,128.181707,37.954572,6835.0153368,-171.954,-29.607,181.611
5.0601,128.181706,37.954528,6832.9433064,-171.94,-29.778,181.574
5.0767,128.181705,37.954484,6830.8563408,-171.929,-29.949,181.536
5.0935,128.181704,37.95444,6828.7541352,-171.921,-30.119,181.499
5.1102,128.181703,37.954396,6826.6369944,-171.915,-30.29,181.462
5.1269,128.181702,37.954352,6824.5046136,-171.912,-30.461,181.425
5.1436,128.1817,37.954308,6822.357602399999,-171.912,-30.632,181.388
5.1602,128.181699,37.954264,6820.195351200001,-171.915,-30.802,181.352
5.1769,128.181698,37.95422,6818.018164800001,-171.92,-30.973,181.316
5.1937,128.181697,37.954176,6815.8260432,-171.927,-31.144,181.28
5.2104,128.181696,37.954133,6813.618986400001,-171.937,-31.315,181.244
5.2271,128.181695,37.954089,6811.3969944,-171.949,-31.485,181.209
5.2438,128.181694,37.954045,6809.1600672,-171.964,-31.656,181.174
5.2604,128.181693,37.954002,6806.9079,-171.98,-31.827,181.139
5.2772,128.181692,37.953958,6804.6414072,-171.999,-31.997,181.104
5.2939,128.181691,37.953915,6802.359674400001,-172.02,-32.168,181.07
5.3106,128.18169,37.953872,6800.063006400001,-172.043,-32.339,181.036
5.3273,128.181689,37.953828,6797.751708,-172.067,-32.509,181.003
5.3439,128.181688,37.953785,6795.425474400001,-172.094,-32.68,180.969
5.3606,128.181687,37.953742,6793.0843056,-172.122,-32.851,180.936
5.3774,128.181687,37.953699,6790.728201600001,-172.152,-33.021,180.904
5.3941,128.181686,37.953656,6788.3574672,-172.183,-33.192,180.871
5.4108,128.181685,37.953612,6785.9721024,-172.216,-33.363,180.839
5.4275,128.181684,37.953569,6783.5718024,-172.25,-33.534,180.808
5.4441,128.181683,37.953527,6781.1565672,-172.286,-33.704,180.776
5.4609,128.181683,37.953484,6778.7267016000005,-172.323,-33.875,180.745
5.4776,128.181682,37.953441,6776.2822056,-172.362,-34.046,180.715
5.4943,128.181681,37.953398,6773.8227744000005,-172.401,-34.217,180.684
5.511,128.18168,37.953355,6771.3487128,-172.442,-34.387,180.654
5.5277,128.18168,37.953313,6768.8600208,-172.484,-34.558,180.625
5.5443,128.181679,37.95327,6766.3566984,-172.527,-34.729,180.595
5.5611,128.181678,37.953227,6763.8384408,-172.571,-34.9,180.566
5.5778,128.181678,37.953185,6761.3058576,-172.616,-35.071,180.538
5.5945,128.181677,37.953143,6758.7583392,-172.662,-35.242,180.509
5.6112,128.181677,37.9531,6756.1961904,-172.708,-35.413,180.482
5.6278,128.181676,37.953058,6753.619716,-172.755,-35.584,180.454
5.6445,128.181675,37.953016,6751.0283064000005,-172.803,-35.755,180.427
5.6613,128.181675,37.952973,6748.4225712,-172.852,-35.926,180.4
5.678,128.181674,37.952931,6745.802205600001,-172.901,-36.097,180.373
5.6947,128.181674,37.952889,6743.1672096,-172.95,-36.268,180.347
5.7114,128.181673,37.952847,6740.5175832,-173.0,-36.439,180.321
5.728,128.181673,37.952805,6737.853631200001,-173.051,-36.61,180.296
5.7448,128.181672,37.952763,6735.1750488,-173.102,-36.781,180.271
5.7615,128.181672,37.952722,6732.481836,-173.153,-36.952,180.246
5.7782,128.181672,37.95268,6729.774297600001,-173.205,-37.124,180.221
5.7949,128.181671,37.952638,6727.052128800001,-173.257,-37.295,180.197
5.8115,128.181671,37.952597,6724.3156344,-173.309,-37.466,180.174
5.8282,128.18167,37.952555,6721.564814400001,-173.362,-37.638,180.15
5.845,128.18167,37.952514,6718.799364,-173.415,-37.809,180.127
5.8617,128.18167,37.952472,6716.019588000001,-173.468,-37.98,180.104
5.8784,128.181669,37.952431,6713.225181600001,-173.521,-38.152,180.082
5.8951,128.181669,37.952389,6710.4167544,-173.575,-38.323,180.06
5.9117,128.181669,37.952348,6707.5936968000005,-173.628,-38.495,180.038
5.9285,128.181669,37.952307,6704.7563136,-173.682,-38.667,180.017
5.9452,128.181668,37.952266,6701.904909600001,-173.736,-38.838,179.996
5.9619,128.181668,37.952225,6699.0388752,-173.79,-39.01,179.975
5.9786,128.181668,37.952184,6696.158515200001,-173.844,-39.182,179.955
5.9952,128.181668,37.952143,6693.2638296,-173.898,-39.353,179.935
6.0119,128.181667,37.952102,6690.355123200001,-173.952,-39.525,179.915
6.0287,128.181667,37.952062,6687.4320912,-174.007,-39.697,179.895
6.0454,128.181667,37.952021,6684.4947336000005,-174.061,-39.869,179.876
6.0621,128.181667,37.95198,6681.5430504000005,-174.115,-40.041,179.857
6.0788,128.181667,37.95194,6678.5770416000005,-174.169,-40.213,179.839
6.0954,128.181667,37.951899,6675.597012,-174.223,-40.385,179.821
6.1121,128.181666,37.951859,6672.6029616,-174.277,-40.557,179.803
6.1289,128.181666,37.951818,6669.5945856,-174.331,-40.729,179.785
6.1456,128.181666,37.951778,6666.5721888,-174.385,-40.901,179.768
6.1623,128.181666,37.951738,6663.5354664,-174.438,-41.073,179.751
6.179,128.181666,37.951698,6660.4847232,-174.492,-41.245,179.734
6.1956,128.181666,37.951658,6657.419654400001,-174.545,-41.417,179.718
6.2124,128.181666,37.951618,6654.340869600001,-174.599,-41.59,179.702
6.2291,128.181666,37.951578,6651.2477592000005,-174.652,-41.762,179.686
6.2458,128.181666,37.951538,6648.140628,-174.705,-41.934,179.67
6.2625,128.181666,37.951498,6645.019476,-174.758,-42.107,179.655
6.2791,128.181666,37.951459,6641.8843032,-174.811,-42.279,179.64
6.2958,128.181666,37.951419,6638.7351096,-174.863,-42.452,179.625
6.3126,128.181666,37.95138,6635.571895200001,-174.916,-42.624,179.611
6.3293,128.181666,37.95134,6632.394964800001,-174.968,-42.797,179.597
6.346,128.181666,37.951301,6629.203708800001,-175.02,-42.969,179.583
6.3627,128.181666,37.951261,6625.9987368,-175.072,-43.142,179.569
6.3793,128.181667,37.951222,6622.779744,-175.124,-43.315,179.556
6.3961,128.181667,37.951183,6619.5470352,-175.175,-43.487,179.543
6.4128,128.181667,37.951144,6616.300305600001,-175.226,-43.66,179.53
6.4295,128.181667,37.951105,6613.039555200001,-175.278,-43.833,179.518
6.4462,128.181667,37.951066,6609.7650888,-175.329,-44.006,179.505
6.4628,128.181667,37.951027,6606.476906400001,-175.379,-44.179,179.493
6.4795,128.181667,37.950988,6603.1747032,-175.43,-44.351,179.482
6.4963,128.181668,37.95095,6599.858784000001,-175.48,-44.524,179.47
6.513,128.181668,37.950911,6596.5291488,-175.531,-44.697,179.459
6.5297,128.181668,37.950873,6593.185797600001,-175.581,-44.87,179.448
6.5464,128.181668,37.950834,6589.8284256,-175.63,-45.044,179.437
6.5631,128.181668,37.950796,6586.457642400001,-175.68,-45.217,179.427
6.5798,128.181669,37.950758,6583.0731432,-175.73,-45.39,179.417
6.5965,128.181669,37.950719,6579.6746232000005,-175.779,-45.563,179.407
6.6132,128.181669,37.950681,6576.262692,-175.828,-45.736,179.397
6.6299,128.181669,37.950643,6572.8370448000005,-175.877,-45.91,179.387
6.6466,128.18167,37.950605,6569.3976816,-175.926,-46.083,179.378
6.6633,128.18167,37.950567,6565.9449072,-175.974,-46.256,179.369
6.68,128.18167,37.95053,6562.4784168,-176.023,-46.43,179.36
6.6967,128.18167,37.950492,6558.998515200001,-176.071,-46.603,179.352
6.7134,128.181671,37.950454,6555.504897600001,-176.119,-46.777,179.343
6.7301,128.181671,37.950417,6551.997564,-176.167,-46.95,179.335
6.7468,128.181671,37.950379,6548.4768192,-176.215,-47.124,179.327
6.7635,128.181672,37.950342,6544.9426632,-176.263,-47.297,179.32
6.7802,128.181672,37.950305,6541.395096,-176.31,-47.471,179.312
6.7969,128.181672,37.950267,6537.8341176,-176.357,-47.645,179.305
6.8136,128.181673,37.95023,6534.2594232,-176.405,-47.819,179.298
6.8303,128.181673,37.950193,6530.6716224,-176.452,-47.992,179.291
6.847,128.181673,37.950156,6527.070105600001,-176.499,-48.166,179.285
6.8637,128.181674,37.95012,6523.455482400001,-176.546,-48.34,179.279
6.8804,128.181674,37.950083,6519.827448,-176.593,-48.514,179.273
6.8971,128.181675,37.950046,6516.1860024,-176.64,-48.688,179.267
6.9138,128.181675,37.95001,6512.5311456,-176.687,-48.862,179.261
6.9305,128.181675,37.949973,6508.8631824,-176.733,-49.036,179.256
6.9472,128.181676,37.949937,6505.181808,-176.78,-49.21,179.251
6.9639,128.181676,37.9499,6501.487022400001,-176.827,-49.384,179.246
6.9806,128.181677,37.949864,6497.7794352,-176.873,-49.558,179.241
6.9973,128.181677,37.949828,6494.058132,-176.92,-49.733,179.237
7.014,128.181678,37.949792,6490.3240272,-176.966,-49.907,179.232
7.0307,128.181678,37.949756,6486.576511200001,-177.013,-50.081,179.228
7.0474,128.181679,37.94972,6482.8161936,-177.06,-50.256,179.225
7.0641,128.181679,37.949684,6479.042464800001,-177.106,-50.43,179.221
7.0808,128.181679,37.949649,6475.255629599999,-177.153,-50.604,179.218
7.0975,128.18168,37.949613,6471.455688000001,-177.2,-50.779,179.215
7.1142,128.18168,37.949578,6467.64264,-177.248,-50.954,179.212
7.1309,128.181681,37.949542,6463.8167904,-177.295,-51.128,179.21
7.1476,128.181681,37.949507,6459.9778344,-177.343,-51.303,179.208
7.1643,128.181682,37.949472,6456.125772,-177.392,-51.477,179.206
7.181,128.181682,37.949437,6452.2606032,-177.44,-51.652,179.204
7.1977,128.181683,37.949402,6448.3829376,-177.489,-51.827,179.202
7.2144,128.181683,37.949367,6444.491860800001,-177.539,-52.002,179.201
7.2311,128.181684,37.949332,6440.5882872,-177.588,-52.177,179.2
7.2478,128.181684,37.949297,6436.6716072,-177.638,-52.352,179.2
7.2645,128.181685,37.949263,6432.7421256,-177.689,-52.527,179.199
7.2812,128.181686,37.949228,6428.799537600001,-177.739,-52.702,179.199
7.2979,128.181686,37.949194,6424.8444528,-177.79,-52.877,179.199
7.3146,128.181687,37.949159,6420.8765664,-177.842,-53.052,179.2
7.3313,128.181687,37.949125,6416.895878400001,-177.894,-53.227,179.2
7.348,128.181688,37.949091,6412.9023888,-177.946,-53.403,179.201
7.3647,128.181688,37.949057,6408.896097600001,-177.999,-53.578,179.203
7.3814,128.181689,37.949023,6404.8773096,-178.052,-53.753,179.204
7.3981,128.181689,37.948989,6400.845720000001,-178.106,-53.929,179.206
7.4148,128.18169,37.948956,6396.801633600001,-178.161,-54.104,179.208
7.4315,128.18169,37.948922,6392.7447456,-178.216,-54.28,179.211
7.4482,128.181691,37.948888,6388.675360800001,-178.272,-54.455,179.213
7.4649,128.181692,37.948855,6384.593479200001,-178.329,-54.631,179.216
7.4816,128.181692,37.948822,6380.498796000001,-178.387,-54.806,179.219
7.4983,128.181693,37.948788,6376.391616,-178.446,-54.981,179.223
7.515,128.181693,37.948755,6372.272244,-178.506,-55.149,179.227
7.5317,128.181694,37.948722,6368.1403752,-178.567,-55.308,179.232
7.5484,128.181694,37.948689,6363.9960096,-178.63,-55.455,179.237
7.5651,128.181695,37.948657,6359.839452000001,-178.695,-55.591,179.244
7.5818,128.181696,37.948624,6355.6707024,-178.762,-55.714,179.251
7.5985,128.181696,37.948591,6351.489760800001,-178.83,-55.827,179.259
7.6152,128.181697,37.948559,6347.296932,-178.9,-55.93,179.267
7.6319,128.181697,37.948526,6343.091911200001,-178.972,-56.025,179.276
7.6486,128.181698,37.948494,6338.875308,-179.046,-56.114,179.286
7.6653,128.181699,37.948462,6334.6468176,-179.122,-56.198,179.296
7.682,128.181699,37.94843,6330.4070496,-179.198,-56.279,179.306
7.6987,128.1817,37.948398,6326.1553944,-179.275,-56.357,179.316
7.7154,128.1817,37.948366,6321.8924615999995,-179.351,-56.433,179.326
7.7321,128.181701,37.948334,6317.6182512000005,-179.427,-56.508,179.337
7.7488,128.181701,37.948302,6313.3324584,-179.503,-56.582,179.347
7.7655,128.181702,37.94827,6309.035692800001,-179.578,-56.656,179.358
7.7822,128.181703,37.948239,6304.7279544,-179.651,-56.729,179.368
7.7989,128.181703,37.948207,6300.4092432,-179.723,-56.802,179.379
7.8156,128.181704,37.948176,6296.0795592,-179.793,-56.875,179.39
7.8323,128.181704,37.948145,6291.7389023999995,-179.862,-56.947,179.401
7.849,128.181705,37.948113,6287.3875776,-179.929,-57.018,179.412
7.8657,128.181706,37.948082,6283.0255848,-179.994,-57.089,179.423
7.8824,128.181706,37.948051,6278.653228800001,179.942,-57.159,179.434
7.8991,128.181707,37.94802,6274.2699,179.88,-57.229,179.445
7.9158,128.181707,37.94799,6269.8765128000005,179.821,-57.297,179.456
7.9325,128.181708,37.947959,6265.4727624,179.764,-57.365,179.468
7.9492,128.181708,37.947928,6261.0586488,179.709,-57.432,179.479
7.9659,128.181709,37.947897,6256.634172,179.656,-57.498,179.489
7.9826,128.18171,37.947867,6252.1996368,179.605,-57.563,179.499
7.9993,128.18171,37.947837,6247.755348,179.556,-57.628,179.508
8.016,128.181711,37.947806,6243.300696,179.51,-57.691,179.516
8.0327,128.181711,37.947776,6238.8362904000005,179.465,-57.753,179.524
8.0494,128.181712,37.947746,6234.3618264,179.421,-57.814,179.533
8.0661,128.181712,37.947716,6229.8779136,179.378,-57.874,179.541
8.0828,128.181713,37.947685,6225.384247200001,179.336,-57.932,179.549
8.0994,128.181713,37.947656,6220.880827200001,179.295,-57.99,179.556
8.1161,128.181714,37.947626,6216.3682632,179.256,-58.047,179.563
8.1329,128.181715,37.947596,6211.8459456,179.217,-58.103,179.57
8.1496,128.181715,37.947566,6207.314484,179.18,-58.158,179.576
8.1663,128.181716,37.947536,6202.7738784,179.144,-58.212,179.582
8.183,128.181716,37.947507,6198.223824000001,179.109,-58.266,179.588
8.1997,128.181717,37.947477,6193.664625599999,179.075,-58.319,179.593
8.2164,128.181717,37.947448,6189.096588,179.042,-58.37,179.598
8.2331,128.181718,37.947418,6184.519406400001,179.01,-58.421,179.603
8.2498,128.181718,37.947389,6179.9333856,178.978,-58.472,179.608
8.2665,128.181719,37.94736,6175.3382208,178.947,-58.521,179.612
8.2831,128.181719,37.947331,6170.7345216,178.916,-58.57,179.617
8.2998,128.18172,37.947302,6166.1222880000005,178.885,-58.617,179.621
8.3166,128.18172,37.947272,6161.501215200001,178.854,-58.664,179.625
8.3333,128.181721,37.947244,6156.871608,178.823,-58.71,179.629
8.35,128.181721,37.947215,6152.2334664,178.792,-58.756,179.633
8.3667,128.181722,37.947186,6147.5870952000005,178.762,-58.8,179.637
8.3834,128.181722,37.947157,6142.9321896,178.731,-58.844,179.641
8.4001,128.181723,37.947128,6138.2687496,178.702,-58.886,179.644
8.4168,128.181723,37.9471,6133.5976896,178.673,-58.91,179.647
8.4335,128.181724,37.947071,6128.918095200001,178.646,-58.912,179.648
8.4502,128.181724,37.947042,6124.2308808,178.619,-58.898,179.649
8.4668,128.181725,37.947014,6119.535741600001,178.593,-58.877,179.649
8.4835,128.181725,37.946986,6114.8329824,178.567,-58.857,179.65
8.5003,128.181726,37.946957,6110.1222984,178.543,-58.841,179.65
8.517,128.181726,37.946929,6105.4042992,178.516,-58.833,179.651
8.5337,128.181726,37.946901,6100.67868,178.489,-58.832,179.653
8.5504,128.181727,37.946872,6095.9457456,178.46,-58.838,179.656
8.5671,128.181727,37.946844,6091.2054960000005,178.432,-58.852,179.659
8.5838,128.181728,37.946816,6086.4579312000005,178.404,-58.871,179.661
8.6005,128.181728,37.946788,6081.703356000001,178.376,-58.895,179.664
8.6172,128.181729,37.94676,6076.941160800001,178.35,-58.922,179.667
8.6339,128.181729,37.946732,6072.17226,178.325,-58.951,179.67
8.6505,128.18173,37.946704,6067.396044,178.301,-58.982,179.672
8.6672,128.18173,37.946676,6062.6128176,178.278,-59.014,179.675
8.684,128.18173,37.946648,6057.8228856000005,178.257,-59.027,179.676
8.7007,128.181731,37.946621,6053.025943199999,178.237,-59.013,179.676
8.7174,128.181731,37.946593,6048.2226,178.22,-58.979,179.675
8.7341,128.181732,37.946565,6043.4122464,178.202,-58.936,179.673
8.7508,128.181732,37.946537,6038.5957968,178.186,-58.893,179.671
8.7675,128.181733,37.94651,6033.7726416000005,178.17,-58.856,179.67
8.7842,128.181733,37.946482,6028.9433904,178.155,-58.828,179.669
8.8009,128.181733,37.946455,6024.107738400001,178.141,-58.809,179.668
8.8176,128.181734,37.946427,6019.2659904,178.129,-58.8,179.667
8.8342,128.181734,37.9464,6014.4181464,178.117,-58.8,179.667
8.8509,128.181735,37.946372,6009.5639016000005,178.107,-58.806,179.668
8.8676,128.181735,37.946345,6004.7038656,178.098,-58.818,179.668
8.8844,128.181735,37.946317,5999.8377336,178.09,-58.833,179.67
8.9011,128.181736,37.94629,5994.9655056,178.082,-58.852,179.671
8.9178,128.181736,37.946263,5990.0871816,178.075,-58.872,179.672
8.9345,128.181737,37.946235,5985.203066399999,178.068,-58.892,179.674
8.9512,128.181737,37.946208,5980.313160000001,178.062,-58.914,179.676
8.9679,128.181737,37.946181,5975.4171576,178.056,-58.935,179.677
8.9846,128.181738,37.946154,5970.515364000001,178.049,-58.956,179.679
9.0013,128.181738,37.946126,5965.607779200001,178.043,-58.976,179.681
9.0179,128.181739,37.946099,5960.6944032,178.037,-58.996,179.682
9.0346,128.181739,37.946072,5955.775236,178.031,-59.015,179.684
9.0513,128.181739,37.946045,5950.8505824,178.026,-59.034,179.685
9.0681,128.18174,37.946018,5945.920137600001,178.019,-59.053,179.687
9.0848,128.18174,37.945991,5940.9839016000005,178.013,-59.071,179.688
9.1015,128.18174,37.945964,5936.042179200001,178.007,-59.088,179.69
9.1182,128.181741,37.945937,5931.094665600001,177.998,-59.106,179.692
9.1349,128.181741,37.94591,5926.141970400001,177.986,-59.122,179.695
9.1516,128.181741,37.945883,5921.183484000001,177.972,-59.138,179.698
9.1683,128.181742,37.945856,5916.219511200001,177.955,-59.154,179.701
9.185,128.181742,37.945829,5911.250052000001,177.938,-59.169,179.704
9.2016,128.181743,37.945802,5906.2751064,177.919,-59.185,179.706
9.2183,128.181743,37.945775,5901.294674400001,177.9,-59.2,179.709
9.235,128.181743,37.945748,5896.309060800001,177.881,-59.216,179.71
9.2518,128.181744,37.945722,5891.318265600001,177.863,-59.231,179.712
9.2685,128.181744,37.945695,5886.321679200001,177.845,-59.246,179.713
9.2852,128.181744,37.945668,5881.320216,177.828,-59.261,179.715
9.3019,128.181745,37.945641,5876.3132663999995,177.811,-59.276,179.716
9.3186,128.181745,37.945614,5871.3011352,177.793,-59.29,179.718
9.3353,128.181745,37.945588,5866.283822400001,177.776,-59.304,179.719
9.352,128.181746,37.945561,5861.2613280000005,177.758,-59.318,179.72
9.3687,128.181746,37.945534,5856.233652000001,177.741,-59.332,179.722
9.3854,128.181746,37.945508,5851.2010992000005,177.723,-59.345,179.723
9.402,128.181747,37.945481,5846.163060000001,177.704,-59.358,179.725
9.4187,128.181747,37.945454,5841.1201439999995,177.685,-59.37,179.726
9.4355,128.181747,37.945428,5836.0723512,177.665,-59.383,179.728
9.4522,128.181748,37.945401,5831.0193768,177.645,-59.394,179.729
9.4689,128.181748,37.945375,5825.9612208,177.624,-59.406,179.73
9.4856,128.181748,37.945348,5820.898492800001,177.603,-59.417,179.731
9.5023,128.181749,37.945321,5815.830583200001,177.581,-59.428,179.732
9.519,128.181749,37.945295,5810.7581016,177.558,-59.439,179.734
9.5357,128.181749,37.945268,5805.680438400001,177.535,-59.45,179.735
9.5524,128.181749,37.945242,5800.5982032,177.51,-59.461,179.736
9.5691,128.18175,37.945215,5795.5110912,177.484,-59.471,179.737
9.5857,128.18175,37.945189,5790.4194072,177.457,-59.481,179.739
9.6024,128.18175,37.945162,5785.3225416000005,177.428,-59.491,179.74
9.6192,128.181751,37.945136,5780.2214088,177.397,-59.501,179.741
9.6359,128.181751,37.945109,5775.1153992,177.365,-59.511,179.742
9.6526,128.181751,37.945083,5770.0045128,177.331,-59.52,179.744
9.6693,128.181752,37.945057,5764.8893592,177.294,-59.529,179.745
9.686,128.181752,37.94503,5759.769328800001,177.254,-59.538,179.747
9.7027,128.181752,37.945004,5754.6447264,177.211,-59.548,179.748
9.7194,128.181752,37.944977,5749.515856800001,177.164,-59.557,179.75
9.7361,128.181753,37.944951,5744.382110400001,177.115,-59.566,179.752
9.7528,128.181753,37.944925,5739.244096800001,177.06,-59.574,179.754
9.7694,128.181753,37.944898,5734.101206400001,176.999,-59.583,179.756
9.7861,128.181754,37.944872,5728.9540488,176.932,-59.592,179.758
9.8029,128.181754,37.944846,5723.802319200001,176.856,-59.601,179.761
9.8196,128.181754,37.944819,5718.6463224,176.77,-59.61,179.764
9.8363,128.181754,37.944793,5713.4854488,176.666,-59.619,179.769
9.853,128.181755,37.944767,5708.320308,176.544,-59.628,179.775
9.8697,128.181755,37.94474,5703.1512048,176.448,-59.637,179.775
9.8864,128.181755,37.944714,5697.9778344,176.381,-59.646,179.768
9.9031,128.181756,37.944688,5692.800501600001,176.337,-59.657,179.758
9.9198,128.181756,37.944661,5687.618901600001,176.313,-59.667,179.749
9.9365,128.181756,37.944635,5682.4330344,176.301,-59.679,179.744
9.9531,128.181756,37.944609,5677.2429,176.3,-59.691,179.742
9.9698,128.181757,37.944583,5672.0488032,176.304,-59.704,179.744
9.9865,128.181757,37.944556,5666.8504391999995,176.312,-59.717,179.747
10.0033,128.181757,37.94453,5661.6481128000005,176.322,-59.731,179.751
10.02,128.181757,37.944504,5656.441214400001,176.333,-59.744,179.755
10.0367,128.181758,37.944477,5651.2306584,176.345,-59.759,179.758
10.0534,128.181758,37.944451,5646.0155304,176.357,-59.773,179.761
10.0701,128.181758,37.944425,5640.79644,176.37,-59.788,179.764
10.0868,128.181758,37.944399,5635.5733872,176.384,-59.803,179.766
10.1035,128.181759,37.944373,5630.3460672,176.398,-59.819,179.769
10.1202,128.181759,37.944346,5625.1147848,176.412,-59.835,179.772
10.1368,128.181759,37.94432,5619.87954,176.428,-59.851,179.775
10.1535,128.181759,37.944294,5614.640028000001,176.444,-59.868,179.778
10.1702,128.18176,37.944268,5609.3962488,176.46,-59.884,179.78
10.187,128.18176,37.944241,5604.148811999999,176.477,-59.901,179.783
10.2037,128.18176,37.944215,5598.897108,176.495,-59.919,179.786
10.2204,128.18176,37.944189,5593.641441600001,176.513,-59.936,179.788
10.2371,128.181761,37.944163,5588.3818128,176.532,-59.954,179.791
10.2538,128.181761,37.944137,5583.1179168,176.551,-59.972,179.794
10.2705,128.181761,37.94411,5577.8500584,176.571,-59.99,179.796
10.2872,128.181761,37.944084,5572.578237600001,176.591,-60.008,179.799
10.3039,128.181762,37.944058,5567.3024544,176.612,-60.026,179.802
10.3205,128.181762,37.944032,5562.0227088,176.634,-60.045,179.804
10.3372,128.181762,37.944006,5556.7390008,176.656,-60.063,179.807
10.3539,128.181762,37.943979,5551.4510256,176.678,-60.082,179.809
10.3707,128.181763,37.943953,5546.159088,176.701,-60.101,179.811
10.3874,128.181763,37.943927,5540.863492800001,176.725,-60.12,179.814
10.4041,128.181763,37.943901,5535.5636304,176.749,-60.139,179.816
10.4208,128.181763,37.943875,5530.259805600001,176.773,-60.158,179.819
10.4375,128.181763,37.943849,5524.9520184,176.798,-60.177,179.821
10.4542,128.181764,37.943822,5519.640268800001,176.824,-60.196,179.823
10.4709,128.181764,37.943796,5514.324556800001,176.85,-60.216,179.826
10.4876,128.181764,37.94377,5509.004577600001,176.876,-60.235,179.828
10.5042,128.181764,37.943744,5503.6809408,176.903,-60.255,179.83
10.5209,128.181765,37.943718,5498.3533416,176.93,-60.274,179.832
10.5376,128.181765,37.943692,5493.02178,176.957,-60.294,179.834
10.5544,128.181765,37.943666,5487.685951200001,176.985,-60.314,179.836
10.5711,128.181765,37.943639,5482.346464800001,177.014,-60.333,179.838
10.5878,128.181765,37.943613,5477.003016,177.042,-60.353,179.84
10.6045,128.181766,37.943587,5471.6556048,177.071,-60.373,179.842
10.6212,128.181766,37.943561,5466.3039264,177.101,-60.393,179.844
10.6379,128.181766,37.943535,5460.9485904,177.131,-60.413,179.846
10.6546,128.181766,37.943509,5455.589292000001,177.161,-60.433,179.848
10.6713,128.181766,37.943483,5450.2260312,177.191,-60.453,179.85
10.6879,128.181767,37.943457,5444.858808,177.222,-60.472,179.852
10.7046,128.181767,37.94343,5439.4876224,177.253,-60.492,179.854
10.7213,128.181767,37.943404,5434.112474400001,177.284,-60.513,179.855
10.7381,128.181767,37.943378,5428.733364000001,177.315,-60.533,179.857
10.7548,128.181767,37.943352,5423.3502912,177.347,-60.553,179.859
10.7715,128.181768,37.943326,5417.963256000001,177.378,-60.573,179.86
10.7882,128.181768,37.9433,5412.5722584000005,177.41,-60.593,179.862
10.8049,128.181768,37.943274,5407.1772984,177.442,-60.613,179.864
10.8216,128.181768,37.943248,5401.7786808,177.473,-60.633,179.865
10.8383,128.181768,37.943222,5396.375796,177.504,-60.653,179.867
10.855,128.181769,37.943196,5390.9692536,177.534,-60.673,179.868
10.8717,128.181769,37.943169,5385.558444,177.564,-60.694,179.87
10.8883,128.181769,37.943143,5380.1439768,177.594,-60.714,179.871
10.905,128.181769,37.943117,5374.725242400001,177.623,-60.734,179.873
10.9218,128.181769,37.943091,5369.3028504,177.652,-60.754,179.874
10.9385,128.18177,37.943065,5363.876496000001,177.68,-60.774,179.875
10.9552,128.18177,37.943039,5358.446179200001,177.707,-60.795,179.877
10.9719,128.18177,37.943013,5353.0119,177.734,-60.815,179.878
10.9886,128.18177,37.942987,5347.5736584,177.761,-60.835,179.879
11.0053,128.18177,37.942961,5342.131454400001,177.787,-60.855,179.88
11.022,128.18177,37.942935,5336.685288000001,177.813,-60.876,179.881
11.0387,128.181771,37.942909,5331.2351592,177.838,-60.896,179.882
11.0554,128.181771,37.942883,5325.7813728,177.863,-60.916,179.883
11.072,128.181771,37.942857,5320.323319200001,177.887,-60.936,179.884
11.0887,128.181771,37.942831,5314.861608,177.914,-60.957,179.885
11.1054,128.181771,37.942805,5309.3959343999995,177.944,-60.977,179.887
11.1222,128.181771,37.942779,5303.9262984,177.975,-60.997,179.888
11.1389,128.181772,37.942753,5298.4527,178.007,-61.017,179.89
11.1556,128.181772,37.942727,5292.975444,178.039,-61.037,179.892
11.1723,128.181772,37.942701,5287.4939208,178.072,-61.058,179.893
11.189,128.181772,37.942675,5282.0084352,178.103,-61.078,179.895
11.2057,128.181772,37.942649,5276.519292000001,178.134,-61.098,179.897
11.2224,128.181772,37.942623,5271.0261864,178.164,-61.118,179.899
11.2391,128.181773,37.942597,5265.529118400001,178.193,-61.138,179.9
11.2557,128.181773,37.942571,5260.028088000001,178.221,-61.159,179.902
11.2724,128.181773,37.942545,5254.5230952,178.248,-61.179,179.903
11.2891,128.181773,37.942519,5249.01414,178.274,-61.199,179.904
11.3059,128.181773,37.942493,5243.5012224,178.299,-61.219,179.905
11.3226,128.181773,37.942467,5237.984647200001,178.324,-61.239,179.906
11.3393,128.181774,37.942441,5232.463804800001,178.347,-61.259,179.907
11.356,128.181774,37.942415,5226.9393048,178.37,-61.28,179.908
11.3727,128.181774,37.942389,5221.410842400001,178.392,-61.3,179.909
11.3894,128.181774,37.942363,5215.8784176,178.413,-61.32,179.91
11.4061,128.181774,37.942337,5210.3420304,178.434,-61.34,179.91
11.4228,128.181774,37.942311,5204.8019856,178.454,-61.36,179.911
11.4394,128.181774,37.942285,5199.2576736,178.473,-61.381,179.911
11.4561,128.181775,37.942259,5193.709704,178.492,-61.401,179.912
11.4728,128.181775,37.942233,5188.1574672,178.511,-61.421,179.912
11.4896,128.181775,37.942207,5182.6015728,178.529,-61.441,179.913
11.5063,128.181775,37.942181,5177.041716,178.546,-61.461,179.913
11.523,128.181775,37.942155,5171.478201600001,178.563,-61.482,179.913
11.5397,128.181775,37.942129,5165.910420000001,178.58,-61.502,179.914
11.5564,128.181776,37.942104,5160.338676,178.596,-61.522,179.914
11.5731,128.181776,37.942078,5154.7632744,178.612,-61.542,179.914
11.5898,128.181776,37.942052,5149.183910400001,178.628,-61.562,179.914
11.6065,128.181776,37.942026,5143.600584000001,178.643,-61.582,179.914
11.6231,128.181776,37.942,5138.0132952,178.658,-61.603,179.915
11.6398,128.181776,37.941974,5132.4223488,178.673,-61.623,179.915
11.6565,128.181776,37.941948,5126.8271352,178.688,-61.643,179.915
11.6733,128.181777,37.941922,5121.228264,178.702,-61.663,179.915
11.69,128.181777,37.941896,5115.6254303999995,178.716,-61.683,179.915
11.7067,128.181777,37.94187,5110.018634399999,178.73,-61.703,179.915
11.7234,128.181777,37.941845,5104.4081808,178.744,-61.723,179.915
11.7401,128.181777,37.941819,5098.793460000001,178.757,-61.743,179.915
11.7568,128.181777,37.941793,5093.1750816,178.77,-61.763,179.916
11.7735,128.181777,37.941767,5087.5527408,178.783,-61.783,179.916
11.7902,128.181777,37.941741,5081.926437600001,178.796,-61.804,179.916
11.8068,128.181778,37.941715,5076.296172,178.809,-61.824,179.916
11.8235,128.181778,37.941689,5070.6622488,178.821,-61.844,179.916
11.8402,128.181778,37.941664,5065.0243632,178.833,-61.864,179.916
11.857,128.181778,37.941638,5059.382515200001,178.845,-61.884,179.916
11.8737,128.181778,37.941612,5053.736704800001,178.856,-61.904,179.916
11.8904,128.181778,37.941586,5048.086932,178.867,-61.924,179.916
11.9071,128.181778,37.94156,5042.4335016,178.879,-61.944,179.916
11.9238,128.181778,37.941534,5036.7761088,178.89,-61.964,179.916
11.9405,128.181779,37.941509,5031.1147536,178.9,-61.984,179.916
11.9572,128.181779,37.941483,5025.449436,178.911,-62.004,179.916
11.9739,128.181779,37.941457,5019.780156000001,178.921,-62.024,179.916
11.9905,128.181779,37.941431,5014.1072184,178.932,-62.044,179.916
12.0072,128.181779,37.941405,5008.4303184,178.942,-62.064,179.916
12.0239,128.181779,37.94138,5002.7494560000005,178.952,-62.084,179.915
12.0407,128.181779,37.941354,4997.064936,178.961,-62.104,179.915
12.0574,128.181779,37.941328,4991.376148800001,178.971,-62.124,179.915
12.0741,128.18178,37.941302,4985.683704,178.981,-62.144,179.915
12.0908,128.18178,37.941276,4979.9872968,178.99,-62.164,179.915
12.1075,128.18178,37.941251,4974.2869272,178.999,-62.183,179.915
12.1242,128.18178,37.941225,4968.5829,179.009,-62.203,179.915
12.1409,128.18178,37.941199,4962.8749104,179.018,-62.223,179.915
12.1576,128.18178,37.941173,4957.1629584,179.027,-62.243,179.915
12.1743,128.18178,37.941148,4951.4470440000005,179.036,-62.263,179.915
12.1909,128.18178,37.941122,4945.7274720000005,179.044,-62.283,179.915
12.2076,128.181781,37.941096,4940.003632800001,179.048,-62.303,179.916
12.2243,128.181781,37.94107,4934.276136,179.046,-62.323,179.918
12.2411,128.181781,37.941045,4928.5446768,179.041,-62.343,179.919
12.2578,128.181781,37.941019,4922.809560000001,179.034,-62.363,179.92
12.2745,128.181781,37.940993,4917.070176,179.027,-62.383,179.92
12.2912,128.181781,37.940967,4911.3271344,179.02,-62.402,179.919
12.3079,128.181781,37.940942,4905.580130400001,179.013,-62.422,179.918
12.3246,128.181781,37.940916,4899.8294688000005,179.007,-62.442,179.918
12.3413,128.181781,37.94089,4894.0748448,178.999,-62.462,179.919
12.358,128.181782,37.940865,4888.3159536,178.988,-62.482,179.92
12.3746,128.181782,37.940839,4882.553709600001,178.975,-62.502,179.922
12.3913,128.181782,37.940813,4876.7871984,178.959,-62.522,179.924
12.408,128.181782,37.940788,4871.017029600001,178.941,-62.542,179.925
12.4248,128.181782,37.940762,4865.2425936,178.922,-62.562,179.925
12.4415,128.181782,37.940736,4859.4648048,178.903,-62.582,179.926
12.4582,128.181782,37.940711,4853.682748800001,178.882,-62.602,179.927
12.4749,128.181782,37.940685,4847.897035200001,178.859,-62.622,179.928
12.4916,128.181782,37.940659,4842.1073592,178.834,-62.642,179.93
12.5083,128.181783,37.940634,4836.313720800001,178.806,-62.662,179.933
12.525,128.181783,37.940608,4830.51612,178.774,-62.682,179.935
12.5417,128.181783,37.940582,4824.7148616,178.739,-62.702,179.938
12.5583,128.181783,37.940557,4818.9096408000005,178.702,-62.722,179.94
12.575,128.181783,37.940531,4813.1004576000005,178.663,-62.742,179.943
12.5917,128.181783,37.940506,4807.287312,178.62,-62.763,179.945
12.6085,128.181783,37.94048,4801.4705088,178.575,-62.783,179.948
12.6252,128.181783,37.940454,4795.649743200001,178.526,-62.803,179.952
12.6419,128.181783,37.940429,4789.8250152,178.473,-62.823,179.956
12.6586,128.181783,37.940403,4783.9963248,178.415,-62.843,179.96
12.6753,128.181784,37.940378,4778.1639768000005,178.353,-62.864,179.965
12.692,128.181784,37.940352,4772.3276664,178.286,-62.884,179.97
12.7087,128.181784,37.940326,4766.4873936,178.214,-62.904,179.975
12.7254,128.181784,37.940301,4760.6431584,178.137,-62.924,179.98
12.742,128.181784,37.940275,4754.7949608,178.055,-62.945,179.986
12.7587,128.181784,37.94025,4748.9431056,177.967,-62.965,179.993
12.7754,128.181784,37.940224,4743.087288,177.872,-62.986,180.0
12.7922,128.181784,37.940199,4737.227508,177.77,-63.006,180.008
12.8089,128.181784,37.940173,4731.3637656,177.661,-63.026,180.016
12.8256,128.181784,37.940148,4725.4963656,177.544,-63.047,180.025
12.8423,128.181784,37.940122,4719.624698400001,177.418,-63.067,180.034
12.859,128.181785,37.940097,4713.749373600001,177.284,-63.088,180.044
12.8757,128.181785,37.940071,4707.8700864,177.14,-63.109,180.055
12.8924,128.181785,37.940046,4701.986836800001,176.986,-63.129,180.067
12.9091,128.181785,37.94002,4696.0996248,176.82,-63.15,180.08
12.9257,128.181785,37.939995,4690.2084504,176.642,-63.171,180.094
12.9424,128.181785,37.939969,4684.3136184,176.452,-63.191,180.109
12.9591,128.181785,37.939944,4678.4145192000005,176.248,-63.212,180.125
12.9759,128.181785,37.939919,4672.5117624,176.029,-63.233,180.142
12.9926,128.181785,37.939893,4666.6047384,175.796,-63.254,180.161
13.0093,128.181785,37.939868,4660.6940568,175.545,-63.275,180.181
13.026,128.181785,37.939842,4654.779108,175.277,-63.296,180.202
13.0427,128.181785,37.939817,4648.8605016,174.99,-63.317,180.225
13.0594,128.181785,37.939792,4642.937628000001,174.683,-63.338,180.25
13.0761,128.181785,37.939766,4637.0110968,174.354,-63.359,180.277
13.0928,128.181785,37.939741,4631.0802984,174.001,-63.38,180.306
13.1095,128.181785,37.939716,4625.1458424,173.623,-63.4,180.336
13.1262,128.181786,37.93969,4619.2071192,173.219,-63.422,180.366
13.1429,128.181786,37.939665,4613.2644336,172.786,-63.443,180.396
13.1596,128.181786,37.93964,4607.3174808,172.324,-63.464,180.428
13.1763,128.181786,37.939615,4601.3665656,171.819,-63.485,180.462
13.193,128.181786,37.939589,4595.411688,171.266,-63.506,180.501
13.2097,128.181786,37.939564,4589.4525432,170.666,-63.527,180.543
13.2264,128.181786,37.939539,4583.489436,170.015,-63.548,180.584
13.2431,128.181786,37.939514,4577.522061600001,169.311,-63.569,180.626
13.2598,128.181786,37.939489,4571.5504200000005,168.553,-63.59,180.669
13.2765,128.181786,37.939464,4565.574816,167.733,-63.61,180.715
13.2932,128.181785,37.939439,4559.59464,166.845,-63.631,180.765
13.3099,128.181785,37.939414,4553.6105016,165.88,-63.651,180.819
13.3266,128.181785,37.939389,4547.622096,164.83,-63.671,180.878
13.3433,128.181785,37.939364,4541.6294232,163.695,-63.69,180.939
13.36,128.181785,37.939339,4535.6321784,162.466,-63.71,181.002
13.3767,128.181785,37.939314,4529.6306664,161.133,-63.728,181.07
13.3934,128.181785,37.939289,4523.624582400001,159.681,-63.745,181.143
13.4101,128.181785,37.939264,4517.6142312,158.097,-63.761,181.224
13.4268,128.181784,37.93924,4511.599308,156.368,-63.776,181.312
13.4435,128.181784,37.939215,4505.5801176,154.495,-63.789,181.403
13.4602,128.181784,37.93919,4499.55666,152.49,-63.801,181.492
13.4769,128.181783,37.939166,4493.528935200001,150.362,-63.813,181.576
13.4936,128.181783,37.939141,4487.4969432,148.121,-63.825,181.658
13.5103,128.181783,37.939117,4481.460684000001,145.776,-63.834,181.74
13.527,128.181782,37.939092,4475.4207672,143.333,-63.842,181.823
13.5437,128.181782,37.939068,4469.3765832,140.802,-63.847,181.907
13.5604,128.181781,37.939044,4463.3287416,138.189,-63.85,181.99
13.5771,128.18178,37.939019,4457.2769376,135.503,-63.852,182.07
13.5938,128.18178,37.938995,4451.221171200001,132.75,-63.853,182.146
13.6105,128.181779,37.938971,4445.162052000001,129.937,-63.852,182.216
13.6272,128.181778,37.938947,4439.0992752,127.07,-63.849,182.282
13.6439,128.181777,37.938923,4433.0331456,124.155,-63.844,182.344
13.6606,128.181776,37.938898,4426.963968,121.198,-63.838,182.401
13.6773,128.181775,37.938874,4420.8911328,118.203,-63.829,182.454
13.694,128.181774,37.93885,4414.8155544,115.175,-63.82,182.5
13.7107,128.181772,37.938826,4408.736928,112.119,-63.809,182.54
13.7274,128.181771,37.938802,4402.6555584,109.038,-63.798,182.574
13.7441,128.18177,37.938778,4396.5714456000005,105.941,-63.786,182.6
13.7608,128.181768,37.938754,4390.4851992,102.839,-63.774,182.619
13.7775,128.181766,37.93873,4384.3962096000005,99.74,-63.763,182.63
13.7942,128.181765,37.938706,4378.3053912000005,96.648,-63.753,182.634
13.8109,128.181763,37.938682,4372.2124392000005,93.568,-63.743,182.631
13.8276,128.181761,37.938658,4366.1176584,90.5,-63.732,182.622
13.8443,128.181759,37.938634,4360.0216584,87.442,-63.721,182.608
13.861,128.181757,37.93861,4353.9241344,84.395,-63.71,182.587
13.8777,128.181755,37.938586,4347.8253912,81.355,-63.701,182.56
13.8944,128.181752,37.938562,4341.7260384,78.321,-63.692,182.528
13.9111,128.18175,37.938538,4335.625771200001,75.295,-63.685,182.491
13.9278,128.181747,37.938514,4329.5251992,72.274,-63.68,182.449
13.9445,128.181744,37.93849,4323.4246272,69.26,-63.676,182.402
13.9612,128.181742,37.938466,4317.324055200001,66.251,-63.674,182.352
13.9779,128.181739,37.938442,4311.2240928,63.226,-63.669,182.321
13.9946,128.181736,37.938418,4305.12474,60.157,-63.652,182.341
14.0113,128.181733,37.938393,4299.0266064,57.032,-63.619,182.425
14.028,128.18173,37.938369,4292.9299968,53.859,-63.568,182.564
14.0447,128.181726,37.938345,4286.835216,50.656,-63.502,182.738
14.0614,128.181723,37.93832,4280.742264,47.442,-63.424,182.927
14.0781,128.181719,37.938296,4274.6514456,44.23,-63.335,183.119
14.0948,128.181716,37.938271,4268.5636752,41.026,-63.237,183.305
14.1115,128.181712,37.938246,4262.4792576,37.83,-63.131,183.484
14.1282,128.181708,37.938221,4256.3984976,34.64,-63.014,183.655
14.1449,128.181704,37.938196,4250.321395200001,31.454,-62.889,183.816
14.1616,128.1817,37.938171,4244.2491696,28.273,-62.755,183.967
14.1783,128.181696,37.938146,4238.1812112,25.1,-62.615,184.104
14.195,128.181692,37.938121,4232.1184344,21.937,-62.469,184.224
14.2117,128.181688,37.938096,4226.0614488,18.787,-62.319,184.326
14.2284,128.181683,37.93807,4220.0096448,15.65,-62.164,184.407
14.2451,128.181679,37.938044,4213.964241600001,12.527,-62.006,184.469
14.2618,128.181675,37.938019,4207.9249344,9.417,-61.846,184.509
14.2785,128.18167,37.937993,4201.892028,6.319,-61.684,184.529
14.2952,128.181666,37.937967,4195.866132,3.234,-61.521,184.529
14.3119,128.181661,37.93794,4189.846941600001,0.161,-61.358,184.508
14.3286,128.181657,37.937914,4183.8347616,-2.898,-61.196,184.466
14.3453,128.181652,37.937887,4177.829592,-5.946,-61.035,184.404
14.362,128.181648,37.937861,4171.8317375999995,-8.982,-60.876,184.321
14.3787,128.181643,37.937834,4165.8411984,-12.007,-60.72,184.22
14.3954,128.181639,37.937807,4159.8579744,-15.021,-60.567,184.099
14.4121,128.181634,37.93778,4153.8817608,-18.025,-60.417,183.96
14.4288,128.18163,37.937752,4147.9113384,-20.964,-60.27,183.818
14.4455,128.181626,37.937725,4141.9464024,-23.775,-60.121,183.689
14.4622,128.181622,37.937697,4135.9869528,-26.387,-59.971,183.578
14.4789,128.181618,37.93767,4130.032380000001,-28.746,-59.822,183.469
14.4956,128.181614,37.937642,4124.0817696,-30.818,-59.68,183.343
14.5123,128.18161,37.937614,4118.1351216,-32.617,-59.551,183.191
14.529,128.181606,37.937586,4112.1915216,-34.2,-59.436,183.012
14.5457,128.181602,37.937558,4106.2512744000005,-35.646,-59.337,182.817
14.5624,128.181598,37.937529,4100.3152944,-37.016,-59.249,182.619
14.5791,128.181595,37.937501,4094.3820576000003,-38.34,-59.167,182.43
14.5958,128.181591,37.937472,4088.4521736000006,-39.628,-59.089,182.254
14.6125,128.181588,37.937444,4082.5241184,-40.855,-59.012,182.092
14.6292,128.181585,37.937415,4076.5981968,-41.994,-58.939,181.939
14.6459,128.181582,37.937386,4070.6744088,-43.027,-58.87,181.788
14.6626,128.181579,37.937358,4064.7527544,-43.962,-58.804,181.64
14.6793,128.181576,37.937329,4058.8335384,-44.819,-58.745,181.493
14.696,128.181573,37.9373,4052.9167608000002,-45.613,-58.692,181.345
14.7127,128.18157,37.93727,4047.0018120000004,-46.357,-58.646,181.2
14.7294,128.181567,37.937241,4041.0893016,-47.065,-58.604,181.059
14.7461,128.181565,37.937212,4035.1780104,-47.735,-58.565,180.925
14.7628,128.181562,37.937183,4029.2688528000003,-48.372,-58.527,180.797
14.7795,128.18156,37.937153,4023.3609144,-48.963,-58.489,180.673
14.7962,128.181558,37.937124,4017.4535856,-49.486,-58.451,180.552
14.8129,128.181556,37.937094,4011.5471712000003,-49.93,-58.412,180.437
14.8296,128.181554,37.937065,4005.6410616000003,-50.29,-58.374,180.327
14.8463,128.181552,37.937035,3999.7361712,-50.573,-58.338,180.219
14.863,128.18155,37.937005,3993.8325,-50.794,-58.307,180.111
14.8797,128.181548,37.936975,3987.9294384,-50.969,-58.281,180.005
14.8964,128.181547,37.936945,3982.0275960000004,-51.116,-58.258,179.904
14.9131,128.181545,37.936915,3976.1266680000003,-51.243,-58.236,179.809
14.9298,128.181544,37.936885,3970.2260448,-51.347,-58.213,179.72
14.9465,128.181542,37.936855,3964.326336,-51.418,-58.185,179.634
14.9632,128.181541,37.936825,3958.4269320000003,-51.45,-58.153,179.544
14.9799,128.18154,37.936795,3952.5284424,-51.443,-58.12,179.449
14.9966,128.181539,37.936764,3946.6308672,-51.404,-58.088,179.348
15.0133,128.181538,37.936734,3940.7342064,-51.353,-58.06,179.249
15.03,128.181537,37.936704,3934.8381552000005,-51.305,-58.039,179.161
15.0467,128.181537,37.936673,3928.9417992,-51.282,-58.031,179.11
15.0634,128.181536,37.936643,3923.0463576,-51.34,-58.056,179.145
15.0801,128.181535,37.936612,3917.150916,-51.507,-58.131,179.299
15.0968,128.181535,37.936581,3911.2551696,-51.73,-58.229,179.513
15.1135,128.181535,37.936551,3905.3594232000005,-51.959,-58.328,179.73
15.1302,128.181534,37.93652,3899.4630672,-52.095,-58.398,179.898
