Time,Longitude,Latitude,Altitude,Roll (deg),Pitch (deg),Yaw (deg)
0.0,128.181881,37.923466,7000.0816056,0.0,-0.003,179.999
0.0167,128.181881,37.923421,7000.0630128,0.0,-0.012,180.0
0.0334,128.181881,37.923376,7000.043505600001,0.0,-0.025,180.0
0.0501,128.181881,37.923331,7000.0233888,0.0,-0.04,180.0
0.0668,128.181881,37.923286,7000.0023576,0.0,-0.057,180.0
0.0834,128.181881,37.923241,6999.9801072,0.0,-0.075,180.0
0.1002,128.181881,37.923197,6999.957247200001,0.0,-0.094,180.0
0.1169,128.181881,37.923152,6999.9334728,0.0,-0.112,180.0
0.1336,128.181881,37.923107,6999.908784000001,0.001,-0.131,180.0
0.1503,128.181881,37.923062,6999.882876,0.001,-0.149,180.0
0.1669,128.181881,37.923017,6999.8563584,0.001,-0.167,180.0
0.1837,128.181881,37.922972,6999.8289264000005,0.002,-0.185,180.0
0.2004,128.181881,37.922927,6999.8002752,0.002,-0.203,180.0
0.2171,128.181881,37.922882,6999.7707096,0.003,-0.22,180.0
0.2338,128.181881,37.922837,6999.7405344,0.003,-0.237,180.0
0.2505,128.181881,37.922792,6999.7088352,0.004,-0.254,180.0
0.2672,128.181881,37.922748,6999.6765264000005,0.004,-0.271,180.0
0.2839,128.181881,37.922703,6999.6433032,0.005,-0.287,180.0
0.3006,128.181881,37.922658,6999.608860800001,0.005,-0.304,180.0
0.3172,128.181881,37.922613,6999.573504,0.006,-0.32,180.0
0.3339,128.181881,37.922568,6999.536928,0.007,-0.335,180.0
0.3507,128.181881,37.922523,6999.4994376,0.008,-0.351,180.0
0.3674,128.181881,37.922478,6999.461032800001,0.009,-0.366,180.0
0.3841,128.181881,37.922434,6999.421713600001,0.01,-0.381,180.0
0.4008,128.181881,37.922389,6999.3811752,0.011,-0.396,180.0
0.4175,128.181881,37.922344,6999.3397224,0.012,-0.411,180.001
0.4342,128.181881,37.922299,6999.2970504,0.014,-0.426,180.001
0.4509,128.181881,37.922254,6999.253464,0.015,-0.441,180.001
0.4676,128.181881,37.922209,6999.2086584,0.017,-0.455,180.001
0.4843,128.181881,37.922165,6999.162938400001,0.019,-0.469,180.001
0.501,128.181881,37.92212,6999.116304,0.02,-0.484,180.001
0.5176,128.181881,37.922075,6999.0684504,0.023,-0.498,180.001
0.5344,128.181881,37.92203,6999.0196824,0.025,-0.512,180.001
0.5511,128.181881,37.921986,6998.9696952,0.027,-0.526,180.002
0.5678,128.181881,37.921941,6998.9187936,0.03,-0.54,180.002
0.5845,128.181881,37.921896,6998.866672800001,0.033,-0.553,180.002
0.6012,128.181881,37.921851,6998.8136376,0.036,-0.567,180.002
0.6179,128.181881,37.921807,6998.759383200001,0.039,-0.581,180.002
0.6345,128.181881,37.921762,6998.703909600001,0.043,-0.594,180.002
0.6513,128.181881,37.921717,6998.6475216,0.047,-0.608,180.003
0.6679,128.181881,37.921672,6998.5902192,0.051,-0.621,180.003
0.6847,128.181881,37.921628,6998.531697600001,0.056,-0.635,180.003
0.7014,128.181881,37.921583,6998.471956800001,0.061,-0.648,180.004
0.7181,128.181881,37.921538,6998.411301600001,0.067,-0.662,180.004
0.7348,128.181881,37.921494,6998.349427200001,0.073,-0.675,180.004
0.7514,128.181881,37.921449,6998.286638400001,0.079,-0.688,180.005
0.7682,128.181881,37.921404,6998.2226304,0.087,-0.702,180.005
0.7848,128.181881,37.92136,6998.1574032,0.094,-0.715,180.006
0.8016,128.181881,37.921315,6998.0912616,0.103,-0.728,180.006
0.8183,128.181881,37.92127,6998.023900800001,0.112,-0.741,180.007
0.835,128.181881,37.921226,6997.9553208,0.122,-0.755,180.007
0.8517,128.181881,37.921181,6997.8858264,0.132,-0.768,180.008
0.8684,128.181881,37.921137,6997.8151128,0.144,-0.781,180.008
0.8851,128.181881,37.921092,6997.7434848,0.157,-0.794,180.009
0.9018,128.181881,37.921048,6997.6703328,0.171,-0.808,180.01
0.9185,128.181881,37.921003,6997.5962664,0.185,-0.821,180.011
0.9352,128.181881,37.920958,6997.5209808,0.202,-0.834,180.012
0.9519,128.181881,37.920914,6997.444476,0.219,-0.847,180.013
0.9686,128.181881,37.920869,6997.367056800001,0.238,-0.861,180.014
0.9853,128.181881,37.920825,6997.2881136000005,0.259,-0.874,180.015
1.002,128.181881,37.92078,6997.208256000001,0.281,-0.887,180.016
1.0187,128.181881,37.920736,6997.127179200001,0.306,-0.901,180.018
1.0353,128.181881,37.920691,6997.044883200001,0.332,-0.914,180.019
1.0521,128.181881,37.920647,6996.961368,0.361,-0.927,180.021
1.0688,128.181881,37.920602,6996.876633600001,0.392,-0.941,180.023
1.0855,128.181881,37.920558,6996.79068,0.426,-0.954,180.025
1.1022,128.181881,37.920513,6996.7035072,0.462,-0.968,180.027
1.1189,128.181881,37.920469,6996.6148104,0.502,-0.981,180.029
1.1356,128.181881,37.920424,6996.5251992,0.545,-0.995,180.031
1.1522,128.181881,37.92038,6996.434064,0.592,-1.009,180.034
1.169,128.181881,37.920336,6996.3420144,0.642,-1.022,180.037
1.1857,128.181881,37.920291,6996.248136,0.697,-1.036,180.04
1.2024,128.181881,37.920247,6996.1533432,0.757,-1.05,180.043
1.2191,128.181881,37.920202,6996.0570264,0.822,-1.064,180.047
1.2358,128.181881,37.920158,6995.9591856,0.892,-1.078,180.051
1.2525,128.181881,37.920114,6995.8601256,0.969,-1.092,180.055
1.2691,128.18188,37.920069,6995.7595416,1.051,-1.106,180.06
1.2859,128.18188,37.920025,6995.657433600001,1.141,-1.12,180.065
1.3026,128.18188,37.91998,6995.553801600001,1.238,-1.135,180.07
1.3193,128.18188,37.919936,6995.4489504,1.344,-1.149,180.076
1.3359,128.18188,37.919892,6995.342270400001,1.459,-1.164,180.083
1.3527,128.18188,37.919847,6995.2337615999995,1.583,-1.179,180.09
1.3694,128.18188,37.919803,6995.124033600001,1.718,-1.194,180.097
1.386,128.18188,37.919759,6995.0124768000005,1.864,-1.209,180.105
1.4028,128.18188,37.919714,6994.899091200001,2.023,-1.225,180.114
1.4195,128.18188,37.91967,6994.7838768,2.195,-1.24,180.124
1.4362,128.18188,37.919626,6994.6665288,2.383,-1.256,180.134
1.4528,128.18188,37.919582,6994.547656800001,2.587,-1.272,180.144
1.4696,128.18188,37.919537,6994.4266512,2.809,-1.288,180.155
1.4863,128.18188,37.919493,6994.3035119999995,3.051,-1.305,180.165
1.5029,128.18188,37.919449,6994.1782392,3.314,-1.322,180.177
1.5197,128.18188,37.919404,6994.050528000001,3.6,-1.339,180.188
1.5364,128.18188,37.91936,6993.920683200001,3.911,-1.357,180.2
1.5531,128.18188,37.919316,6993.7884,4.249,-1.375,180.212
1.5697,128.18188,37.919272,6993.6533736,4.617,-1.393,180.225
1.5865,128.18188,37.919227,6993.515604,5.016,-1.412,180.238
1.6032,128.18188,37.919183,6993.3750912000005,5.45,-1.432,180.252
1.6198,128.18188,37.919139,6993.2315304,5.922,-1.452,180.267
1.6366,128.18188,37.919095,6993.0849216,6.435,-1.473,180.281
1.6533,128.18188,37.91905,6992.9349600000005,6.993,-1.495,180.297
1.67,128.18188,37.919006,6992.7828648,7.525,-1.517,180.308
1.6867,128.18188,37.918962,6992.6289408,8.03,-1.538,180.314
1.7034,128.18188,37.918918,6992.473492800001,8.513,-1.559,180.317
1.7201,128.18188,37.918874,6992.3165208,8.977,-1.58,180.319
1.7368,128.18188,37.918829,6992.1589392,9.427,-1.602,180.321
1.7535,128.18188,37.918785,6991.999833600001,9.869,-1.623,180.324
1.7702,128.18188,37.918741,6991.8388992,10.306,-1.645,180.328
1.7869,128.18188,37.918697,6991.676136,10.743,-1.668,180.333
1.8036,128.18188,37.918653,6991.5118488,11.184,-1.691,180.339
1.8203,128.18188,37.918609,6991.3457328,11.632,-1.714,180.346
1.837,128.18188,37.918564,6991.177483200001,12.089,-1.737,180.353
1.8537,128.18188,37.91852,6991.007100000001,12.558,-1.761,180.361
1.8704,128.18188,37.918476,6990.8345832,13.04,-1.785,180.37
1.8871,128.18188,37.918432,6990.660237600001,13.537,-1.81,180.379
1.9038,128.18188,37.918388,6990.4834536,14.051,-1.834,180.388
1.9205,128.18188,37.918344,6990.3042312,14.582,-1.859,180.398
1.9372,128.18188,37.9183,6990.1228752,15.132,-1.885,180.408
1.9539,128.181879,37.918255,6989.9390808,15.702,-1.911,180.418
1.9706,128.181879,37.918211,6989.752848,16.292,-1.937,180.428
1.9873,128.181879,37.918167,6989.563872000001,16.904,-1.963,180.439
2.004,128.181879,37.918123,6989.3727624,17.538,-1.99,180.449
2.0207,128.181879,37.918079,6989.1786048,18.197,-2.018,180.46
2.0374,128.181879,37.918035,6988.9823136,18.879,-2.046,180.471
2.0541,128.181879,37.917991,6988.782974400001,19.587,-2.075,180.481
2.0707,128.181879,37.917947,6988.580892000001,20.321,-2.104,180.492
2.0875,128.181879,37.917903,6988.3760664,21.082,-2.134,180.503
2.1042,128.181879,37.917859,6988.168192800001,21.872,-2.165,180.514
2.1208,128.181879,37.917815,6987.957576,22.69,-2.196,180.525
2.1376,128.181879,37.917771,6987.743606400001,23.54,-2.228,180.535
2.1543,128.181879,37.917727,6987.5268936,24.421,-2.26,180.546
2.171,128.181879,37.917682,6987.3071328000005,25.335,-2.294,180.556
2.1877,128.181879,37.917638,6987.0840192000005,26.283,-2.328,180.565
2.2044,128.181879,37.917594,6986.8575528,27.265,-2.362,180.575
2.2211,128.181879,37.91755,6986.628038400001,28.284,-2.397,180.583
2.2378,128.181879,37.917506,6986.3951712,29.34,-2.433,180.592
2.2544,128.181878,37.917462,6986.1586464,30.435,-2.47,180.599
2.2712,128.181878,37.917418,6985.9187688,31.569,-2.508,180.606
2.2879,128.181878,37.917374,6985.675538400001,32.744,-2.546,180.613
2.3045,128.181878,37.91733,6985.4286504,33.96,-2.585,180.618
2.3213,128.181878,37.917286,6985.1781048,35.22,-2.625,180.623
2.338,128.181878,37.917242,6984.9235968,36.525,-2.666,180.628
2.3546,128.181878,37.917198,6984.665736,37.875,-2.707,180.631
2.3714,128.181878,37.917154,6984.4039128,39.272,-2.75,180.633
2.3881,128.181878,37.91711,6984.138432000001,40.715,-2.793,180.635
2.4048,128.181878,37.917066,6983.8692936,42.201,-2.837,180.635
2.4215,128.181878,37.917022,6983.596802399999,43.731,-2.881,180.634
2.4382,128.181878,37.916978,6983.3206536,45.302,-2.925,180.631
2.4549,128.181879,37.916934,6983.040847200001,46.913,-2.97,180.626
2.4716,128.181879,37.91689,6982.757688000001,48.563,-3.015,180.621
2.4882,128.181879,37.916846,6982.4708712,50.25,-3.059,180.613
2.505,128.181879,37.916802,6982.180701600001,51.974,-3.104,180.604
2.5217,128.181879,37.916758,6981.887179200001,53.733,-3.149,180.593
2.5383,128.181879,37.916714,6981.590304,55.526,-3.194,180.581
2.5551,128.181879,37.91667,6981.290076,57.352,-3.239,180.567
2.5718,128.181879,37.916626,6980.986495200001,59.21,-3.284,180.551
2.5884,128.181879,37.916582,6980.6798664,61.099,-3.328,180.534
2.6052,128.181879,37.916538,6980.3698848,63.017,-3.372,180.516
2.6219,128.18188,37.916494,6980.0568552,64.966,-3.415,180.496
2.6386,128.18188,37.91645,6979.7404728,66.942,-3.458,180.474
2.6553,128.18188,37.916406,6979.421347200001,68.946,-3.501,180.452
2.6719,128.18188,37.916362,6979.098868800001,70.977,-3.542,180.427
2.6887,128.18188,37.916318,6978.773647200001,73.034,-3.583,180.402
2.7054,128.18188,37.916274,6978.4450728,75.117,-3.624,180.375
2.722,128.181881,37.91623,6978.113755200001,77.224,-3.663,180.347
2.7388,128.181881,37.916186,6977.7796944,79.355,-3.702,180.318
2.7555,128.181881,37.916142,6977.4425856,81.51,-3.739,180.287
2.7721,128.181881,37.916098,6977.102733600001,83.687,-3.776,180.256
2.7889,128.181882,37.916054,6976.7604432,85.887,-3.811,180.224
2.8056,128.181882,37.91601,6976.4151048,88.108,-3.845,180.19
2.8222,128.181882,37.915966,6976.067328,90.351,-3.879,180.156
2.839,128.181883,37.915922,6975.716808,92.614,-3.911,180.121
2.8557,128.181883,37.915878,6975.3638496,94.896,-3.941,180.086
2.8724,128.181883,37.915834,6975.0084528,97.198,-3.971,180.05
2.8891,128.181884,37.91579,6974.6503128,99.519,-4.0,180.021
2.9057,128.181884,37.915746,6974.2900392,101.857,-4.031,180.003
2.9225,128.181884,37.915702,6973.927632000001,104.212,-4.064,180.0
2.9392,128.181885,37.915658,6973.5624816,106.582,-4.101,180.014
2.9558,128.181885,37.915614,6973.1955024,108.968,-4.144,180.048
2.9726,128.181886,37.91557,6972.82578,111.368,-4.195,180.1
2.9893,128.181886,37.915526,6972.453924,113.782,-4.255,180.172
3.0059,128.181886,37.915482,6972.0796296,116.207,-4.326,180.263
3.0227,128.181887,37.915438,6971.703201600001,118.644,-4.41,180.37
3.0394,128.181887,37.915394,6971.3237256,121.084,-4.508,180.495
3.056,128.181888,37.91535,6970.941201600001,123.514,-4.62,180.636
3.0728,128.181888,37.915306,6970.555020000001,125.919,-4.746,180.791
3.0895,128.181888,37.915262,6970.164876,128.288,-4.889,180.961
3.1062,128.181889,37.915218,6969.770464800001,130.607,-5.048,181.142
3.1229,128.181889,37.915175,6969.3714816,132.867,-5.225,181.334
3.1395,128.181889,37.915131,6968.9667072,135.058,-5.419,181.535
3.1563,128.181889,37.915087,6968.556141600001,137.172,-5.633,181.743
3.173,128.18189,37.915043,6968.1391752,139.204,-5.865,181.955
3.1896,128.18189,37.914999,6967.7148936,141.148,-6.116,182.171
3.2064,128.18189,37.914955,6967.282992,143.001,-6.385,182.389
3.2231,128.18189,37.914911,6966.8428608,144.762,-6.672,182.606
3.2397,128.18189,37.914867,6966.3941952000005,146.43,-6.976,182.822
3.2565,128.181889,37.914824,6965.9363856,148.005,-7.296,183.034
3.2732,128.181889,37.91478,6965.4691272,149.49,-7.631,183.243
3.2899,128.181889,37.914736,6964.992115200001,150.887,-7.98,183.445
3.3066,128.181889,37.914692,6964.5050448,152.199,-8.341,183.641
3.3233,128.181888,37.914649,6964.007306400001,153.429,-8.713,183.83
3.34,128.181888,37.914605,6963.498595200001,154.583,-9.092,184.01
3.3567,128.181888,37.914561,6962.978911200001,155.663,-9.475,184.18
3.3734,128.181887,37.914518,6962.4479496,156.676,-9.858,184.338
3.3901,128.181886,37.914474,6961.905100800001,157.625,-10.238,184.484
3.4068,128.181886,37.91443,6961.3506696,158.515,-10.614,184.617
3.4235,128.181885,37.914387,6960.784046400001,159.351,-10.985,184.739
3.4402,128.181884,37.914343,6960.2052312000005,160.136,-11.349,184.85
3.4569,128.181884,37.9143,6959.614224000001,160.875,-11.707,184.949
3.4736,128.181883,37.914256,6959.0101104000005,161.572,-12.057,185.038
3.4903,128.181882,37.914213,6958.3935,162.23,-12.4,185.118
3.507,128.181881,37.914169,6957.764088000001,162.853,-12.736,185.189
3.5237,128.18188,37.914126,6957.122484,163.508,-13.066,185.246
3.5404,128.181879,37.914083,6956.468992800001,164.194,-13.39,185.29
3.5571,128.181878,37.914039,6955.8030048,164.903,-13.708,185.323
3.5738,128.181877,37.913996,6955.1257392,165.628,-14.019,185.349
3.5905,128.181876,37.913953,6954.4356720000005,166.361,-14.324,185.369
3.6072,128.181875,37.913909,6953.7328032,167.096,-14.623,185.384
3.6239,128.181874,37.913866,6953.016523200001,167.825,-14.915,185.394
3.6406,128.181873,37.913823,6952.2865272,168.542,-15.202,185.401
3.6573,128.181871,37.91378,6951.5428152,169.242,-15.483,185.403
3.674,128.18187,37.913737,6950.785082400001,169.921,-15.76,185.401
3.6907,128.181869,37.913693,6950.013024000001,170.577,-16.032,185.396
3.7074,128.181868,37.91365,6949.22664,171.206,-16.3,185.387
3.7241,128.181866,37.913607,6948.4259304,171.808,-16.564,185.375
3.7408,128.181865,37.913564,6947.6102856,172.382,-16.825,185.359
3.7575,128.181864,37.913521,6946.780315200001,172.928,-17.083,185.34
3.7742,128.181862,37.913478,6945.935409600001,173.446,-17.339,185.318
3.7909,128.181861,37.913436,6945.075568800001,173.938,-17.591,185.294
3.8076,128.181859,37.913393,6944.2014024,174.406,-17.842,185.269
3.8243,128.181858,37.91335,6943.311996,174.849,-18.09,185.241
3.841,128.181857,37.913307,6942.407959200001,175.27,-18.337,185.212
3.8577,128.181855,37.913264,6941.489292,175.667,-18.581,185.181
3.8744,128.181854,37.913222,6940.5556896,176.044,-18.824,185.147
3.8911,128.181852,37.913179,6939.6071520000005,176.401,-19.065,185.112
3.9078,128.181851,37.913137,6938.643984000001,176.74,-19.305,185.075
3.9245,128.181849,37.913094,6937.6658808,177.062,-19.542,185.036
3.9412,128.181848,37.913051,6936.673147200001,177.369,-19.779,184.995
3.9579,128.181846,37.913009,6935.6654784,177.661,-20.014,184.952
3.9746,128.181844,37.912967,6934.643179200001,177.939,-20.247,184.909
3.9913,128.181843,37.912924,6933.6062496,178.207,-20.479,184.863
4.008,128.181841,37.912882,6932.5546896,178.463,-20.71,184.817
4.0247,128.18184,37.91284,6931.4881944,178.709,-20.94,184.769
4.0414,128.181838,37.912797,6930.4070688,178.947,-21.168,184.72
4.058,128.181837,37.912755,6929.3113128,179.176,-21.394,184.67
4.0748,128.181835,37.912713,6928.2009264,179.399,-21.62,184.62
4.0915,128.181833,37.912671,6927.0759096,179.616,-21.844,184.57
4.1082,128.181832,37.912629,6925.9362624000005,179.828,-22.067,184.52
4.1249,128.18183,37.912587,6924.7819848,-179.964,-22.289,184.471
4.1415,128.181829,37.912545,6923.6130768,-179.762,-22.51,184.421
4.1583,128.181827,37.912503,6922.429538400001,-179.563,-22.73,184.373
4.175,128.181825,37.912461,6921.231674400001,-179.367,-22.949,184.324
4.1917,128.181824,37.912419,6920.0188751999995,-179.175,-23.166,184.276
4.2084,128.181822,37.912377,6918.791750400001,-178.986,-23.383,184.229
4.2251,128.181821,37.912336,6917.5496904,-178.8,-23.599,184.183
4.2417,128.181819,37.912294,6916.2933048,-178.617,-23.814,184.136
4.2585,128.181817,37.912252,6915.0225936,-178.436,-24.029,184.091
4.2752,128.181816,37.912211,6913.736947200001,-178.259,-24.242,184.046
4.2919,128.181814,37.912169,6912.4369752,-178.084,-24.455,184.001
4.3086,128.181813,37.912128,6911.1223728,-177.912,-24.667,183.958
4.3252,128.181811,37.912086,6909.79314,-177.744,-24.879,183.914
4.342,128.18181,37.912045,6908.4495816,-177.578,-25.09,183.87
4.3587,128.181808,37.912004,6907.091392800001,-177.416,-25.3,183.826
4.3754,128.181806,37.911962,6905.7185736,-177.258,-25.51,183.782
4.3921,128.181805,37.911921,6904.331428800001,-177.103,-25.719,183.738
4.4088,128.181803,37.91188,6902.9296536,-176.952,-25.928,183.694
4.4254,128.181802,37.911839,6901.513248,-176.804,-26.136,183.649
4.4422,128.1818,37.911798,6900.0825168,-176.659,-26.344,183.604
4.4589,128.181799,37.911757,6898.637460000001,-176.518,-26.552,183.558
4.4756,128.181797,37.911716,6897.177772800001,-176.38,-26.759,183.512
4.4923,128.181796,37.911675,6895.70376,-176.245,-26.965,183.466
4.5089,128.181794,37.911634,6894.2151168,-176.114,-27.172,183.42
4.5256,128.181793,37.911593,6892.712148,-175.986,-27.377,183.374
4.5424,128.181791,37.911552,6891.1948536,-175.862,-27.583,183.327
4.5591,128.18179,37.911512,6889.663233600001,-175.74,-27.788,183.28
4.5758,128.181788,37.911471,6888.1169832000005,-175.622,-27.993,183.233
4.5925,128.181787,37.91143,6886.5564072,-175.508,-28.198,183.186
4.6091,128.181785,37.91139,6884.981505600001,-175.397,-28.403,183.138
4.6259,128.181784,37.911349,6883.392278400001,-175.289,-28.607,183.091
4.6426,128.181782,37.911309,6881.7884208,-175.185,-28.811,183.043
4.6593,128.181781,37.911269,6880.170542400001,-175.084,-29.014,182.996
4.676,128.18178,37.911228,6878.538338400001,-174.986,-29.218,182.948
4.6927,128.181778,37.911188,6876.8918088,-174.892,-29.421,182.9
4.7093,128.181777,37.911148,6875.2306488,-174.802,-29.624,182.852
4.7261,128.181775,37.911108,6873.5554680000005,-174.715,-29.827,182.804
4.7428,128.181774,37.911068,6871.8662664,-174.631,-30.03,182.756
4.7595,128.181773,37.911028,6870.1624344,-174.551,-30.233,182.708
4.7762,128.181771,37.910988,6868.444581600001,-174.474,-30.435,182.66
4.7928,128.18177,37.910948,6866.7124032,-174.4,-30.637,182.612
4.8096,128.181769,37.910908,6864.966204,-174.33,-30.84,182.564
4.8263,128.181767,37.910868,6863.205679200001,-174.264,-31.041,182.516
4.843,128.181766,37.910829,6861.430828800001,-174.2,-31.243,182.468
4.8597,128.181765,37.910789,6859.6419576,-174.14,-31.445,182.42
4.8764,128.181764,37.91075,6857.839065600001,-174.084,-31.647,182.372
4.893,128.181762,37.91071,6856.0221528,-174.03,-31.848,182.325
4.9098,128.181761,37.910671,6854.1909144,-173.98,-32.05,182.277
4.9265,128.18176,37.910631,6852.345655200001,-173.933,-32.251,182.23
4.9432,128.181759,37.910592,6850.4863752,-173.888,-32.452,182.183
4.9599,128.181758,37.910553,6848.613074400001,-173.847,-32.653,182.136
4.9765,128.181756,37.910514,6846.7257528,-173.809,-32.854,182.089
4.9932,128.181755,37.910474,6844.8244104000005,-173.774,-33.055,182.042
5.01,128.181754,37.910435,6842.909047200001,-173.742,-33.256,181.995
5.0267,128.181753,37.910396,6840.979968000001,-173.712,-33.457,181.949
5.0434,128.181752,37.910357,6839.0365632,-173.686,-33.657,181.903
5.0601,128.181751,37.910319,6837.0797472,-173.661,-33.858,181.857
5.0767,128.18175,37.91028,6835.1086056,-173.64,-34.058,181.811
5.0935,128.181749,37.910241,6833.123748,-173.621,-34.259,181.765
5.1102,128.181748,37.910202,6831.125174400001,-173.604,-34.459,181.72
5.1269,128.181747,37.910164,6829.1128848,-173.59,-34.66,181.675
5.1436,128.181746,37.910125,6827.086574400001,-173.578,-34.86,181.63
5.1602,128.181745,37.910087,6825.046548,-173.568,-35.06,181.586
5.1769,128.181744,37.910049,6822.992805600001,-173.56,-35.261,181.542
5.1937,128.181743,37.91001,6820.925347200001,-173.554,-35.461,181.498
5.2104,128.181742,37.909972,6818.844172800001,-173.551,-35.661,181.454
5.2271,128.181741,37.909934,6816.7492824,-173.549,-35.861,181.411
5.2438,128.18174,37.909896,6814.640676,-173.549,-36.061,181.368
5.2604,128.181739,37.909858,6812.5186584,-173.551,-36.261,181.326
5.2772,128.181738,37.90982,6810.382924800001,-173.555,-36.461,181.283
5.2939,128.181738,37.909782,6808.2334752,-173.56,-36.661,181.241
5.3106,128.181737,37.909744,6806.0706144000005,-173.567,-36.861,181.2
5.3273,128.181736,37.909706,6803.894342400001,-173.576,-37.061,181.158
5.3439,128.181735,37.909669,6801.704354400001,-173.585,-37.261,181.117
5.3606,128.181734,37.909631,6799.5009552,-173.596,-37.46,181.077
5.3774,128.181733,37.909593,6797.2841448,-173.609,-37.66,181.037
5.3941,128.181733,37.909556,6795.0539232,-173.622,-37.86,180.997
5.4108,128.181732,37.909519,6792.810290400001,-173.637,-38.06,180.957
5.4275,128.181731,37.909481,6790.553246400001,-173.653,-38.259,180.918
5.4441,128.181731,37.909444,6788.283096,-173.67,-38.459,180.879
5.4609,128.18173,37.909407,6785.9992296,-173.688,-38.659,180.841
5.4776,128.181729,37.90937,6783.702256800001,-173.707,-38.858,180.803
5.4943,128.181729,37.909333,6781.392177600001,-173.727,-39.058,180.765
5.511,128.181728,37.909296,6779.068687200001,-173.747,-39.258,180.728
5.5277,128.181727,37.909259,6776.7317856,-173.769,-39.457,180.691
5.5443,128.181727,37.909222,6774.3817776000005,-173.791,-39.657,180.654
5.5611,128.181726,37.909186,6772.0186632,-173.814,-39.856,180.618
5.5778,128.181725,37.909149,6769.642442400001,-173.837,-40.056,180.583
5.5945,128.181725,37.909112,6767.253115200001,-173.861,-40.256,180.547
5.6112,128.181724,37.909076,6764.8506816,-173.886,-40.455,180.512
5.6278,128.181724,37.90904,6762.435141600001,-173.911,-40.655,180.478
5.6445,128.181723,37.909003,6760.0064952,-173.937,-40.854,180.443
5.6613,128.181723,37.908967,6757.565047200001,-173.963,-41.054,180.409
5.678,128.181722,37.908931,6755.1104928,-173.989,-41.253,180.376
5.6947,128.181722,37.908895,6752.642832,-174.016,-41.453,180.343
5.7114,128.181721,37.908859,6750.162369600001,-174.043,-41.652,180.31
5.728,128.181721,37.908823,6747.669105600001,-174.071,-41.852,180.278
5.7448,128.18172,37.908787,6745.1627352000005,-174.098,-42.051,180.245
5.7615,128.18172,37.908751,6742.6435632,-174.126,-42.25,180.214
5.7782,128.18172,37.908716,6740.1115896,-174.154,-42.45,180.182
5.7949,128.181719,37.90868,6737.567119200001,-174.183,-42.649,180.151
5.8115,128.181719,37.908644,6735.009542400001,-174.211,-42.849,180.121
5.8282,128.181719,37.908609,6732.439164,-174.24,-43.048,180.091
5.845,128.181718,37.908574,6729.8562888,-174.268,-43.248,180.061
5.8617,128.181718,37.908538,6727.260612,-174.297,-43.447,180.031
5.8784,128.181718,37.908503,6724.6521336000005,-174.326,-43.646,180.002
5.8951,128.181717,37.908468,6722.0311584,-174.355,-43.845,179.973
5.9117,128.181717,37.908433,6719.397686400001,-174.384,-44.044,179.945
5.9285,128.181717,37.908398,6716.7514128,-174.413,-44.243,179.916
5.9452,128.181716,37.908363,6714.092642400001,-174.442,-44.442,179.889
5.9619,128.181716,37.908328,6711.4213752,-174.472,-44.641,179.861
5.9786,128.181716,37.908294,6708.737611200001,-174.501,-44.84,179.834
5.9952,128.181716,37.908259,6706.041350400001,-174.53,-45.038,179.807
6.0119,128.181715,37.908225,6703.332897600001,-174.559,-45.237,179.781
6.0287,128.181715,37.90819,6700.6116432,-174.588,-45.436,179.755
6.0454,128.181715,37.908156,6697.8781968,-174.617,-45.634,179.729
6.0621,128.181715,37.908122,6695.132558400001,-174.646,-45.833,179.703
6.0788,128.181715,37.908087,6692.374423200001,-174.675,-46.031,179.678
6.0954,128.181715,37.908053,6689.6037912,-174.703,-46.23,179.653
6.1121,128.181714,37.908019,6686.821272,-174.732,-46.428,179.628
6.1289,128.181714,37.907986,6684.026256000001,-174.761,-46.627,179.604
6.1456,128.181714,37.907952,6681.219048,-174.789,-46.825,179.58
6.1623,128.181714,37.907918,6678.399648,-174.817,-47.024,179.556
6.179,128.181714,37.907884,6675.568360800001,-174.845,-47.222,179.533
6.1956,128.181714,37.907851,6672.7245768,-174.873,-47.421,179.509
6.2124,128.181714,37.907817,6669.8689056,-174.901,-47.619,179.486
6.2291,128.181714,37.907784,6667.001347200001,-174.929,-47.818,179.464
6.2458,128.181714,37.907751,6664.121292000001,-174.956,-48.016,179.441
6.2625,128.181714,37.907717,6661.2296544,-174.984,-48.215,179.419
6.2791,128.181714,37.907684,6658.325824800001,-175.011,-48.414,179.397
6.2958,128.181714,37.907651,6655.410108,-175.038,-48.612,179.375
6.3126,128.181714,37.907618,6652.4825040000005,-175.065,-48.811,179.354
6.3293,128.181714,37.907586,6649.5430128,-175.091,-49.009,179.332
6.346,128.181714,37.907553,6646.5916344,-175.117,-49.208,179.311
6.3627,128.181714,37.90752,6643.6286736,-175.143,-49.406,179.29
6.3793,128.181714,37.907488,6640.6535208,-175.169,-49.605,179.27
6.3961,128.181714,37.907455,6637.6667856,-175.195,-49.803,179.249
6.4128,128.181714,37.907423,6634.668468,-175.22,-50.002,179.229
6.4295,128.181714,37.907391,6631.6582632,-175.245,-50.2,179.209
6.4462,128.181714,37.907358,6628.636476,-175.27,-50.399,179.189
6.4628,128.181714,37.907326,6625.603106400001,-175.295,-50.597,179.17
6.4795,128.181714,37.907294,6622.558154400001,-175.319,-50.796,179.15
6.4963,128.181715,37.907262,6619.501620000001,-175.343,-50.994,179.131
6.513,128.181715,37.907231,6616.4335032,-175.367,-51.193,179.112
6.5297,128.181715,37.907199,6613.353804,-175.391,-51.391,179.093
6.5464,128.181715,37.907167,6610.2625224,-175.414,-51.59,179.074
6.5631,128.181715,37.907136,6607.159963200001,-175.437,-51.788,179.056
6.5798,128.181715,37.907104,6604.0461264000005,-175.46,-51.986,179.037
6.5965,128.181716,37.907073,6600.9207072,-175.482,-52.185,179.019
6.6132,128.181716,37.907042,6597.784010400001,-175.504,-52.383,179.001
6.6299,128.181716,37.907011,6594.636036,-175.526,-52.582,178.983
6.6466,128.181716,37.90698,6591.476784000001,-175.548,-52.78,178.965
6.6633,128.181716,37.906949,6588.3062544,-175.569,-52.979,178.948
6.68,128.181717,37.906918,6585.124447200001,-175.59,-53.177,178.93
6.6967,128.181717,37.906887,6581.9313624,-175.611,-53.375,178.913
6.7134,128.181717,37.906857,6578.727304800001,-175.631,-53.574,178.896
6.7301,128.181717,37.906826,6575.511969600001,-175.651,-53.772,178.878
6.7468,128.181718,37.906796,6572.2856616,-175.671,-53.971,178.861
6.7635,128.181718,37.906765,6569.0483808,-175.69,-54.169,178.844
6.7802,128.181718,37.906735,6565.7998224,-175.71,-54.367,178.828
6.7969,128.181719,37.906705,6562.540596000001,-175.728,-54.566,178.811
6.8136,128.181719,37.906675,6559.2703968000005,-175.747,-54.764,178.794
6.8303,128.181719,37.906645,6555.988920000001,-175.765,-54.962,178.778
6.847,128.18172,37.906615,6552.6967752,-175.783,-55.161,178.762
6.8637,128.18172,37.906585,6549.3939624,-175.801,-55.359,178.745
6.8804,128.18172,37.906556,6546.0801768,-175.818,-55.557,178.729
6.8971,128.181721,37.906526,6542.7554184,-175.835,-55.756,178.713
6.9138,128.181721,37.906497,6539.419992000001,-175.852,-55.954,178.697
6.9305,128.181721,37.906467,6536.0742024,-175.868,-56.152,178.681
6.9472,128.181722,37.906438,6532.71744,-175.884,-56.35,178.665
6.9639,128.181722,37.906409,6529.350009600001,-175.9,-56.549,178.649
6.9806,128.181722,37.90638,6525.971911200001,-175.915,-56.747,178.633
6.9973,128.181723,37.906351,6522.583449600001,-175.931,-56.945,178.618
7.014,128.181723,37.906322,6519.184320000001,-175.945,-57.143,178.602
7.0307,128.181724,37.906294,6515.7745224,-175.96,-57.342,178.586
7.0474,128.181724,37.906265,6512.3546664,-175.974,-57.54,178.571
7.0641,128.181724,37.906237,6508.9238376,-175.988,-57.738,178.555
7.0808,128.181725,37.906208,6505.482950400001,-176.001,-57.936,178.539
7.0975,128.181725,37.90618,6502.0317000000005,-176.014,-58.134,178.524
7.1142,128.181726,37.906152,6498.5700864,-176.027,-58.333,178.508
7.1309,128.181726,37.906124,6495.0981096000005,-176.04,-58.531,178.493
7.1476,128.181727,37.906096,6491.616074400001,-176.052,-58.729,178.477
7.1643,128.181727,37.906068,6488.123676,-176.064,-58.927,178.462
7.181,128.181728,37.90604,6484.6209144,-176.076,-59.125,178.447
7.1977,128.181728,37.906013,6481.1083992,-176.087,-59.323,178.431
7.2144,128.181729,37.905985,6477.5855208,-176.098,-59.521,178.416
7.2311,128.181729,37.905958,6474.052584000001,-176.109,-59.72,178.4
7.2478,128.18173,37.90593,6470.5095888,-176.12,-59.918,178.385
7.2645,128.18173,37.905903,6466.9565352,-176.13,-60.116,178.369
7.2812,128.181731,37.905876,6463.393728000001,-176.14,-60.314,178.354
7.2979,128.181731,37.905849,6459.8208624,-176.149,-60.512,178.338
7.3146,128.181732,37.905822,6456.2382431999995,-176.158,-60.71,178.323
7.3313,128.181732,37.905795,6452.645565600001,-176.167,-60.908,178.307
7.348,128.181733,37.905769,6449.0431344,-176.176,-61.106,178.292
7.3647,128.181733,37.905742,6445.4309496000005,-176.184,-61.304,178.276
7.3814,128.181734,37.905716,6441.809011200001,-176.192,-61.502,178.26
7.3981,128.181734,37.905689,6438.177319200001,-176.199,-61.7,178.244
7.4148,128.181735,37.905663,6434.536178400001,-176.206,-61.898,178.229
7.4315,128.181736,37.905637,6430.885284000001,-176.213,-62.096,178.213
7.4482,128.181736,37.905611,6427.224636,-176.22,-62.294,178.197
7.4649,128.181737,37.905585,6423.554539199999,-176.226,-62.492,178.181
7.4816,128.181737,37.90556,6419.8749935999995,-176.232,-62.69,178.165
7.4983,128.181738,37.905534,6416.1859992,-176.237,-62.888,178.148
7.515,128.181738,37.905508,6412.487556000001,-176.242,-63.086,178.132
7.5317,128.181739,37.905483,6408.779664000001,-176.247,-63.284,178.116
7.5484,128.18174,37.905458,6405.062628000001,-176.251,-63.482,178.099
7.5651,128.18174,37.905432,6401.335838400001,-176.255,-63.68,178.083
7.5818,128.181741,37.905407,6397.6002096,-176.259,-63.878,178.066
7.5985,128.181742,37.905382,6393.855132000001,-176.262,-64.076,178.049
7.6152,128.181742,37.905358,6390.1009104,-176.265,-64.273,178.032
7.6319,128.181743,37.905333,6386.337544800001,-176.268,-64.471,178.015
7.6486,128.181743,37.905308,6382.5650352,-176.27,-64.669,177.998
7.6653,128.181744,37.905284,6378.7833816,-176.272,-64.867,177.981
7.682,128.181745,37.905259,6374.9928887999995,-176.274,-65.065,177.963
7.6987,128.181745,37.905235,6371.193252000001,-176.275,-65.263,177.945
7.7154,128.181746,37.905211,6367.3844712,-176.276,-65.461,177.928
7.7321,128.181747,37.905187,6363.567156000001,-176.276,-65.658,177.91
7.7488,128.181747,37.905163,6359.7406968000005,-176.276,-65.856,177.892
7.7655,128.181748,37.905139,6355.9053984,-176.276,-66.054,177.873
7.7822,128.181749,37.905115,6352.061260800001,-176.275,-66.252,177.855
7.7989,128.181749,37.905092,6348.2085888,-176.274,-66.45,177.836
7.8156,128.18175,37.905068,6344.3470776,-176.273,-66.647,177.817
7.8323,128.181751,37.905045,6340.477032000001,-176.271,-66.845,177.798
7.849,128.181752,37.905022,6336.5981472,-176.269,-67.043,177.779
7.8657,128.181752,37.904999,6332.711032800001,-176.266,-67.241,177.759
7.8824,128.181753,37.904976,6328.815079200001,-176.263,-67.438,177.739
7.8991,128.181754,37.904953,6324.9105912,-176.259,-67.636,177.719
7.9158,128.181754,37.90493,6320.9975688,-176.255,-67.834,177.699
7.9325,128.181755,37.904908,6317.0763168,-176.251,-68.031,177.679
7.9492,128.181756,37.904885,6313.1468352,-176.246,-68.229,177.658
7.9659,128.181757,37.904863,6309.208819200001,-176.24,-68.427,177.637
7.9826,128.181757,37.90484,6305.2622688,-176.234,-68.624,177.615
7.9993,128.181758,37.904818,6301.3077936,-176.228,-68.822,177.594
8.016,128.181759,37.904796,6297.3450888,-176.221,-69.02,177.572
8.0327,128.181759,37.904774,6293.3741544,-176.214,-69.217,177.549
8.0494,128.18176,37.904753,6289.3949904,-176.206,-69.415,177.527
8.0661,128.181761,37.904731,6285.4079016000005,-176.198,-69.613,177.504
8.0828,128.181762,37.904709,6281.412583200001,-176.19,-69.81,177.481
8.0994,128.181762,37.904688,6277.4096448,-176.18,-70.008,177.457
8.1161,128.181763,37.904667,6273.3984768,-176.171,-70.205,177.433
8.1329,128.181764,37.904646,6269.379384000001,-176.161,-70.403,177.409
8.1496,128.181765,37.904625,6265.3523663999995,-176.15,-70.6,177.384
8.1663,128.181766,37.904604,6261.317728800001,-176.139,-70.798,177.358
8.183,128.181766,37.904583,6257.2751664,-176.127,-70.996,177.333
8.1997,128.181767,37.904562,6253.224984,-176.114,-71.193,177.307
8.2164,128.181768,37.904542,6249.1668768,-176.101,-71.391,177.28
8.2331,128.181769,37.904521,6245.1014544,-176.087,-71.588,177.253
8.2498,128.181769,37.904501,6241.0281072,-176.073,-71.786,177.225
8.2665,128.18177,37.904481,6236.9474448,-176.058,-71.983,177.197
8.2831,128.181771,37.904461,6232.8591624,-176.043,-72.181,177.169
8.2998,128.181772,37.904441,6228.7635648000005,-176.026,-72.378,177.139
8.3166,128.181773,37.904421,6224.660347200001,-176.009,-72.576,177.11
8.3333,128.181773,37.904401,6220.5498144,-175.992,-72.773,177.079
8.35,128.181774,37.904382,6216.4319663999995,-175.973,-72.97,177.048
8.3667,128.181775,37.904362,6212.3068032,-175.954,-73.168,177.017
8.3834,128.181776,37.904343,6208.1746296,-175.934,-73.365,176.984
8.4001,128.181777,37.904324,6204.034836,-175.914,-73.563,176.952
8.4168,128.181777,37.904305,6199.888336800001,-175.892,-73.76,176.918
8.4335,128.181778,37.904286,6195.7345224,-175.87,-73.957,176.884
8.4502,128.181779,37.904267,6191.573392800001,-175.847,-74.155,176.848
8.4668,128.18178,37.904249,6187.4055576,-175.823,-74.352,176.812
8.4835,128.181781,37.90423,6183.230712,-175.798,-74.549,176.776
8.5003,128.181782,37.904212,6179.048856,-175.772,-74.747,176.738
8.517,128.181782,37.904193,6174.8602944,-175.746,-74.944,176.7
8.5337,128.181783,37.904175,6170.6647224,-175.718,-75.141,176.66
8.5504,128.181784,37.904157,6166.4624448,-175.689,-75.339,176.62
8.5671,128.181785,37.904139,6162.253156800001,-175.659,-75.536,176.578
8.5838,128.181786,37.904122,6158.037468,-175.628,-75.733,176.536
8.6005,128.181787,37.904104,6153.815073600001,-175.595,-75.93,176.492
8.6172,128.181788,37.904086,6149.586278400001,-175.562,-76.128,176.447
8.6339,128.181788,37.904069,6145.350777600001,-175.527,-76.325,176.401
8.6505,128.181789,37.904052,6141.1085712,-175.491,-76.522,176.354
8.6672,128.18179,37.904035,6136.8602688,-175.454,-76.719,176.306
8.684,128.181791,37.904018,6132.605260800001,-175.415,-76.917,176.256
8.7007,128.181792,37.904001,6128.343852000001,-175.375,-77.114,176.205
8.7174,128.181793,37.903984,6124.076347200001,-175.333,-77.311,176.152
8.7341,128.181794,37.903968,6119.802441600001,-175.29,-77.508,176.098
8.7508,128.181794,37.903951,6115.52244,-175.245,-77.705,176.042
8.7675,128.181795,37.903935,6111.236037600001,-175.198,-77.902,175.984
8.7842,128.181796,37.903919,6106.943844,-175.15,-78.099,175.925
8.8009,128.181797,37.903902,6102.6452496,-175.099,-78.296,175.863
8.8176,128.181798,37.903887,6098.340864000001,-175.046,-78.494,175.8
8.8342,128.181799,37.903871,6094.0303824,-174.992,-78.691,175.735
8.8509,128.1818,37.903855,6089.7141096000005,-174.935,-78.888,175.667
8.8676,128.181801,37.90384,6085.391740800001,-174.876,-79.085,175.597
8.8844,128.181801,37.903824,6081.0635808,-174.814,-79.282,175.525
8.9011,128.181802,37.903809,6076.7296295999995,-174.749,-79.479,175.45
8.9178,128.181803,37.903794,6072.389887200001,-174.682,-79.676,175.372
8.9345,128.181804,37.903779,6068.0446584,-174.612,-79.872,175.292
8.9512,128.181805,37.903764,6063.693638400001,-174.54,-80.069,175.208
8.9679,128.181806,37.903749,6059.337132000001,-174.463,-80.266,175.121
8.9846,128.181807,37.903734,6054.9751392,-174.384,-80.463,175.031
9.0013,128.181808,37.90372,6050.607355200001,-174.301,-80.66,174.937
9.0179,128.181809,37.903706,6046.2343896,-174.214,-80.857,174.84
9.0346,128.181809,37.903691,6041.8559376,-174.123,-81.054,174.738
9.0513,128.18181,37.903677,6037.4719992,-174.027,-81.25,174.632
9.0681,128.181811,37.903663,6033.082879200001,-173.927,-81.447,174.521
9.0848,128.181812,37.90365,6028.688577600001,-173.822,-81.644,174.405
9.1015,128.181813,37.903636,6024.2890944,-173.711,-81.84,174.283
9.1182,128.181814,37.903622,6019.8844296,-173.594,-82.037,174.156
9.1349,128.181815,37.903609,6015.474583200001,-173.472,-82.233,174.023
9.1516,128.181816,37.903596,6011.0595552,-173.342,-82.43,173.883
9.1683,128.181817,37.903583,6006.6399552,-173.206,-82.626,173.735
9.185,128.181818,37.90357,6002.214868800001,-173.061,-82.823,173.58
9.2016,128.181818,37.903557,5997.7852104,-172.908,-83.019,173.416
9.2183,128.181819,37.903544,5993.350675199999,-172.746,-83.216,173.243
9.235,128.18182,37.903531,5988.911263200001,-172.574,-83.412,173.06
9.2518,128.181821,37.903519,5984.467279200001,-172.391,-83.608,172.867
9.2685,128.181822,37.903507,5980.0184184,-172.197,-83.804,172.661
9.2852,128.181823,37.903494,5975.5649856,-171.989,-84.0,172.442
9.3019,128.181824,37.903482,5971.1069808,-171.767,-84.196,172.209
9.3186,128.181825,37.903471,5966.644404000001,-171.529,-84.392,171.96
9.3353,128.181826,37.903459,5962.1772552,-171.273,-84.588,171.693
9.352,128.181827,37.903447,5957.7058392,-170.998,-84.783,171.406
9.3687,128.181828,37.903436,5953.229851200001,-170.701,-84.979,171.097
9.3854,128.181829,37.903424,5948.749596000001,-170.379,-85.174,170.764
9.402,128.181829,37.903413,5944.2650736000005,-170.03,-85.369,170.403
9.4187,128.18183,37.903402,5939.7762840000005,-169.65,-85.564,170.011
9.4355,128.181831,37.903391,5935.2832272000005,-169.234,-85.759,169.584
9.4522,128.181832,37.90338,5930.786208,-168.777,-85.953,169.115
9.4689,128.181833,37.90337,5926.2849216,-168.274,-86.147,168.601
9.4856,128.181834,37.903359,5921.7796728,-167.717,-86.341,168.032
9.5023,128.181835,37.903349,5917.2707664,-167.098,-86.535,167.4
9.519,128.181836,37.903338,5912.757592800001,-166.405,-86.728,166.695
9.5357,128.181837,37.903328,5908.240456800001,-165.624,-86.92,165.902
9.5524,128.181838,37.903318,5903.7196632000005,-164.74,-87.112,165.004
9.5691,128.181839,37.903308,5899.1949072,-163.729,-87.303,163.981
9.5857,128.18184,37.903299,5894.6667984,-162.563,-87.493,162.802
9.6024,128.18184,37.903289,5890.1347272,-161.206,-87.682,161.432
9.6192,128.181841,37.90328,5885.5989984,-159.608,-87.869,159.821
9.6359,128.181842,37.90327,5881.0599168,-157.703,-88.054,157.903
9.6526,128.181843,37.903261,5876.517177600001,-155.4,-88.237,155.586
9.6693,128.181844,37.903252,5871.9710856,-152.567,-88.416,152.74
9.686,128.181845,37.903243,5867.4216408,-149.023,-88.59,149.182
9.7027,128.181846,37.903235,5862.8688432,-144.499,-88.758,144.644
9.7194,128.181847,37.903226,5858.312388,-138.616,-88.915,138.747
9.7361,128.181848,37.903218,5853.7531896,-130.852,-89.057,130.968
9.7528,128.181849,37.903209,5849.1903336000005,-120.602,-89.176,120.704
9.7694,128.18185,37.903201,5844.624734399999,-107.484,-89.261,107.572
9.7861,128.181851,37.903193,5840.055782400001,-92.025,-89.298,92.098
9.8029,128.181851,37.903185,5835.4840872,-76.1,-89.282,76.157
9.8196,128.181852,37.903178,5830.9090392,-61.919,-89.214,61.961
9.8363,128.181853,37.90317,5826.3312479999995,-50.552,-89.107,50.579
9.853,128.181854,37.903162,5821.7507136,-41.88,-88.973,41.891
9.8697,128.181855,37.903155,5817.1671312,-35.326,-88.821,35.321
9.8864,128.181856,37.903148,5812.5808056000005,-30.321,-88.657,30.299
9.9031,128.181857,37.903141,5807.9920416,-26.429,-88.485,26.39
9.9198,128.181858,37.903134,5803.4002296,-23.344,-88.308,23.287
9.9365,128.181859,37.903127,5798.806284000001,-20.851,-88.126,20.778
9.9531,128.18186,37.903121,5794.2092904,-18.803,-87.942,18.712
9.9698,128.181861,37.903114,5789.6101632,-17.096,-87.755,16.987
9.9865,128.181862,37.903108,5785.008292800001,-15.651,-87.567,15.524
10.0033,128.181862,37.903102,5780.404288799999,-14.414,-87.377,14.269
10.02,128.181863,37.903096,5775.797846400001,-13.342,-87.186,13.178
10.0367,128.181864,37.90309,5771.189270400001,-12.403,-86.995,12.221
10.0534,128.181865,37.903084,5766.578256000001,-11.574,-86.803,11.374
10.0701,128.181866,37.903078,5761.965108,-10.836,-86.61,10.616
10.0868,128.181867,37.903073,5757.3501312,-10.174,-86.417,9.935
10.1035,128.181868,37.903067,5752.7327159999995,-9.576,-86.223,9.318
10.1202,128.181869,37.903062,5748.113472,-9.032,-86.029,8.755
10.1368,128.18187,37.903057,5743.4923992,-8.535,-85.835,8.238
10.1535,128.181871,37.903052,5738.869192800001,-8.077,-85.64,7.761
10.1702,128.181871,37.903048,5734.2441576,-7.654,-85.445,7.318
10.187,128.181872,37.903043,5729.6175984,-7.26,-85.25,6.905
10.2037,128.181873,37.903038,5724.9889056,-6.892,-85.055,6.517
10.2204,128.181874,37.903034,5720.3589936,-6.546,-84.86,6.151
10.2371,128.181875,37.90303,5715.7272528,-6.218,-84.665,5.804
10.2538,128.181876,37.903026,5711.093683200001,-5.907,-84.469,5.473
10.2705,128.181877,37.903022,5706.4588944,-5.61,-84.273,5.157
10.2872,128.181878,37.903018,5701.8228864,-5.326,-84.078,4.855
10.3039,128.181879,37.903014,5697.185049600001,-5.054,-83.882,4.564
10.3205,128.181879,37.903011,5692.5459936,-4.792,-83.686,4.284
10.3372,128.18188,37.903008,5687.9057184,-4.539,-83.49,4.013
10.3539,128.181881,37.903004,5683.2642240000005,-4.294,-83.294,3.75
10.3707,128.181882,37.903001,5678.6215104,-4.057,-83.097,3.495
10.3874,128.181883,37.902998,5673.9778824,-3.827,-82.901,3.249
10.4041,128.181884,37.902996,5669.3330352,-3.605,-82.705,3.009
10.4208,128.181885,37.902993,5664.686968800001,-3.391,-82.508,2.778
10.4375,128.181885,37.902991,5660.0402928,-3.184,-82.312,2.555
10.4542,128.181886,37.902988,5655.392397600001,-2.985,-82.115,2.34
10.4709,128.181887,37.902986,5650.743892800001,-2.794,-81.918,2.133
10.4876,128.181888,37.902984,5646.0944736,-2.611,-81.721,1.935
10.5042,128.181889,37.902982,5641.4444448,-2.436,-81.524,1.745
10.5209,128.18189,37.90298,5636.793501600001,-2.269,-81.327,1.563
10.5376,128.181891,37.902979,5632.1422536,-2.11,-81.133,1.392
10.5544,128.181891,37.902977,5627.4900912,-1.961,-80.944,1.23
10.5711,128.181892,37.902976,5622.837319200001,-1.821,-80.763,1.078
10.5878,128.181893,37.902975,5618.183937600001,-1.69,-80.592,0.937
10.6045,128.181894,37.902974,5613.530251200001,-1.57,-80.431,0.807
10.6212,128.181895,37.902973,5608.8759552,-1.462,-80.28,0.69
10.6379,128.181895,37.902972,5604.221354400001,-1.365,-80.138,0.584
10.6546,128.181896,37.902971,5599.566144,-1.281,-80.007,0.491
10.6713,128.181897,37.902971,5594.9106288,-1.209,-79.884,0.411
10.6879,128.181898,37.90297,5590.2548088,-1.152,-79.77,0.346
10.7046,128.181899,37.90297,5585.5986840000005,-1.109,-79.663,0.295
10.7213,128.181899,37.90297,5580.942559200001,-1.081,-79.563,0.259
10.7381,128.1819,37.90297,5576.285824800001,-1.068,-79.469,0.238
10.7548,128.181901,37.90297,5571.6287856,-1.069,-79.38,0.232
10.7715,128.181902,37.90297,5566.9717464000005,-1.086,-79.296,0.24
10.7882,128.181902,37.902971,5562.3140976,-1.116,-79.217,0.264
10.8049,128.181903,37.902971,5557.6567536,-1.16,-79.141,0.301
10.8216,128.181904,37.902972,5552.9988,-1.216,-79.07,0.351
10.8383,128.181905,37.902973,5548.3408464,-1.283,-79.001,0.413
10.855,128.181905,37.902974,5543.682588000001,-1.36,-78.936,0.487
10.8717,128.181906,37.902975,5539.0243296,-1.446,-78.874,0.569
10.8883,128.181907,37.902976,5534.3660712,-1.539,-78.814,0.659
10.905,128.181908,37.902977,5529.707508,-1.637,-78.757,0.755
10.9218,128.181908,37.902979,5525.049249600001,-1.738,-78.702,0.853
10.9385,128.181909,37.90298,5520.3906864,-1.841,-78.649,0.953
10.9552,128.18191,37.902982,5515.7321232,-1.944,-78.598,1.049
10.9719,128.181911,37.902984,5511.073864800001,-2.045,-78.549,1.14
10.9886,128.181911,37.902985,5506.415606400001,-2.147,-78.502,1.222
11.0053,128.181912,37.902987,5501.757348,-2.248,-78.458,1.294
11.022,128.181913,37.90299,5497.0996992,-2.35,-78.415,1.355
11.0387,128.181913,37.902992,5492.442355200001,-2.454,-78.374,1.401
11.0554,128.181914,37.902994,5487.785011200001,-2.56,-78.334,1.431
11.072,128.181915,37.902997,5483.1285816,-2.67,-78.295,1.445
11.0887,128.181916,37.902999,5478.472152000001,-2.783,-78.257,1.439
11.1054,128.181916,37.903002,5473.816332,-2.898,-78.219,1.415
11.1222,128.181917,37.903005,5469.1608168,-3.016,-78.181,1.371
11.1389,128.181918,37.903008,5464.505911200001,-3.136,-78.143,1.307
11.1556,128.181918,37.903011,5459.8510056000005,-3.254,-78.105,1.225
11.1723,128.181919,37.903014,5455.196709600001,-3.37,-78.066,1.127
11.189,128.18192,37.903018,5450.5424136,-3.48,-78.026,1.013
11.2057,128.18192,37.903021,5445.8881176,-3.582,-77.985,0.887
11.2224,128.181921,37.903025,5441.2338216,-3.672,-77.942,0.751
11.2391,128.181922,37.903028,5436.5795256,-3.748,-77.897,0.608
11.2557,128.181922,37.903032,5431.924924800001,-3.807,-77.851,0.461
11.2724,128.181923,37.903036,5427.2700192,-3.851,-77.802,0.314
11.2891,128.181924,37.90304,5422.6151136,-3.88,-77.751,0.172
11.3059,128.181924,37.903044,5417.9595984,-3.896,-77.697,0.037
11.3226,128.181925,37.903048,5413.303778400001,-3.903,-77.642,359.913
11.3393,128.181925,37.903052,5408.6479584,-3.904,-77.585,359.801
11.356,128.181926,37.903056,5403.9915288,-3.904,-77.528,359.702
11.3727,128.181927,37.90306,5399.3350992000005,-3.905,-77.471,359.619
11.3894,128.181927,37.903065,5394.67806,-3.909,-77.418,359.555
11.4061,128.181928,37.903069,5390.020411200001,-3.922,-77.382,359.515
11.4228,128.181928,37.903074,5385.361848,-3.941,-77.364,359.503
11.4394,128.181929,37.903078,5380.70298,-3.966,-77.361,359.517
11.4561,128.181929,37.903083,5376.0435024,-3.993,-77.368,359.556
11.4728,128.18193,37.903088,5371.383415200001,-4.021,-77.382,359.618
11.4896,128.18193,37.903093,5366.7227184,-4.049,-77.398,359.699
11.5063,128.181931,37.903098,5362.0617168,-4.077,-77.414,359.792
11.523,128.181931,37.903103,5357.4007152,-4.103,-77.428,359.892
11.5397,128.181932,37.903108,5352.739104,-4.129,-77.438,359.993
11.5564,128.181932,37.903113,5348.077492800001,-4.151,-77.443,0.088
11.5731,128.181933,37.903118,5343.4158816,-4.169,-77.442,0.173
11.5898,128.181933,37.903124,5338.753965600001,-4.181,-77.436,0.247
11.6065,128.181934,37.903129,5334.0920496,-4.185,-77.424,0.307
11.6231,128.181934,37.903135,5329.429828800001,-4.18,-77.409,0.353
11.6398,128.181935,37.90314,5324.7673032,-4.166,-77.39,0.384
11.6565,128.181935,37.903146,5320.104168,-4.151,-77.384,0.405
11.6733,128.181936,37.903152,5315.4410328,-4.137,-77.394,0.418
11.69,128.181936,37.903157,5310.777592800001,-4.125,-77.417,0.422
11.7067,128.181936,37.903163,5306.113848,-4.117,-77.448,0.418
11.7234,128.181937,37.903169,5301.4497984,-4.113,-77.483,0.407
11.7401,128.181937,37.903175,5296.785444,-4.112,-77.519,0.389
11.7568,128.181938,37.903181,5292.12048,-4.117,-77.553,0.369
11.7735,128.181938,37.903187,5287.455211200001,-4.126,-77.583,0.347
11.7902,128.181938,37.903194,5282.789332800001,-4.139,-77.608,0.327
11.8068,128.181939,37.9032,5278.1231496,-4.155,-77.628,0.309
11.8235,128.181939,37.903206,5273.456356800001,-4.174,-77.642,0.293
11.8402,128.18194,37.903213,5268.7886496,-4.195,-77.65,0.282
11.857,128.18194,37.903219,5264.120637600001,-4.215,-77.653,0.271
11.8737,128.18194,37.903226,5259.452016,-4.235,-77.652,0.262
11.8904,128.181941,37.903232,5254.7827848,-4.253,-77.646,0.253
11.9071,128.181941,37.903239,5250.1126392,-4.269,-77.637,0.246
11.9238,128.181941,37.903245,5245.4421888,-4.283,-77.625,0.238
11.9405,128.181942,37.903252,5240.770824,-4.295,-77.611,0.232
11.9572,128.181942,37.903259,5236.0991544,-4.304,-77.595,0.225
11.9739,128.181942,37.903266,5231.426570400001,-4.311,-77.578,0.218
11.9905,128.181943,37.903273,5226.7533768,-4.316,-77.56,0.211
12.0072,128.181943,37.90328,5222.079573600001,-4.319,-77.541,0.203
12.0239,128.181943,37.903287,5217.404856000001,-4.32,-77.522,0.196
12.0407,128.181944,37.903294,5212.7295288000005,-4.32,-77.503,0.188
12.0574,128.181944,37.903301,5208.053896800001,-4.319,-77.484,0.181
12.0741,128.181944,37.903308,5203.3770456,-4.317,-77.466,0.173
12.0908,128.181945,37.903315,5198.6998896,-4.314,-77.447,0.165
12.1075,128.181945,37.903322,5194.0218192,-4.311,-77.43,0.157
12.1242,128.181945,37.90333,5189.3431392,-4.308,-77.412,0.15
12.1409,128.181946,37.903337,5184.6638496000005,-4.304,-77.396,0.142
12.1576,128.181946,37.903344,5179.9836456,-4.301,-77.379,0.135
12.1743,128.181946,37.903352,5175.302832,-4.297,-77.363,0.128
12.1909,128.181946,37.903359,5170.621408800001,-4.293,-77.348,0.121
12.2076,128.181947,37.903367,5165.9390711999995,-4.289,-77.333,0.115
12.2243,128.181947,37.903375,5161.256124,-4.285,-77.318,0.109
12.2411,128.181947,37.903382,5156.5722624,-4.281,-77.303,0.103
12.2578,128.181947,37.90339,5151.887791200001,-4.277,-77.289,0.097
12.2745,128.181948,37.903398,5147.202710400001,-4.273,-77.275,0.091
12.2912,128.181948,37.903405,5142.5167152,-4.269,-77.261,0.085
12.3079,128.181948,37.903413,5137.8298056,-4.265,-77.247,0.08
12.3246,128.181948,37.903421,5133.142286400001,-4.26,-77.234,0.074
12.3413,128.181949,37.903429,5128.4538528,-4.256,-77.221,0.069
12.358,128.181949,37.903437,5123.7648096,-4.252,-77.208,0.064
12.3746,128.181949,37.903445,5119.074852000001,-4.248,-77.195,0.059
12.3913,128.181949,37.903453,5114.38398,-4.243,-77.183,0.054
12.408,128.18195,37.903461,5109.6924984,-4.239,-77.17,0.05
12.4248,128.18195,37.903469,5105.000102399999,-4.235,-77.158,0.045
12.4415,128.18195,37.903477,5100.306792,-4.23,-77.146,0.04
12.4582,128.18195,37.903485,5095.6125672,-4.226,-77.135,0.036
12.4749,128.18195,37.903494,5090.9177328000005,-4.222,-77.123,0.031
12.4916,128.181951,37.903502,5086.221984000001,-4.218,-77.112,0.027
12.5083,128.181951,37.90351,5081.5253207999995,-4.214,-77.1,0.023
12.525,128.181951,37.903519,5076.828047999999,-4.209,-77.089,0.019
12.5417,128.181951,37.903527,5072.129556000001,-4.205,-77.078,0.014
12.5583,128.181951,37.903535,5067.430454400001,-4.201,-77.068,0.01
12.575,128.181952,37.903544,5062.730133600001,-4.197,-77.057,0.006
12.5917,128.181952,37.903552,5058.0292032,-4.193,-77.046,0.002
12.6085,128.181952,37.903561,5053.3273584,-4.189,-77.036,359.999
12.6252,128.181952,37.903569,5048.6242944,-4.185,-77.025,359.995
12.6419,128.181952,37.903578,5043.9206208,-4.181,-77.015,359.991
12.6586,128.181952,37.903587,5039.216032800001,-4.177,-77.005,359.987
12.6753,128.181953,37.903595,5034.5105304,-4.173,-76.995,359.984
12.692,128.181953,37.903604,5029.8038088,-4.169,-76.985,359.98
12.7087,128.181953,37.903613,5025.0964776,-4.165,-76.975,359.977
12.7254,128.181953,37.903622,5020.3879272,-4.162,-76.966,359.973
12.742,128.181953,37.90363,5015.6784624,-4.158,-76.956,359.97
12.7587,128.181953,37.903639,5010.9680832,-4.154,-76.947,359.966
12.7754,128.181953,37.903648,5006.2567896,-4.151,-76.938,359.963
12.7922,128.181953,37.903657,5001.5445816,-4.147,-76.929,359.959
12.8089,128.181954,37.903666,4996.8311544,-4.144,-76.92,359.956
12.8256,128.181954,37.903675,4992.1168128,-4.14,-76.911,359.953
12.8423,128.181954,37.903684,4987.4015568,-4.137,-76.903,359.95
12.859,128.181954,37.903693,4982.6853864,-4.133,-76.895,359.945
12.8757,128.181954,37.903702,4977.9679968,-4.129,-76.887,359.939
12.8924,128.181954,37.903711,4973.2499976,-4.126,-76.879,359.931
12.9091,128.181954,37.90372,4968.5307792,-4.124,-76.872,359.923
12.9257,128.181954,37.90373,4963.8103416,-4.124,-76.864,359.916
12.9424,128.181955,37.903739,4959.088989600001,-4.124,-76.857,359.909
12.9591,128.181955,37.903748,4954.366723200001,-4.126,-76.85,359.903
12.9759,128.181955,37.903757,4949.6435424,-4.129,-76.842,359.897
12.9926,128.181955,37.903767,4944.9188376,-4.133,-76.835,359.892
13.0093,128.181955,37.903776,4940.1935232000005,-4.137,-76.828,359.888
13.026,128.181955,37.903785,4935.4669896000005,-4.14,-76.82,359.884
13.0427,128.181955,37.903795,4930.7392368,-4.144,-76.813,359.88
13.0594,128.181955,37.903804,4926.0102648,-4.147,-76.805,359.876
13.0761,128.181955,37.903813,4921.2806832,-4.15,-76.798,359.873
13.0928,128.181955,37.903823,4916.549577600001,-4.153,-76.79,359.869
13.1095,128.181955,37.903832,4911.8175576,-4.155,-76.783,359.866
13.1262,128.181955,37.903842,4907.0843184000005,-4.157,-76.776,359.862
13.1429,128.181955,37.903851,4902.34986,-4.158,-76.769,359.859
13.1596,128.181956,37.903861,4897.6144872,-4.16,-76.762,359.856
13.1763,128.181956,37.90387,4892.8778952,-4.161,-76.755,359.852
13.193,128.181956,37.90388,4888.140084000001,-4.162,-76.748,359.849
13.2097,128.181956,37.90389,4883.4013584,-4.163,-76.742,359.846
13.2264,128.181956,37.903899,4878.6614136,-4.164,-76.735,359.843
13.2431,128.181956,37.903909,4873.9202496,-4.165,-76.729,359.84
13.2598,128.181956,37.903919,4869.1778664,-4.166,-76.723,359.837
13.2765,128.181956,37.903928,4864.434264,-4.167,-76.717,359.834
13.2932,128.181956,37.903938,4859.6897472,-4.167,-76.71,359.831
13.3099,128.181956,37.903948,4854.9437064,-4.168,-76.704,359.828
13.3266,128.181956,37.903958,4850.1967512,-4.169,-76.698,359.825
13.3433,128.181956,37.903968,4845.4485768,-4.169,-76.692,359.823
13.36,128.181956,37.903977,4840.6991832,-4.17,-76.687,359.82
13.3767,128.181956,37.903987,4835.9485704,-4.17,-76.681,359.817
13.3934,128.181956,37.903997,4831.1967384,-4.171,-76.675,359.815
13.4101,128.181956,37.904007,4826.443687200001,-4.171,-76.67,359.812
13.4268,128.181956,37.904017,4821.689416800001,-4.172,-76.664,359.809
13.4435,128.181956,37.904027,4816.933927200001,-4.172,-76.659,359.807
13.4602,128.181956,37.904037,4812.1772184,-4.173,-76.653,359.804
13.4769,128.181956,37.904047,4807.4192904,-4.173,-76.648,359.802
13.4936,128.181956,37.904057,4802.660143200001,-4.174,-76.643,359.8
13.5103,128.181956,37.904067,4797.8997768,-4.174,-76.637,359.797
13.527,128.181956,37.904077,4793.1378864,-4.175,-76.632,359.795
13.5437,128.181956,37.904087,4788.3750816,-4.175,-76.627,359.792
13.5604,128.181956,37.904097,4783.6110576,-4.176,-76.622,359.79
13.5771,128.181956,37.904107,4778.845509600001,-4.177,-76.617,359.788
13.5938,128.181956,37.904118,4774.0787424,-4.177,-76.612,359.785
13.6105,128.181956,37.904128,4769.310756,-4.178,-76.607,359.783
13.6272,128.181956,37.904138,4764.5415504,-4.179,-76.603,359.781
13.6439,128.181956,37.904148,4759.7711256,-4.18,-76.598,359.779
13.6606,128.181956,37.904158,4754.9991768,-4.18,-76.594,359.776
13.6773,128.181956,37.904169,4750.2260088,-4.181,-76.589,359.774
13.694,128.181956,37.904179,4745.4516216,-4.182,-76.585,359.772
13.7107,128.181956,37.904189,4740.6760152,-4.183,-76.58,359.77
13.7274,128.181956,37.904199,4735.899189600001,-4.184,-76.576,359.768
13.7441,128.181956,37.90421,4731.12084,-4.186,-76.572,359.766
13.7608,128.181956,37.90422,4726.341271200001,-4.187,-76.568,359.764
13.7775,128.181956,37.90423,4721.560178400001,-4.188,-76.563,359.762
13.7942,128.181956,37.904241,4716.7781712000005,-4.189,-76.559,359.76
13.8109,128.181956,37.904251,4711.99464,-4.191,-76.556,359.758
13.8276,128.181956,37.904262,4707.209889600001,-4.192,-76.552,359.756
13.8443,128.181956,37.904272,4702.4236152,-4.194,-76.548,359.754
13.861,128.181956,37.904282,4697.6361216,-4.195,-76.544,359.752
13.8777,128.181956,37.904293,4692.8474088,-4.197,-76.541,359.751
13.8944,128.181956,37.904303,4688.057172,-4.199,-76.537,359.749
13.9111,128.181956,37.904314,4683.266020800001,-4.201,-76.534,359.747
13.9278,128.181956,37.904324,4678.4730408000005,-4.202,-76.531,359.745
13.9445,128.181956,37.904335,4673.679146400001,-4.204,-76.528,359.743
13.9612,128.181956,37.904345,4668.883728000001,-4.207,-76.525,359.742
13.9779,128.181956,37.904356,4664.0870904,-4.209,-76.521,359.74
13.9946,128.181956,37.904366,4659.2889288,-4.211,-76.518,359.738
14.0113,128.181956,37.904377,4654.4898528,-4.213,-76.515,359.736
14.028,128.181956,37.904388,4649.688948,-4.216,-76.512,359.735
14.0447,128.181956,37.904398,4644.8871288,-4.218,-76.509,359.733
14.0614,128.181956,37.904409,4640.0837856,-4.221,-76.506,359.731
14.0781,128.181955,37.904419,4635.2789184,-4.224,-76.503,359.73
14.0948,128.181955,37.90443,4630.472832,-4.226,-76.501,359.728
14.1115,128.181955,37.904441,4625.6655264,-4.229,-76.498,359.726
14.1282,128.181955,37.904451,4620.8570016,-4.232,-76.495,359.725
14.1449,128.181955,37.904462,4616.0469528,-4.235,-76.492,359.723
14.1616,128.181955,37.904473,4611.23538,-4.238,-76.49,359.722
14.1783,128.181955,37.904484,4606.422588,-4.241,-76.487,359.72
14.195,128.181955,37.904494,4601.6085768,-4.245,-76.484,359.718
14.2117,128.181955,37.904505,4596.793041600001,-4.248,-76.481,359.717
14.2284,128.181955,37.904516,4591.9762872,-4.251,-76.479,359.715
14.2451,128.181955,37.904527,4587.1583136,-4.255,-76.476,359.714
14.2618,128.181955,37.904537,4582.338816,-4.259,-76.474,359.712
14.2785,128.181955,37.904548,4577.5177944,-4.263,-76.471,359.71
14.2952,128.181955,37.904559,4572.6958584,-4.267,-76.469,359.709
14.3119,128.181955,37.90457,4567.8720936,-4.271,-76.466,359.707
14.3286,128.181954,37.904581,4563.0474144,-4.275,-76.464,359.706
14.3453,128.181954,37.904591,4558.2209064,-4.279,-76.462,359.704
14.362,128.181954,37.904602,4553.393484,-4.284,-76.46,359.702
14.3787,128.181954,37.904613,4548.5645376,-4.289,-76.457,359.701
14.3954,128.181954,37.904624,4543.7340672,-4.294,-76.455,359.699
14.4121,128.181954,37.904635,4538.9023776,-4.299,-76.453,359.698
14.4288,128.181954,37.904646,4534.0694688,-4.304,-76.451,359.696
14.4455,128.181954,37.904657,4529.235036,-4.309,-76.449,359.695
14.4622,128.181954,37.904668,4524.3990792,-4.315,-76.446,359.693
14.4789,128.181954,37.904679,4519.5619032,-4.32,-76.445,359.692
14.4956,128.181954,37.90469,4514.723508,-4.326,-76.443,359.69
14.5123,128.181953,37.904701,4509.8835888,-4.332,-76.44,359.689
14.529,128.181953,37.904712,4505.0424504,-4.339,-76.438,359.687
14.5457,128.181953,37.904723,4500.199788,-4.345,-76.436,359.686
14.5624,128.181953,37.904734,4495.3556016,-4.351,-76.434,359.687
14.5791,128.181953,37.904745,4490.510196,-4.357,-76.433,359.69
14.5958,128.181953,37.904756,4485.663266400001,-4.362,-76.431,359.695
14.6125,128.181953,37.904767,4480.8148128,-4.364,-76.429,359.7
14.6292,128.181953,37.904778,4475.96514,-4.363,-76.428,359.704
14.6459,128.181953,37.904789,4471.1139432,-4.36,-76.426,359.707
14.6626,128.181953,37.9048,4466.2615272,-4.356,-76.424,359.709
14.6793,128.181952,37.904811,4461.4075872,-4.351,-76.422,359.71
14.696,128.181952,37.904822,4456.552428,-4.346,-76.42,359.71
14.7127,128.181952,37.904833,4451.6957448,-4.341,-76.418,359.709
14.7294,128.181952,37.904844,4446.8375376,-4.337,-76.416,359.709
14.7461,128.181952,37.904855,4441.9781112,-4.333,-76.414,359.708
14.7628,128.181952,37.904866,4437.1174656,-4.33,-76.413,359.708
14.7795,128.181952,37.904877,4432.255296,-4.327,-76.411,359.707
14.7962,128.181952,37.904889,4427.3919072,-4.325,-76.409,359.707
14.8129,128.181952,37.9049,4422.5269944,-4.323,-76.407,359.707
14.8296,128.181951,37.904911,4417.6605576,-4.321,-76.406,359.706
14.8463,128.181951,37.904922,4412.7929016,-4.32,-76.404,359.706
14.863,128.181951,37.904933,4407.9237216,-4.318,-76.403,359.706
14.8797,128.181951,37.904944,4403.0533224,-4.317,-76.401,359.705
14.8964,128.181951,37.904956,4398.1813992,-4.316,-76.4,359.704
14.9131,128.181951,37.904967,4393.3082568,-4.316,-76.399,359.704
14.9298,128.181951,37.904978,4388.4338952,-4.317,-76.397,359.702
14.9465,128.181951,37.904989,4383.5580096,-4.319,-76.396,359.701
14.9632,128.18195,37.905,4378.680600000001,-4.323,-76.395,359.699
14.9799,128.18195,37.905012,4373.8019712000005,-4.327,-76.394,359.697
14.9966,128.18195,37.905023,4368.9218184,-4.334,-76.393,359.696
15.0133,128.18195,37.905034,4364.0404464,-4.34,-76.391,359.695
15.03,128.18195,37.905045,4359.1575504,-4.345,-76.39,359.695
15.0467,128.18195,37.905057,4354.273130400001,-4.35,-76.388,359.696
15.0634,128.18195,37.905068,4349.3874912,-4.353,-76.386,359.696
15.0801,128.18195,37.905079,4344.500632800001,-4.355,-76.384,359.696
15.0968,128.181949,37.905091,4339.611945600001,-4.356,-76.382,359.696
15.1135,128.181949,37.905102,4334.7220392,-4.356,-76.379,359.695
15.1302,128.181949,37.905113,4329.8309136,-4.356,-76.377,359.694
15.1469,128.181949,37.905124,4324.938264,-4.355,-76.374,359.693
15.1636,128.181949,37.905136,4320.0440904,-4.353,-76.371,359.691
15.1803,128.181949,37.905147,4315.148697600001,-4.351,-76.368,359.69
15.197,128.181949,37.905158,4310.2520856,-4.35,-76.365,359.688
15.2137,128.181948,37.90517,4305.3536448,-4.348,-76.362,359.686
15.2304,128.181948,37.905181,4300.4542896,-4.346,-76.359,359.684
