Time,Longitude,Latitude,Altitude,Roll (deg),Pitch (deg),Yaw (deg)
0.0,128.181881,37.968463,7002.830292000001,0.0,-0.003,179.999
0.0167,128.181881,37.968418,7002.8116992000005,0.0,-0.012,180.0
0.0334,128.181881,37.968374,7002.7912776,0.087,-0.026,180.011
0.0501,128.181881,37.968329,7002.7690272,0.258,-0.042,180.034
0.0668,128.181881,37.968284,7002.746776800001,0.342,-0.048,180.041
0.0834,128.181881,37.968239,7002.7245264,0.347,-0.029,180.029
0.1002,128.181881,37.968194,7002.7031904000005,0.266,0.026,180.005
0.1169,128.181881,37.968149,7002.6830736,0.095,0.132,179.973
0.1336,128.181881,37.968104,7002.665395200001,-0.169,0.3,179.938
0.1503,128.181881,37.968059,7002.6510696000005,-0.527,0.536,179.901
0.1669,128.181881,37.968014,7002.6379632,-0.802,0.83,179.885
0.1837,128.181881,37.967969,7002.6272952,-0.996,1.168,179.891
0.2004,128.181881,37.967924,7002.6181512,-1.099,1.534,179.912
0.2171,128.181881,37.967879,7002.611140800001,-1.106,1.912,179.939
0.2338,128.181881,37.967834,7002.6059592,-1.013,2.286,179.971
0.2505,128.181881,37.967789,7002.602301600001,-0.82,2.639,180.003
0.2672,128.181881,37.967744,7002.600168,-0.531,2.957,180.037
0.2839,128.181881,37.967699,7002.601996800001,-0.321,3.251,180.048
0.3006,128.181881,37.967654,7002.607788000001,-0.189,3.533,180.037
0.3172,128.181881,37.967609,7002.618456000001,-0.143,3.817,180.012
0.3339,128.181881,37.967564,7002.6346104,-0.19,4.113,179.979
0.3507,128.181881,37.967519,7002.657470400001,-0.331,4.435,179.942
0.3674,128.181881,37.967474,7002.6876456,-0.568,4.786,179.903
0.3841,128.181881,37.967429,7002.7230024,-0.726,5.149,179.885
0.4008,128.181881,37.967384,7002.764760000001,-0.808,5.51,179.888
0.4175,128.181881,37.967339,7002.8123088,-0.807,5.853,179.906
0.4342,128.181881,37.967294,7002.865344,-0.716,6.162,179.933
0.4509,128.181881,37.967249,7002.923256000001,-0.534,6.423,179.964
0.4676,128.181881,37.967204,7002.9860448,-0.26,6.62,179.998
0.4843,128.181881,37.967159,7003.0524912,0.1,6.739,180.034
0.501,128.181881,37.967114,7003.125338400001,0.381,6.795,180.048
0.5176,128.181881,37.967069,7003.203672000001,0.583,6.801,180.041
0.5344,128.181881,37.967024,7003.2877968,0.699,6.774,180.019
0.5511,128.181881,37.966979,7003.378627200001,0.725,6.727,179.99
0.5678,128.181881,37.966934,7003.476468000001,0.657,6.675,179.956
0.5845,128.181881,37.96689,7003.5779664,0.664,6.606,179.942
0.6012,128.181881,37.966845,7003.6843416,0.741,6.506,179.948
0.6179,128.181881,37.9668,7003.7940696000005,0.897,6.372,179.967
0.6345,128.181881,37.966755,7003.9074552,1.136,6.215,179.995
0.6513,128.181881,37.96671,7004.023279200001,1.461,6.044,180.026
0.6679,128.181881,37.966665,7004.140932,1.874,5.866,180.059
0.6847,128.181881,37.96662,7004.2604136,2.372,5.686,180.092
0.7014,128.181881,37.966575,7004.3805048,2.955,5.507,180.124
0.7181,128.181881,37.96653,7004.500900800001,3.62,5.331,180.155
0.7348,128.181881,37.966484,7004.620992000001,4.365,5.16,180.184
0.7514,128.181881,37.966439,7004.741388,5.187,4.993,180.212
0.7682,128.181881,37.966394,7004.861174400001,6.085,4.832,180.238
0.7848,128.181881,37.966349,7004.980656000001,7.057,4.676,180.262
0.8016,128.181881,37.966304,7005.099528000001,8.099,4.526,180.285
0.8183,128.181881,37.966259,7005.2190096,9.037,4.398,180.286
0.835,128.181881,37.966214,7005.339100800001,9.876,4.308,180.269
0.8517,128.181881,37.966169,7005.460716,10.608,4.265,180.245
0.8684,128.181881,37.966124,7005.5838552000005,11.228,4.279,180.222
0.8851,128.181881,37.966079,7005.710042400001,11.735,4.359,180.206
0.9018,128.181881,37.966034,7005.839582400001,12.129,4.511,180.205
0.9185,128.181881,37.965989,7005.970646400001,12.585,4.72,180.239
0.9352,128.18188,37.965944,7006.1044536,13.102,4.974,180.308
0.9519,128.18188,37.965899,7006.2400896,13.687,5.263,180.401
0.9686,128.18188,37.965854,7006.3775544,14.346,5.573,180.512
0.9853,128.18188,37.965808,7006.516848,15.083,5.891,180.632
1.002,128.18188,37.965763,7006.6579704000005,15.897,6.202,180.756
1.0187,128.18188,37.965718,7006.8012264,16.787,6.49,180.879
1.0353,128.18188,37.965673,7006.946616,17.748,6.741,180.996
1.0521,128.18188,37.965628,7007.0941391999995,18.779,6.941,181.101
1.0688,128.181879,37.965583,7007.243491200001,19.875,7.075,181.188
1.0855,128.181879,37.965538,7007.3940624,21.032,7.131,181.251
1.1022,128.181879,37.965493,7007.5461576,22.249,7.1,181.283
1.1189,128.181879,37.965447,7007.6997768,23.524,6.998,181.289
1.1356,128.181879,37.965402,7007.854310400001,24.856,6.84,181.271
1.1522,128.181878,37.965357,7008.0097584000005,26.247,6.641,181.235
1.169,128.181878,37.965312,7008.165816,27.698,6.417,181.185
1.1857,128.181878,37.965267,7008.322178400001,29.209,6.181,181.127
1.2024,128.181877,37.965222,7008.478845600001,30.781,5.95,181.068
1.2191,128.181877,37.965176,7008.6355128000005,32.416,5.734,181.013
1.2358,128.181877,37.965131,7008.791570400001,34.113,5.535,180.964
1.2525,128.181876,37.965086,7008.9473232,35.871,5.351,180.919
1.2691,128.181876,37.965041,7009.1021616,37.69,5.179,180.877
1.2859,128.181876,37.964995,7009.2560856,39.567,5.019,180.837
1.3026,128.181875,37.96495,7009.4084856,41.502,4.867,180.798
1.3193,128.181875,37.964905,7009.5596663999995,43.493,4.725,180.76
1.3359,128.181874,37.96486,7009.7096280000005,45.363,4.615,180.718
1.3527,128.181874,37.964814,7009.8586752,47.122,4.55,180.685
1.3694,128.181874,37.964769,7010.0074176,48.761,4.532,180.676
1.386,128.181873,37.964724,7010.156769600001,50.278,4.56,180.704
1.4028,128.181872,37.964679,7010.3067312,51.67,4.636,180.783
1.4195,128.181872,37.964633,7010.4576072,52.94,4.761,180.923
1.4362,128.181871,37.964588,7010.610312,54.09,4.934,181.129
1.4528,128.181871,37.964543,7010.764540800001,55.124,5.146,181.396
1.4696,128.18187,37.964498,7010.9209032,56.043,5.386,181.713
1.4863,128.181869,37.964452,7011.0800088000005,56.853,5.647,182.073
1.5029,128.181868,37.964407,7011.2418576,57.556,5.922,182.466
1.5197,128.181867,37.964362,7011.4067544,58.156,6.199,182.878
1.5364,128.181866,37.964317,7011.575004,58.654,6.472,183.295
1.5531,128.181865,37.964271,7011.7475208,59.224,6.712,183.716
1.5697,128.181864,37.964226,7011.922476,59.861,6.911,184.125
1.5865,128.181862,37.964181,7012.100479200001,60.571,7.069,184.504
1.6032,128.181861,37.964136,7012.280311200001,61.359,7.183,184.835
1.6198,128.181859,37.96409,7012.4622768,62.225,7.25,185.102
1.6366,128.181858,37.964045,7012.6454616,63.166,7.269,185.29
1.6533,128.181856,37.964,7012.829560800001,64.178,7.234,185.383
1.67,128.181855,37.963955,7013.0142696,65.262,7.153,185.386
1.6867,128.181853,37.96391,7013.1992832000005,66.417,7.034,185.314
1.7034,128.181851,37.963864,7013.384296800001,67.645,6.888,185.178
1.7201,128.181849,37.963819,7013.568396000001,68.938,6.723,184.995
1.7368,128.181847,37.963774,7013.7521904000005,70.294,6.548,184.778
1.7535,128.181846,37.963729,7013.935070400001,71.708,6.371,184.542
1.7702,128.181844,37.963683,7014.117036000001,73.178,6.199,184.304
1.7869,128.181842,37.963638,7014.298087200001,74.704,6.037,184.077
1.8036,128.18184,37.963593,7014.4779192000005,76.285,5.89,183.878
1.8203,128.181838,37.963547,7014.6562272,77.919,5.757,183.709
1.837,128.181836,37.963502,7014.833011200001,79.605,5.635,183.563
1.8537,128.181833,37.963457,7015.0082712,81.339,5.524,183.437
1.8704,128.181831,37.963411,7015.1817024,83.118,5.421,183.325
1.8871,128.181829,37.963366,7015.353304800001,84.938,5.326,183.224
1.9038,128.181827,37.963321,7015.5233832,86.799,5.237,183.133
1.9205,128.181825,37.963275,7015.691328000001,88.695,5.154,183.05
1.9372,128.181823,37.96323,7015.8577488,90.626,5.075,182.974
1.9539,128.181821,37.963185,7016.022036,92.588,5.0,182.904
1.9706,128.181818,37.963139,7016.1844944,94.581,4.929,182.84
1.9873,128.181816,37.963094,7016.3448192000005,96.602,4.861,182.781
2.004,128.181814,37.963048,7016.5033152000005,98.649,4.796,182.727
2.0207,128.181812,37.963003,7016.6602872,100.722,4.734,182.677
2.0374,128.18181,37.962958,7016.8151256,102.819,4.673,182.632
2.0541,128.181807,37.962912,7016.9681352,104.938,4.615,182.591
2.0707,128.181805,37.962867,7017.119316,107.077,4.558,182.553
2.0875,128.181803,37.962821,7017.268668000001,109.237,4.502,182.518
2.1042,128.181801,37.962776,7017.416496000001,111.415,4.448,182.486
2.1208,128.181799,37.96273,7017.562495200001,113.611,4.394,182.457
2.1376,128.181796,37.962685,7017.7069704000005,115.822,4.341,182.43
2.1543,128.181794,37.962639,7017.8499216,118.047,4.289,182.406
2.171,128.181792,37.962594,7017.9913488,120.285,4.237,182.383
2.1877,128.18179,37.962548,7018.131252000001,122.532,4.185,182.363
2.2044,128.181788,37.962503,7018.2696312,124.788,4.134,182.344
2.2211,128.181785,37.962457,7018.4067912,127.051,4.084,182.327
2.2378,128.181783,37.962412,7018.542732000001,129.32,4.033,182.311
2.2544,128.181781,37.962366,7018.6771488,131.593,3.983,182.296
2.2712,128.181779,37.96232,7018.8106512,133.869,3.932,182.282
2.2879,128.181777,37.962275,7018.9429344,136.149,3.882,182.269
2.3045,128.181775,37.962229,7019.074608,138.432,3.831,182.257
2.3213,128.181773,37.962184,7019.2050624,140.718,3.781,182.244
2.338,128.181771,37.962138,7019.3346024,143.008,3.73,182.232
2.3546,128.181768,37.962092,7019.4638376,145.303,3.68,182.219
2.3714,128.181766,37.962047,7019.592463200001,147.604,3.629,182.206
2.3881,128.181764,37.962001,7019.720479200001,149.912,3.579,182.193
2.4048,128.181762,37.961955,7019.8481904,152.23,3.529,182.178
2.4215,128.18176,37.96191,7019.975596800001,154.558,3.48,182.163
2.4382,128.181758,37.961864,7020.103308,156.9,3.431,182.147
2.4549,128.181756,37.961818,7020.230714400001,159.256,3.383,182.13
2.4716,128.181754,37.961772,7020.3587304,161.631,3.336,182.112
2.4882,128.181752,37.961727,7020.486746400001,164.025,3.29,182.092
2.505,128.18175,37.961681,7020.6150672,166.442,3.245,182.071
2.5217,128.181748,37.961635,7020.7443023999995,168.883,3.202,182.049
2.5383,128.181746,37.961589,7020.8738424,171.351,3.16,182.026
2.5551,128.181744,37.961543,7021.004296800001,173.844,3.12,182.002
2.5718,128.181742,37.961498,7021.1347512,176.363,3.082,181.977
2.5884,128.18174,37.961452,7021.266120000001,178.903,3.047,181.952
2.6052,128.181738,37.961406,7021.3974888,-178.536,3.013,181.927
2.6219,128.181736,37.96136,7021.5294672,-175.957,2.982,181.902
2.6386,128.181734,37.961314,7021.661445600001,-173.363,2.953,181.877
2.6553,128.181732,37.961268,7021.7937288,-170.755,2.927,181.852
2.6719,128.18173,37.961222,7021.9263168,-168.135,2.903,181.828
2.6887,128.181728,37.961177,7022.0586,-165.506,2.882,181.804
2.7054,128.181726,37.961131,7022.191188000001,-162.868,2.863,181.781
2.722,128.181724,37.961085,7022.3231663999995,-160.224,2.846,181.759
2.7388,128.181722,37.961039,7022.4551448,-157.575,2.832,181.738
2.7555,128.18172,37.960993,7022.5865136,-154.923,2.82,181.718
2.7721,128.181717,37.960947,7022.7175776,-152.269,2.809,181.699
2.7889,128.181715,37.960901,7022.8477272,-149.614,2.795,181.677
2.8056,128.181713,37.960855,7022.9769624,-146.96,2.771,181.651
2.8222,128.181711,37.960809,7023.104978400001,-144.309,2.735,181.616
2.839,128.181709,37.960763,7023.231470400001,-141.661,2.686,181.57
2.8557,128.181707,37.960717,7023.356438400001,-139.018,2.622,181.511
2.8724,128.181705,37.960671,7023.4795776,-136.384,2.545,181.437
2.8891,128.181702,37.960624,7023.5996688000005,-133.772,2.454,181.348
2.9057,128.1817,37.960578,7023.716712,-131.195,2.351,181.243
2.9225,128.181698,37.960532,7023.8304024,-128.665,2.238,181.122
2.9392,128.181696,37.960486,7023.9404352,-126.189,2.118,180.986
2.9558,128.181694,37.96044,7024.0462008,-123.777,1.992,180.834
2.9726,128.181692,37.960394,7024.148004000001,-121.432,1.864,180.668
2.9893,128.18169,37.960348,7024.24554,-119.157,1.738,180.491
3.0059,128.181688,37.960302,7024.338504,-116.953,1.615,180.304
3.0227,128.181686,37.960255,7024.427505600001,-114.821,1.497,180.109
3.0394,128.181684,37.960209,7024.5119352,-112.757,1.387,179.91
3.056,128.181682,37.960163,7024.591792800001,-110.758,1.286,179.709
3.0728,128.18168,37.960117,7024.667688,-108.82,1.195,179.508
3.0895,128.181678,37.960071,7024.739316,-106.938,1.114,179.309
3.1062,128.181676,37.960024,7024.8066768,-105.108,1.044,179.114
3.1229,128.181675,37.959978,7024.8700751999995,-103.325,0.984,178.924
3.1395,128.181673,37.959932,7024.929816,-101.585,0.934,178.741
3.1563,128.181671,37.959886,7024.9855944,-99.883,0.894,178.564
3.173,128.18167,37.959839,7025.037715200001,-98.217,0.862,178.396
3.1896,128.181668,37.959793,7025.086178400001,-96.582,0.839,178.235
3.2064,128.181667,37.959747,7025.1315936,-94.976,0.823,178.083
3.2231,128.181666,37.959701,7025.173351200001,-93.396,0.814,177.939
3.2397,128.181664,37.959654,7025.212365600001,-91.841,0.811,177.804
3.2565,128.181663,37.959608,7025.248332,-90.311,0.814,177.675
3.2732,128.181662,37.959562,7025.2815552,-88.803,0.821,177.553
3.2899,128.181661,37.959515,7025.3120352,-87.318,0.833,177.438
3.3066,128.18166,37.959469,7025.3400768,-85.859,0.849,177.328
3.3233,128.181659,37.959423,7025.36568,-84.425,0.868,177.222
3.34,128.181658,37.959376,7025.389149600001,-83.019,0.89,177.12
3.3567,128.181657,37.95933,7025.4110952,-81.699,0.91,177.036
3.3734,128.181657,37.959284,7025.4312119999995,-80.452,0.925,176.984
3.3901,128.181656,37.959237,7025.449500000001,-79.26,0.934,176.978
3.4068,128.181655,37.959191,7025.465959200001,-78.108,0.934,177.031
3.4235,128.181655,37.959145,7025.4805896,-76.98,0.928,177.13
3.4402,128.181654,37.959098,7025.493696,-75.861,0.917,177.26
3.4569,128.181654,37.959052,7025.5046688,-74.737,0.904,177.406
3.4736,128.181654,37.959005,7025.514117600001,-73.596,0.89,177.558
3.4903,128.181653,37.958959,7025.5214328,-72.427,0.876,177.711
3.507,128.181653,37.958912,7025.5269192000005,-71.221,0.862,177.862
3.5237,128.181653,37.958866,7025.530272,-69.969,0.848,178.008
3.5404,128.181652,37.95882,7025.533015200001,-68.851,0.824,178.145
3.5571,128.181652,37.958773,7025.5339296,-67.862,0.791,178.272
3.5738,128.181652,37.958727,7025.5333200000005,-67.003,0.752,178.389
3.5905,128.181652,37.95868,7025.5314912,-66.275,0.711,178.498
3.6072,128.181652,37.958634,7025.528138400001,-65.677,0.669,178.6
3.6239,128.181652,37.958587,7025.5238712,-65.205,0.629,178.696
3.6406,128.181652,37.958541,7025.5183848,-64.856,0.589,178.785
3.6573,128.181652,37.958494,7025.511679200001,-64.626,0.551,178.868
3.674,128.181652,37.958448,7025.504364,-64.51,0.514,178.946
3.6907,128.181652,37.958401,7025.4961344,-64.506,0.478,179.018
3.7074,128.181652,37.958355,7025.4872952000005,-64.611,0.445,179.085
3.7241,128.181652,37.958308,7025.477846400001,-64.821,0.415,179.147
3.7408,128.181652,37.958262,7025.467788000001,-65.135,0.388,179.205
3.7575,128.181653,37.958215,7025.457120000001,-65.546,0.363,179.258
3.7742,128.181653,37.958169,7025.446147200001,-66.053,0.34,179.308
3.7909,128.181653,37.958122,7025.4351744000005,-66.652,0.32,179.353
3.8076,128.181654,37.958076,7025.4232872,-67.34,0.302,179.394
3.8243,128.181654,37.958029,7025.4107904,-68.115,0.286,179.432
3.841,128.181655,37.957982,7025.3976840000005,-68.971,0.272,179.465
3.8577,128.181656,37.957936,7025.3833584,-69.899,0.26,179.496
3.8744,128.181656,37.957889,7025.368118400001,-70.885,0.251,179.524
3.8911,128.181657,37.957843,7025.3510496,-71.917,0.245,179.55
3.9078,128.181658,37.957796,7025.3327616,-72.987,0.241,179.573
3.9245,128.181659,37.95775,7025.3129496,-74.085,0.24,179.594
3.9412,128.181659,37.957703,7025.2913088000005,-75.204,0.241,179.613
3.9579,128.18166,37.957657,7025.2678392,-76.339,0.244,179.629
3.9746,128.181661,37.95761,7025.242236,-77.485,0.249,179.644
3.9913,128.181662,37.957564,7025.214804,-78.635,0.254,179.657
4.008,128.181663,37.957517,7025.1855432,-79.787,0.261,179.667
4.0247,128.181664,37.95747,7025.1541488,-80.937,0.268,179.676
4.0414,128.181665,37.957424,7025.120316,-82.083,0.277,179.683
4.058,128.181666,37.957377,7025.0846544000005,-83.222,0.285,179.689
4.0748,128.181667,37.957331,7025.0465544,-84.352,0.295,179.692
4.0915,128.181668,37.957284,7025.006016,-85.471,0.304,179.694
4.1082,128.181669,37.957237,7024.963344,-86.578,0.314,179.694
4.1249,128.18167,37.957191,7024.918538400001,-87.672,0.323,179.693
4.1415,128.181671,37.957144,7024.8709896,-88.75,0.333,179.69
4.1583,128.181672,37.957097,7024.8213072,-89.813,0.343,179.686
4.175,128.181673,37.957051,7024.769186400001,-90.859,0.352,179.68
4.1917,128.181675,37.957004,7024.7146272,-91.886,0.36,179.673
4.2084,128.181676,37.956957,7024.657629599999,-92.891,0.366,179.665
4.2251,128.181677,37.956911,7024.5981936,-93.876,0.371,179.655
4.2417,128.181678,37.956864,7024.5363192,-94.842,0.374,179.645
4.2585,128.181679,37.956817,7024.472006400001,-95.789,0.377,179.634
4.2752,128.18168,37.956771,7024.4052552,-96.716,0.379,179.621
4.2919,128.181682,37.956724,7024.3360656,-97.626,0.381,179.608
4.3086,128.181683,37.956677,7024.264132800001,-98.516,0.382,179.594
4.3252,128.181684,37.95663,7024.1897616,-99.388,0.382,179.579
4.342,128.181685,37.956584,7024.112952,-100.242,0.382,179.563
4.3587,128.181686,37.956537,7024.033704,-101.077,0.381,179.547
4.3754,128.181688,37.95649,7023.9517128,-101.894,0.38,179.53
4.3921,128.181689,37.956443,7023.867283200001,-102.693,0.378,179.513
4.4088,128.18169,37.956397,7023.780415200001,-103.474,0.375,179.495
4.4254,128.181692,37.95635,7023.690804,-104.237,0.372,179.477
4.4422,128.181693,37.956303,7023.599059200001,-104.982,0.368,179.458
4.4589,128.181694,37.956256,7023.5042664,-105.709,0.364,179.439
4.4756,128.181695,37.956209,7023.40734,-106.419,0.359,179.42
4.4923,128.181697,37.956163,7023.3076704000005,-107.112,0.353,179.401
4.5089,128.181698,37.956116,7023.2055624,-107.786,0.347,179.381
4.5256,128.181699,37.956069,7023.101016,-108.442,0.341,179.361
4.5424,128.181701,37.956022,7022.9937264,-109.081,0.333,179.341
4.5591,128.181702,37.955975,7022.8839984,-109.701,0.325,179.321
4.5758,128.181703,37.955928,7022.771832,-110.304,0.317,179.301
4.5925,128.181705,37.955882,7022.6572272,-110.888,0.308,179.281
4.6091,128.181706,37.955835,7022.5398792000005,-111.455,0.299,179.261
4.6259,128.181707,37.955788,7022.420397600001,-112.006,0.289,179.24
4.6426,128.181709,37.955741,7022.2981728,-112.54,0.279,179.22
4.6593,128.18171,37.955694,7022.1735096,-113.059,0.268,179.2
4.676,128.181711,37.955647,7022.0461032,-113.561,0.256,179.18
4.6927,128.181713,37.9556,7021.9165632,-114.047,0.245,179.16
4.7093,128.181714,37.955553,7021.7845848,-114.516,0.233,179.14
4.7261,128.181716,37.955506,7021.6498632,-114.968,0.22,179.12
4.7428,128.181717,37.955459,7021.513008,-115.405,0.207,179.1
4.7595,128.181718,37.955412,7021.373409600001,-115.825,0.194,179.081
4.7762,128.18172,37.955365,7021.2313728,-116.229,0.18,179.062
4.7928,128.181721,37.955318,7021.0872024,-116.618,0.166,179.042
4.8096,128.181722,37.955271,7020.9402887999995,-116.992,0.151,179.023
4.8263,128.181724,37.955224,7020.7909368,-117.353,0.136,179.005
4.843,128.181725,37.955177,7020.639146400001,-117.7,0.121,178.986
4.8597,128.181727,37.95513,7020.4849176,-118.034,0.106,178.968
4.8764,128.181728,37.955083,7020.328250400001,-118.353,0.09,178.949
4.893,128.181729,37.955036,7020.1694496,-118.657,0.073,178.932
4.9098,128.181731,37.954989,7020.0079056,-118.947,0.055,178.915
4.9265,128.181732,37.954942,7019.844228000001,-119.222,0.037,178.898
4.9432,128.181734,37.954895,7019.6778072,-119.482,0.018,178.882
4.9599,128.181735,37.954848,7019.5092528,-119.728,-0.001,178.867
4.9765,128.181737,37.954801,7019.33826,-119.962,-0.021,178.852
4.9932,128.181738,37.954754,7019.164828800001,-120.185,-0.043,178.837
5.01,128.181739,37.954707,7018.989568800001,-120.376,-0.066,178.824
5.0267,128.181741,37.954659,7018.811870400001,-120.537,-0.09,178.812
5.0434,128.181742,37.954612,7018.632038400001,-120.734,-0.119,178.803
5.0601,128.181744,37.954565,7018.4491584,-120.971,-0.152,178.797
5.0767,128.181745,37.954518,7018.2638400000005,-121.252,-0.188,178.792
5.0935,128.181747,37.954471,7018.075168800001,-121.571,-0.225,178.787
5.1102,128.181748,37.954424,7017.8834496,-121.921,-0.262,178.782
5.1269,128.18175,37.954376,7017.6886824,-122.299,-0.299,178.777
5.1436,128.181751,37.954329,7017.491172,-122.7,-0.334,178.771
5.1602,128.181753,37.954282,7017.2906136,-123.118,-0.369,178.765
5.1769,128.181754,37.954235,7017.087312,-123.548,-0.404,178.758
5.1937,128.181756,37.954188,7016.8812672,-123.99,-0.438,178.751
5.2104,128.181757,37.95414,7016.672174400001,-124.441,-0.472,178.743
5.2271,128.181759,37.954093,7016.460033600001,-124.91,-0.507,178.736
5.2438,128.18176,37.954046,7016.24454,-125.403,-0.543,178.729
5.2604,128.181762,37.953999,7016.0259984,-125.924,-0.58,178.722
5.2772,128.181764,37.953952,7015.804408800001,-126.473,-0.619,178.716
5.2939,128.181765,37.953904,7015.5794664,-127.05,-0.658,178.71
5.3106,128.181767,37.953857,7015.3511712,-127.658,-0.697,178.703
5.3273,128.181769,37.95381,7015.119523200001,-128.304,-0.737,178.697
5.3439,128.18177,37.953763,7014.8842176,-128.989,-0.778,178.691
5.3606,128.181772,37.953715,7014.6452544,-129.716,-0.82,178.685
5.3774,128.181774,37.953668,7014.4029384000005,-130.485,-0.863,178.679
5.3941,128.181775,37.953621,7014.156660000001,-131.3,-0.906,178.673
5.4108,128.181777,37.953573,7013.9064192000005,-132.17,-0.951,178.667
5.4275,128.181779,37.953526,7013.6519112000005,-133.099,-0.996,178.662
5.4441,128.181781,37.953479,7013.393136000001,-134.096,-1.044,178.658
5.4609,128.181782,37.953432,7013.1300936,-135.166,-1.092,178.654
5.4776,128.181784,37.953384,7012.862174400001,-136.312,-1.143,178.65
5.4943,128.181786,37.953337,7012.589683200001,-137.539,-1.194,178.647
5.511,128.181788,37.95329,7012.312315200001,-138.849,-1.247,178.645
5.5277,128.18179,37.953242,7012.0303752,-140.238,-1.3,178.643
5.5443,128.181792,37.953195,7011.743253600001,-141.703,-1.354,178.641
5.5611,128.181794,37.953148,7011.45156,-143.241,-1.409,178.639
5.5778,128.181796,37.9531,7011.1549896,-144.849,-1.464,178.637
5.5945,128.181798,37.953053,7010.853542400001,-146.523,-1.519,178.636
5.6112,128.1818,37.953006,7010.5469136,-148.26,-1.575,178.635
5.6278,128.181802,37.952959,7010.2354080000005,-150.056,-1.631,178.635
5.6445,128.181804,37.952911,7009.9190256,-151.909,-1.688,178.635
5.6613,128.181806,37.952864,7009.597461599999,-153.814,-1.744,178.637
5.678,128.181808,37.952817,7009.2710208,-155.77,-1.801,178.639
5.6947,128.181811,37.952769,7008.9390936,-157.773,-1.858,178.643
5.7114,128.181813,37.952722,7008.6022896,-159.82,-1.915,178.648
5.728,128.181815,37.952675,7008.2599992000005,-161.909,-1.972,178.653
5.7448,128.181817,37.952628,7007.9125272,-164.038,-2.028,178.66
5.7615,128.181819,37.95258,7007.5598736,-166.203,-2.083,178.667
5.7782,128.181821,37.952533,7007.201733600001,-168.403,-2.138,178.675
5.7949,128.181824,37.952486,7006.8381072,-170.634,-2.192,178.685
5.8115,128.181826,37.952438,7006.4692992,-172.895,-2.245,178.695
5.8282,128.181828,37.952391,7006.094700000001,-175.182,-2.297,178.705
5.845,128.18183,37.952344,7005.714614400001,-177.493,-2.348,178.717
5.8617,128.181832,37.952296,7005.329042400001,-179.827,-2.398,178.73
5.8784,128.181835,37.952249,7004.937984000001,177.819,-2.446,178.743
5.8951,128.181837,37.952202,7004.5411343999995,175.447,-2.493,178.758
5.9117,128.181839,37.952155,7004.1387984,173.06,-2.538,178.773
5.9285,128.181841,37.952107,7003.7306712,170.658,-2.582,178.788
5.9452,128.181843,37.95206,7003.3170576,168.245,-2.624,178.804
5.9619,128.181846,37.952013,7002.8976528,165.821,-2.664,178.821
5.9786,128.181848,37.951965,7002.472456800001,163.389,-2.703,178.838
5.9952,128.18185,37.951918,7002.041469600001,160.95,-2.74,178.855
6.0119,128.181852,37.951871,7001.604996000001,158.505,-2.775,178.873
6.0287,128.181854,37.951823,7001.1624264,156.056,-2.808,178.89
6.0454,128.181856,37.951776,7000.7146752,153.604,-2.839,178.907
6.0621,128.181858,37.951729,7000.260828,151.151,-2.869,178.924
6.0788,128.181861,37.951682,6999.8017992000005,148.698,-2.896,178.941
6.0954,128.181863,37.951634,6999.336979200001,146.245,-2.922,178.957
6.1121,128.181865,37.951587,6998.866672800001,143.795,-2.946,178.973
6.1289,128.181867,37.95154,6998.3905752,141.347,-2.97,178.989
6.1456,128.181869,37.951492,6997.908991200001,138.904,-2.999,179.01
6.1623,128.18187,37.951445,6997.4219207999995,136.464,-3.035,179.039
6.179,128.181872,37.951398,6996.9293640000005,134.03,-3.081,179.077
6.1956,128.181874,37.95135,6996.4313208,131.601,-3.135,179.127
6.2124,128.181876,37.951303,6995.927791200001,129.179,-3.197,179.189
6.2291,128.181878,37.951256,6995.4187752,126.764,-3.267,179.263
6.2458,128.18188,37.951208,6994.9042728,124.359,-3.342,179.349
6.2625,128.181881,37.951161,6994.384284000001,121.963,-3.421,179.448
6.2791,128.181883,37.951114,6993.8591136000005,119.579,-3.503,179.558
6.2958,128.181884,37.951066,6993.328456800001,117.206,-3.586,179.679
6.3126,128.181886,37.951019,6992.792923200001,114.846,-3.667,179.809
6.3293,128.181887,37.950972,6992.2519032,112.5,-3.747,179.947
6.346,128.181889,37.950924,6991.7063112000005,110.166,-3.823,180.093
6.3627,128.18189,37.950877,6991.1558424,107.844,-3.894,180.244
6.3793,128.181891,37.95083,6990.6008016000005,105.534,-3.959,180.4
6.3961,128.181892,37.950782,6990.0411888,103.235,-4.017,180.555
6.4128,128.181893,37.950735,6989.4776136,100.946,-4.068,180.711
6.4295,128.181894,37.950688,6988.9103808,98.666,-4.112,180.866
6.4462,128.181895,37.95064,6988.3391856,96.393,-4.148,181.02
6.4628,128.181896,37.950593,6987.7646376,94.128,-4.178,181.176
6.4795,128.181896,37.950546,6987.187346400001,91.867,-4.2,181.334
6.4963,128.181897,37.950498,6986.6070072,89.611,-4.215,181.493
6.513,128.181898,37.950451,6986.0242296,87.358,-4.223,181.65
6.5297,128.181898,37.950403,6985.439623200001,85.106,-4.224,181.806
6.5464,128.181898,37.950356,6984.853188000001,82.856,-4.218,181.96
6.5631,128.181898,37.950309,6984.265228800001,80.605,-4.204,182.113
6.5798,128.181898,37.950261,6983.676660000001,78.353,-4.184,182.264
6.5965,128.181898,37.950214,6983.087176800001,76.098,-4.157,182.415
6.6132,128.181898,37.950167,6982.4976936,73.84,-4.122,182.562
6.6299,128.181898,37.950119,6981.908210400001,71.578,-4.082,182.707
6.6466,128.181898,37.950072,6981.3193368,69.31,-4.034,182.849
6.6633,128.181897,37.950024,6980.731682400001,67.036,-3.979,182.989
6.68,128.181896,37.949977,6980.145247200001,64.755,-3.917,183.127
6.6967,128.181896,37.94993,6979.5606408,62.466,-3.849,183.261
6.7134,128.181895,37.949882,6978.978168000001,60.168,-3.774,183.392
6.7301,128.181894,37.949835,6978.3984384000005,57.86,-3.693,183.519
6.7468,128.181893,37.949788,6977.821756800001,55.542,-3.604,183.643
6.7635,128.181892,37.94974,6977.248732800001,53.213,-3.509,183.763
6.7802,128.181891,37.949693,6976.6793664,50.872,-3.406,183.881
6.7969,128.181889,37.949645,6976.1142672000005,48.518,-3.296,183.994
6.8136,128.181888,37.949598,6975.55374,46.152,-3.184,184.099
6.8303,128.181886,37.949551,6974.9977848,43.785,-3.067,184.197
6.847,128.181885,37.949503,6974.446401600001,41.462,-2.948,184.292
6.8637,128.181883,37.949456,6973.9002,39.226,-2.827,184.385
6.8804,128.181881,37.949408,6973.358570400001,37.093,-2.706,184.475
6.8971,128.18188,37.949361,6972.8215128,35.096,-2.584,184.563
6.9138,128.181878,37.949314,6972.2896368,33.262,-2.46,184.649
6.9305,128.181876,37.949266,6971.762332800001,31.603,-2.334,184.734
6.9472,128.181874,37.949219,6971.2396008000005,30.113,-2.204,184.816
6.9639,128.181872,37.949171,6970.722050400001,28.584,-2.078,184.876
6.9806,128.18187,37.949124,6970.2096816,27.017,-1.969,184.907
6.9973,128.181867,37.949077,6969.7034088,25.405,-1.895,184.908
7.014,128.181865,37.949029,6969.2026224,23.743,-1.871,184.876
7.0307,128.181863,37.948982,6968.7076272,22.029,-1.913,184.811
7.0474,128.181861,37.948934,6968.219032800001,20.262,-2.008,184.723
7.0641,128.181858,37.948887,6967.7365344,18.441,-2.14,184.622
7.0808,128.181856,37.948839,6967.2607416,16.564,-2.293,184.516
7.0975,128.181853,37.948792,6966.7904352000005,14.821,-2.456,184.433
7.1142,128.181851,37.948744,6966.325005600001,13.205,-2.621,184.375
7.1309,128.181849,37.948697,6965.863538400001,11.723,-2.781,184.337
7.1476,128.181846,37.94865,6965.406033600001,10.379,-2.934,184.312
7.1643,128.181844,37.948602,6964.951272,9.174,-3.077,184.295
7.181,128.181841,37.948555,6964.4989488,8.106,-3.211,184.283
7.1977,128.181838,37.948507,6964.0481496,7.172,-3.335,184.276
7.2144,128.181836,37.94846,6963.598874400001,6.368,-3.449,184.272
7.2311,128.181833,37.948412,6963.150208800001,5.688,-3.555,184.27
7.2478,128.181831,37.948365,6962.701848,5.128,-3.653,184.271
7.2645,128.181828,37.948317,6962.253182400001,4.683,-3.743,184.272
7.2812,128.181826,37.94827,6961.8036024,4.35,-3.827,184.275
7.2979,128.181823,37.948222,6961.3528032,4.123,-3.905,184.279
7.3146,128.181821,37.948175,6960.90048,3.998,-3.979,184.283
7.3313,128.181818,37.948127,6960.4460232,3.973,-4.048,184.288
7.348,128.181815,37.94808,6959.989128,4.042,-4.113,184.293
7.3647,128.181813,37.948032,6959.5291848,4.203,-4.175,184.298
7.3814,128.18181,37.947985,6959.0661936,4.452,-4.235,184.302
7.3981,128.181807,37.947937,6958.6004592,4.786,-4.293,184.306
7.4148,128.181805,37.94789,6958.131372,5.201,-4.35,184.31
7.4315,128.181802,37.947842,6957.659541600001,5.694,-4.404,184.314
7.4482,128.1818,37.947794,6957.184663200001,6.263,-4.458,184.317
7.4649,128.181797,37.947747,6956.706736800001,6.904,-4.511,184.319
7.4816,128.181794,37.947699,6956.2257624,7.616,-4.564,184.321
7.4983,128.181792,37.947652,6955.74174,8.394,-4.616,184.322
7.515,128.181789,37.947604,6955.254669600001,9.237,-4.668,184.322
7.5317,128.181786,37.947556,6954.764551200001,10.142,-4.72,184.322
7.5484,128.181784,37.947509,6954.2710799999995,11.108,-4.772,184.321
7.5651,128.181781,37.947461,6953.774865600001,12.131,-4.824,184.319
7.5818,128.181778,37.947413,6953.2756032,13.21,-4.876,184.316
7.5985,128.181776,37.947366,6952.7732928000005,14.343,-4.929,184.311
7.6152,128.181773,37.947318,6952.2679344,15.528,-4.982,184.306
7.6319,128.18177,37.94727,6951.7595280000005,16.764,-5.035,184.3
7.6486,128.181767,37.947222,6951.248073600001,18.048,-5.088,184.293
7.6653,128.181765,37.947175,6950.7335712,19.379,-5.142,184.284
7.682,128.181762,37.947127,6950.2163256,20.755,-5.196,184.275
7.6987,128.181759,37.947079,6949.696032000001,22.175,-5.25,184.264
7.7154,128.181757,37.947031,6949.1723856,23.638,-5.305,184.251
7.7321,128.181754,37.946984,6948.646300800001,25.143,-5.36,184.238
7.7488,128.181751,37.946936,6948.1168632,26.687,-5.415,184.223
7.7655,128.181748,37.946888,6947.584682400001,28.271,-5.47,184.207
7.7822,128.181746,37.94684,6947.049453600001,29.892,-5.525,184.189
7.7989,128.181743,37.946793,6946.511176800001,31.55,-5.58,184.169
7.8156,128.18174,37.946745,6945.970156800001,33.244,-5.635,184.149
7.8323,128.181737,37.946697,6945.4260888,34.973,-5.69,184.127
7.849,128.181735,37.946649,6944.8789728,36.735,-5.745,184.103
7.8657,128.181732,37.946601,6944.329113600001,38.531,-5.8,184.078
7.8824,128.181729,37.946553,6943.776206400001,40.359,-5.854,184.051
7.8991,128.181726,37.946506,6943.2202512,42.218,-5.907,184.023
7.9158,128.181724,37.946458,6942.6615528,44.108,-5.96,183.993
7.9325,128.181721,37.94641,6942.100111200001,46.028,-6.013,183.962
7.9492,128.181718,37.946362,6941.5353168,47.978,-6.064,183.93
7.9659,128.181715,37.946314,6940.967779200001,49.956,-6.115,183.896
7.9826,128.181713,37.946266,6940.3974984,51.963,-6.165,183.861
7.9993,128.18171,37.946218,6939.8241696000005,53.996,-6.214,183.824
8.016,128.181707,37.94617,6939.247792800001,56.057,-6.262,183.787
8.0327,128.181704,37.946122,6938.6686728,58.145,-6.308,183.748
8.0494,128.181701,37.946074,6938.086200000001,60.258,-6.354,183.708
8.0661,128.181699,37.946026,6937.5012888,62.397,-6.398,183.666
8.0828,128.181696,37.945978,6936.9133296,64.56,-6.441,183.624
8.0994,128.181693,37.94593,6936.3223224,66.748,-6.482,183.581
8.1161,128.18169,37.945882,6935.7282672,68.96,-6.522,183.538
8.1329,128.181688,37.945834,6935.1314688,71.195,-6.561,183.493
8.1496,128.181685,37.945786,6934.5310128,73.234,-6.584,183.444
8.1663,128.181682,37.945738,6933.9281184,75.084,-6.594,183.391
8.183,128.181679,37.94569,6933.3227856,76.744,-6.594,183.337
8.1997,128.181676,37.945642,6932.715014400001,78.211,-6.588,183.299
8.2164,128.181673,37.945594,6932.1045,79.494,-6.578,183.262
8.2331,128.181671,37.945546,6931.4924616,80.64,-6.569,183.245
8.2498,128.181668,37.945498,6930.8779848,81.669,-6.56,183.263
8.2665,128.181665,37.94545,6930.261679200001,82.591,-6.548,183.332
8.2831,128.181662,37.945402,6929.64324,83.418,-6.532,183.465
8.2998,128.181659,37.945354,6929.0226672,84.161,-6.511,183.673
8.3166,128.181655,37.945306,6928.400570400001,84.83,-6.485,183.965
8.3333,128.181652,37.945258,6927.77634,85.435,-6.455,184.346
8.35,128.181649,37.94521,6927.149976,85.987,-6.424,184.802
8.3667,128.181645,37.945162,6926.521478400001,86.5,-6.394,185.317
8.3834,128.181642,37.945114,6925.890847200001,86.985,-6.368,185.875
8.4001,128.181638,37.945065,6925.257777600001,87.456,-6.346,186.455
8.4168,128.181635,37.945017,6924.6225744,87.928,-6.332,187.037
8.4335,128.181631,37.944969,6923.984932800001,88.421,-6.325,187.599
8.4502,128.181627,37.944921,6923.3451576,88.959,-6.327,188.122
8.4668,128.181623,37.944873,6922.7023344,89.473,-6.334,188.59
8.4835,128.181619,37.944825,6922.0570728,89.987,-6.344,189.008
8.5003,128.181615,37.944777,6921.409677600001,90.56,-6.364,189.386
8.517,128.181611,37.944729,6920.7595392,91.217,-6.394,189.731
8.5337,128.181606,37.944681,6920.1063527999995,91.957,-6.432,190.048
8.5504,128.181602,37.944633,6919.450423200001,92.78,-6.478,190.344
8.5671,128.181597,37.944585,6918.7911408,93.684,-6.528,190.62
8.5838,128.181593,37.944537,6918.1288104000005,94.632,-6.58,190.881
8.6005,128.181588,37.944489,6917.4625176,95.584,-6.632,191.128
8.6172,128.181583,37.944441,6916.7925672,96.517,-6.683,191.363
8.6339,128.181578,37.944393,6916.1186544,97.422,-6.735,191.587
8.6505,128.181572,37.944345,6915.440779200001,98.296,-6.787,191.803
8.6672,128.181567,37.944297,6914.7586368,99.141,-6.844,192.01
8.684,128.181561,37.944249,6914.0722272,99.961,-6.904,192.211
8.7007,128.181556,37.944201,6913.3812456000005,100.765,-6.969,192.404
8.7174,128.18155,37.944153,6912.685692000001,101.557,-7.038,192.593
8.7341,128.181544,37.944105,6911.9852616,102.344,-7.112,192.776
8.7508,128.181538,37.944057,6911.2799544,103.134,-7.191,192.954
8.7675,128.181532,37.944009,6910.5694656000005,103.93,-7.273,193.129
8.7842,128.181525,37.943961,6909.853795200001,104.738,-7.36,193.3
8.8009,128.181519,37.943913,6909.1329432,105.562,-7.451,193.467
8.8176,128.181512,37.943865,6908.4066048,106.406,-7.546,193.631
8.8342,128.181505,37.943817,6907.67478,107.271,-7.645,193.791
8.8509,128.181498,37.94377,6906.937164000001,108.163,-7.747,193.948
8.8676,128.181491,37.943722,6906.193452,109.082,-7.853,194.101
8.8844,128.181484,37.943674,6905.4439488,110.03,-7.963,194.251
8.9011,128.181477,37.943626,6904.6880448,111.011,-8.076,194.399
8.9178,128.181469,37.943578,6903.9260448,112.027,-8.194,194.543
8.9345,128.181462,37.943531,6903.157644,113.078,-8.315,194.684
8.9512,128.181454,37.943483,6902.3825376,114.167,-8.441,194.822
8.9679,128.181446,37.943435,6901.6007256,115.295,-8.571,194.958
8.9846,128.181439,37.943388,6900.8119032,116.465,-8.705,195.09
9.0013,128.181431,37.94334,6900.016070400001,117.678,-8.844,195.22
9.0179,128.181422,37.943292,6899.2132272,118.936,-8.987,195.346
9.0346,128.181414,37.943245,6898.402764,120.24,-9.135,195.469
9.0513,128.181406,37.943197,6897.5849856,121.593,-9.288,195.589
9.0681,128.181397,37.943149,6896.7595872,122.995,-9.447,195.705
9.0848,128.181389,37.943102,6895.9265688000005,124.449,-9.61,195.818
9.1015,128.18138,37.943054,6895.0856256,125.957,-9.78,195.928
9.1182,128.181371,37.943007,6894.234319200001,127.356,-9.929,196.037
9.1349,128.181362,37.942959,6893.374478400001,128.649,-10.057,196.144
9.1516,128.181354,37.942912,6892.5057984,129.832,-10.169,196.246
9.1683,128.181344,37.942864,6891.627364800001,130.899,-10.272,196.34
9.185,128.181335,37.942817,6890.7394824,131.85,-10.369,196.425
9.2016,128.181326,37.942769,6889.841846400001,132.687,-10.464,196.502
9.2183,128.181317,37.942722,6888.933847200001,133.412,-10.557,196.572
9.235,128.181307,37.942675,6888.0154848,134.031,-10.65,196.636
9.2518,128.181297,37.942627,6887.086454400001,134.548,-10.744,196.695
9.2685,128.181288,37.94258,6886.146756000001,134.968,-10.837,196.751
9.2852,128.181278,37.942533,6885.19578,135.295,-10.932,196.805
9.3019,128.181268,37.942486,6884.2335264,135.534,-11.027,196.857
9.3186,128.181258,37.942438,6883.2599952,135.688,-11.123,196.909
9.3353,128.181248,37.942391,6882.274272000001,135.76,-11.22,196.961
9.352,128.181237,37.942344,6881.2769664,135.754,-11.319,197.014
9.3687,128.181227,37.942297,6880.267164000001,135.673,-11.419,197.068
9.3854,128.181216,37.94225,6879.2457792000005,135.519,-11.521,197.124
9.402,128.181206,37.942203,6878.2125072,135.295,-11.624,197.182
9.4187,128.181195,37.942156,6877.167348,135.004,-11.729,197.243
9.4355,128.181184,37.942109,6876.1106064000005,134.647,-11.835,197.307
9.4522,128.181173,37.942062,6875.042282400001,134.227,-11.943,197.374
9.4689,128.181162,37.942015,6873.962376,133.746,-12.052,197.445
9.4856,128.181151,37.941968,6872.870887200001,133.206,-12.163,197.52
9.5023,128.181139,37.941922,6871.767816,132.608,-12.275,197.599
9.519,128.181128,37.941875,6870.6540768,131.956,-12.377,197.67
9.5357,128.181116,37.941828,6869.5296696000005,131.256,-12.459,197.721
9.5524,128.181105,37.941782,6868.3948992000005,130.511,-12.511,197.741
9.5691,128.181093,37.941735,6867.252204,129.918,-12.543,197.699
9.5857,128.181081,37.941688,6866.100974400001,129.477,-12.544,197.584
9.6024,128.181069,37.941642,6864.9409056,129.193,-12.516,197.409
9.6192,128.181057,37.941595,6863.7726072,129.068,-12.464,197.196
9.6359,128.181045,37.941549,6862.5969936,129.099,-12.396,196.961
9.6526,128.181032,37.941502,6861.4140648,129.283,-12.324,196.722
9.6693,128.18102,37.941456,6860.2244304,129.611,-12.257,196.493
9.686,128.181008,37.941409,6859.0280904,130.079,-12.197,196.278
9.7027,128.180995,37.941363,6857.8259592,130.683,-12.146,196.078
9.7194,128.180983,37.941317,6856.6183416,131.416,-12.102,195.892
9.7361,128.18097,37.94127,6855.405542400001,132.277,-12.064,195.718
9.7528,128.180958,37.941224,6854.1881712,133.26,-12.033,195.555
9.7694,128.180945,37.941177,6852.966228,134.362,-12.006,195.404
9.7861,128.180933,37.941131,6851.7403224,135.579,-11.984,195.262
9.8029,128.18092,37.941085,6850.5107592,136.906,-11.967,195.129
9.8196,128.180908,37.941038,6849.278147999999,138.34,-11.952,195.006
9.8363,128.180895,37.940992,6848.0424888,139.876,-11.942,194.89
9.853,128.180882,37.940945,6846.805000800001,141.512,-11.934,194.781
9.8697,128.18087,37.940899,6845.564464800001,143.242,-11.929,194.679
9.8864,128.180857,37.940852,6844.3217952,145.063,-11.926,194.583
9.9031,128.180844,37.940806,6843.076992,146.971,-11.926,194.494
9.9198,128.180832,37.94076,6841.8282264,148.749,-11.915,194.432
9.9365,128.180819,37.940713,6840.5767176,150.404,-11.893,194.398
9.9531,128.180806,37.940667,6839.322770400001,151.924,-11.866,194.385
9.9698,128.180794,37.94062,6838.0657752,153.301,-11.839,194.381
9.9865,128.180781,37.940574,6836.8054272,154.533,-11.815,194.383
10.0033,128.180768,37.940527,6835.542031200001,155.622,-11.796,194.386
10.02,128.180755,37.940481,6834.275282400001,156.573,-11.781,194.391
10.0367,128.180743,37.940434,6833.0045712,157.392,-11.771,194.397
10.0534,128.18073,37.940388,6831.729897600001,158.085,-11.766,194.403
10.0701,128.180717,37.940341,6830.4512616,158.657,-11.765,194.411
10.0868,128.180704,37.940295,6829.1680536,159.113,-11.768,194.419
10.1035,128.180691,37.940248,6827.880273600001,159.459,-11.775,194.429
10.1202,128.180678,37.940202,6826.5876168,159.699,-11.785,194.439
10.1368,128.180666,37.940155,6825.289778400001,159.837,-11.798,194.45
10.1535,128.180653,37.940109,6823.9867584,159.877,-11.813,194.461
10.1702,128.18064,37.940062,6822.677642400001,159.824,-11.832,194.473
10.187,128.180627,37.940016,6821.36304,159.681,-11.852,194.485
10.2037,128.180614,37.93997,6820.0420368000005,159.452,-11.874,194.498
10.2204,128.180601,37.939923,6818.7152424000005,159.14,-11.899,194.511
10.2371,128.180588,37.939877,6817.3829616,158.749,-11.924,194.524
10.2538,128.180575,37.939831,6816.0448896,158.283,-11.951,194.537
10.2705,128.180562,37.939784,6814.7010264,157.744,-11.979,194.55
10.2872,128.180549,37.939738,6813.3516768,157.136,-12.008,194.563
10.3039,128.180536,37.939692,6811.996536000001,156.462,-12.037,194.577
10.3205,128.180523,37.939645,6810.6359088,155.724,-12.067,194.59
10.3372,128.18051,37.939599,6809.2694904,154.926,-12.097,194.604
10.3539,128.180496,37.939553,6807.8978904000005,154.07,-12.128,194.617
10.3707,128.180483,37.939506,6806.5204992,153.158,-12.158,194.63
10.3874,128.18047,37.93946,6805.1376216,152.195,-12.188,194.644
10.4041,128.180457,37.939414,6803.7492576,151.181,-12.217,194.657
10.4208,128.180444,37.939368,6802.3554072,150.12,-12.247,194.669
10.4375,128.18043,37.939322,6800.9560704000005,149.013,-12.275,194.682
10.4542,128.180417,37.939275,6799.551247200001,147.864,-12.303,194.694
10.4709,128.180404,37.939229,6798.141242400001,146.673,-12.331,194.707
10.4876,128.18039,37.939183,6796.725751200001,145.444,-12.357,194.718
10.5042,128.180377,37.939137,6795.3066024,144.399,-12.399,194.707
10.5209,128.180363,37.939091,6793.8831864,143.531,-12.455,194.671
10.5376,128.18035,37.939045,6792.4555032,142.848,-12.521,194.622
10.5544,128.180337,37.938999,6791.0238576,142.356,-12.59,194.567
10.5711,128.180323,37.938952,6789.5882496,142.055,-12.658,194.512
10.5878,128.18031,37.938906,6788.148984000001,141.942,-12.725,194.459
10.6045,128.180296,37.93886,6786.706670400001,142.006,-12.79,194.409
10.6212,128.180283,37.938814,6785.2613088,142.241,-12.854,194.361
10.6379,128.180269,37.938768,6783.813204,142.638,-12.916,194.316
10.6546,128.180256,37.938722,6782.362965600001,143.188,-12.978,194.272
10.6713,128.180242,37.938676,6780.9102888,143.884,-13.039,194.23
10.6879,128.180228,37.93863,6779.456088000001,144.719,-13.099,194.188
10.7046,128.180215,37.938583,6778.0000584,145.687,-13.158,194.148
10.7213,128.180201,37.938537,6776.5431144,146.781,-13.217,194.108
10.7381,128.180188,37.938491,6775.0849512,147.995,-13.274,194.07
10.7548,128.180174,37.938445,6773.626483200001,149.323,-13.33,194.032
10.7715,128.180161,37.938399,6772.1674056,150.759,-13.385,193.994
10.7882,128.180147,37.938352,6770.708328000001,152.299,-13.439,193.957
10.8049,128.180134,37.938306,6769.2489456,153.936,-13.491,193.919
10.8216,128.18012,37.93826,6767.7895632,155.666,-13.542,193.882
10.8383,128.180107,37.938214,6766.3295712,157.484,-13.591,193.846
10.855,128.180093,37.938167,6764.869884000001,159.385,-13.64,193.809
10.8717,128.18008,37.938121,6763.409587200001,161.364,-13.686,193.772
10.8883,128.180066,37.938075,6761.9480712,163.188,-13.723,193.763
10.905,128.180053,37.938028,6760.485336000001,164.863,-13.751,193.781
10.9218,128.180039,37.937982,6759.0213816000005,166.378,-13.775,193.816
10.9385,128.180026,37.937936,6757.5555984,167.724,-13.797,193.857
10.9552,128.180012,37.937889,6756.087986400001,168.899,-13.819,193.898
10.9719,128.179999,37.937843,6754.6182408,169.907,-13.843,193.936
10.9886,128.179985,37.937797,6753.145752000001,170.754,-13.868,193.972
11.0053,128.179972,37.93775,6751.670215200001,171.448,-13.895,194.005
11.022,128.179958,37.937704,6750.1916304,171.995,-13.924,194.037
11.0387,128.179945,37.937657,6748.709388000001,172.402,-13.955,194.068
11.0554,128.179931,37.937611,6747.223183200001,172.676,-13.987,194.097
11.072,128.179917,37.937565,6745.7324064,172.822,-14.02,194.126
11.0887,128.179904,37.937518,6744.2373624,172.845,-14.054,194.155
11.1054,128.17989,37.937472,6742.7374416,172.751,-14.089,194.183
11.1222,128.179877,37.937426,6741.2323392,172.545,-14.125,194.21
11.1389,128.179863,37.937379,6739.7214456,172.232,-14.162,194.236
11.1556,128.17985,37.937333,6738.204760800001,171.815,-14.199,194.262
11.1723,128.179836,37.937287,6736.6822848,171.301,-14.237,194.288
11.189,128.179822,37.93724,6735.1540176,170.694,-14.275,194.313
11.2057,128.179809,37.937194,6733.6196544,169.997,-14.314,194.338
11.2224,128.179795,37.937148,6732.079804800001,169.215,-14.353,194.362
11.2391,128.179781,37.937102,6730.534164000001,168.352,-14.391,194.386
11.2557,128.179768,37.937055,6728.9830368,167.411,-14.43,194.41
11.2724,128.179754,37.937009,6727.425813600001,166.398,-14.468,194.434
11.2891,128.17974,37.936963,6725.863104,165.314,-14.506,194.457
11.3059,128.179727,37.936917,6724.2946032,164.165,-14.543,194.481
11.3226,128.179713,37.936871,6722.720616,162.952,-14.58,194.504
11.3393,128.179699,37.936824,6721.140532800001,161.68,-14.616,194.527
11.356,128.179686,37.936778,6719.555268,160.352,-14.651,194.549
11.3727,128.179672,37.936732,6717.9639072,158.971,-14.686,194.572
11.3894,128.179658,37.936686,6716.3670600000005,157.539,-14.719,194.594
11.4061,128.179644,37.93664,6714.7647264,156.06,-14.751,194.616
11.4228,128.179631,37.936594,6713.156601600001,154.536,-14.782,194.638
11.4394,128.179617,37.936548,6711.5445144000005,153.202,-14.824,194.633
11.4561,128.179603,37.936502,6709.9278552000005,152.05,-14.879,194.6
11.4728,128.179589,37.936456,6708.306624000001,151.09,-14.94,194.552
11.4896,128.179575,37.93641,6706.6814304,150.327,-15.002,194.499
11.5063,128.179561,37.936364,6705.052274400001,149.762,-15.064,194.446
11.523,128.179548,37.936317,6703.419460800001,149.39,-15.124,194.396
11.5397,128.179534,37.936271,6701.7832944,149.202,-15.183,194.349
11.5564,128.17952,37.936225,6700.14408,149.189,-15.24,194.306
11.5731,128.179506,37.936179,6698.5021224,149.341,-15.297,194.264
11.5898,128.179492,37.936133,6696.8580312,149.652,-15.352,194.224
11.6065,128.179478,37.936087,6695.211501600001,150.112,-15.407,194.185
11.6231,128.179464,37.936041,6693.5631432,150.715,-15.462,194.146
11.6398,128.17945,37.935995,6691.913260800001,151.454,-15.515,194.109
11.6565,128.179436,37.935949,6690.262464,152.323,-15.567,194.072
11.6733,128.179422,37.935903,6688.610447999999,153.315,-15.618,194.036
11.69,128.179408,37.935857,6686.9575176,154.425,-15.668,194.001
11.7067,128.179395,37.935811,6685.3045872,155.646,-15.716,193.965
11.7234,128.179381,37.935765,6683.651656800001,156.972,-15.762,193.93
11.7401,128.179367,37.935718,6681.997812,158.4,-15.807,193.895
11.7568,128.179353,37.935672,6680.3439672,159.922,-15.851,193.86
11.7735,128.179339,37.935626,6678.6898176,161.535,-15.892,193.825
11.7902,128.179325,37.93558,6677.035363200001,163.233,-15.932,193.79
11.8068,128.179311,37.935533,6675.3802992,165.011,-15.971,193.755
11.8235,128.179297,37.935487,6673.7252352000005,166.866,-16.007,193.72
11.8402,128.179283,37.935441,6672.0695616,168.793,-16.042,193.685
11.857,128.17927,37.935395,6670.412364000001,170.55,-16.069,193.68
11.8737,128.179256,37.935348,6668.753642400001,172.143,-16.092,193.705
11.8904,128.179242,37.935302,6667.093701600001,173.562,-16.111,193.747
11.9071,128.179228,37.935256,6665.431322400001,174.798,-16.129,193.795
11.9238,128.179214,37.935209,6663.766809600001,175.851,-16.147,193.842
11.9405,128.1792,37.935163,6662.0995536,176.726,-16.167,193.885
11.9572,128.179186,37.935117,6660.4292496,177.429,-16.187,193.925
11.9739,128.179172,37.93507,6658.755592800001,177.969,-16.21,193.962
11.9905,128.179158,37.935024,6657.0782784,178.356,-16.234,193.997
12.0072,128.179145,37.934978,6655.3970016,178.595,-16.259,194.032
12.0239,128.179131,37.934931,6653.7114576,178.694,-16.286,194.065
12.0407,128.179117,37.934885,6652.021036800001,178.66,-16.313,194.098
12.0574,128.179103,37.934839,6650.3257392,178.497,-16.342,194.13
12.0741,128.179089,37.934792,6648.625260000001,178.211,-16.372,194.161
12.0908,128.179075,37.934746,6646.9192944,177.809,-16.403,194.191
12.1075,128.179061,37.9347,6645.2072328,177.296,-16.434,194.221
12.1242,128.179047,37.934653,6643.488770400001,176.676,-16.467,194.249
12.1409,128.179033,37.934607,6641.764212,175.954,-16.5,194.278
12.1576,128.179019,37.934561,6640.0335576,175.136,-16.533,194.306
12.1743,128.179005,37.934515,6638.297112,174.226,-16.567,194.333
12.1909,128.178991,37.934468,6636.554265600001,173.228,-16.601,194.36
12.2076,128.178977,37.934422,6634.805628,172.147,-16.636,194.387
12.2243,128.178963,37.934376,6633.0508944,170.988,-16.67,194.414
12.2411,128.178949,37.93433,6631.2900648,169.753,-16.704,194.44
12.2578,128.178936,37.934284,6629.523444,168.447,-16.738,194.467
12.2745,128.178922,37.934238,6627.7501176000005,167.073,-16.783,194.495
12.2912,128.178908,37.934192,6625.970695200001,165.635,-16.841,194.527
12.3079,128.178894,37.934145,6624.184872,164.135,-16.912,194.563
12.3246,128.17888,37.934099,6622.392648,162.577,-16.995,194.604
12.3413,128.178866,37.934053,6620.5940232,160.965,-17.089,194.649
12.358,128.178851,37.934007,6618.788692800001,159.301,-17.193,194.699
12.3746,128.178837,37.933961,6616.9787904,157.835,-17.3,194.721
12.3913,128.178823,37.933915,6615.163706400001,156.56,-17.394,194.705
12.408,128.178809,37.933869,6613.3434408,155.485,-17.47,194.663
12.4248,128.178795,37.933823,6611.5182984,154.617,-17.53,194.609
12.4415,128.178781,37.933777,6609.688584,153.952,-17.58,194.552
12.4582,128.178767,37.933731,6607.8546024,153.484,-17.624,194.497
12.4749,128.178753,37.933685,6606.0166584,153.203,-17.664,194.445
12.4916,128.178739,37.933639,6604.175056800001,153.099,-17.704,194.396
12.5083,128.178724,37.933593,6602.3301024,153.163,-17.744,194.35
12.525,128.17871,37.933547,6600.4824048,153.385,-17.784,194.305
12.5417,128.178696,37.933501,6598.631964,153.759,-17.824,194.262
12.5583,128.178682,37.933455,6596.7790847999995,154.277,-17.864,194.22
12.575,128.178668,37.933409,6594.924376800001,154.932,-17.903,194.179
12.5917,128.178653,37.933363,6593.0681448000005,155.719,-17.942,194.138
12.6085,128.178639,37.933317,6591.2103888,156.63,-17.981,194.099
12.6252,128.178625,37.93327,6589.3514136,157.66,-18.019,194.061
12.6419,128.178611,37.933224,6587.492133600001,158.803,-18.055,194.023
12.6586,128.178597,37.933178,6585.632244,160.053,-18.09,193.985
12.6753,128.178583,37.933132,6583.77144,161.404,-18.124,193.948
12.692,128.178568,37.933086,6581.9097216,162.852,-18.156,193.912
12.7087,128.178554,37.933039,6580.0476984,164.392,-18.188,193.875
12.7254,128.17854,37.932993,6578.184760800001,166.019,-18.217,193.839
12.742,128.178526,37.932947,6576.3209088,167.727,-18.245,193.803
12.7587,128.178512,37.932901,6574.456752000001,169.513,-18.272,193.767
12.7754,128.178498,37.932854,6572.5916808,171.372,-18.296,193.732
12.7922,128.178483,37.932808,6570.7241712,173.054,-18.332,193.733
12.8089,128.178469,37.932762,6568.854832800001,174.564,-18.378,193.768
12.8256,128.178455,37.932715,6566.983360800001,175.889,-18.424,193.821
12.8423,128.178441,37.932669,6565.1094504,177.022,-18.463,193.877
12.859,128.178427,37.932623,6563.232492000001,177.963,-18.49,193.93
12.8757,128.178413,37.932576,6561.3524856,178.718,-18.509,193.977
12.8924,128.178398,37.93253,6559.4688216,179.295,-18.523,194.019
12.9091,128.178384,37.932483,6557.5811952,179.705,-18.537,194.059
12.9257,128.17837,37.932437,6555.6893016,179.956,-18.55,194.097
12.9424,128.178356,37.932391,6553.7928360000005,-179.942,-18.565,194.133
12.9591,128.178341,37.932344,6551.8914936,-179.984,-18.582,194.169
12.9759,128.178327,37.932298,6549.985274400001,179.836,-18.6,194.204
12.9926,128.178313,37.932251,6548.073264000001,179.527,-18.619,194.239
13.0093,128.178299,37.932205,6546.1554624,179.093,-18.64,194.272
13.026,128.178285,37.932159,6544.2315648,178.54,-18.662,194.305
13.0427,128.17827,37.932112,6542.3015712,177.874,-18.685,194.337
13.0594,128.178256,37.932066,6540.3645672,177.1,-18.709,194.368
13.0761,128.178242,37.93202,6538.4208576,176.223,-18.735,194.399
13.0928,128.178228,37.931973,6536.471356800001,175.514,-18.78,194.408
13.1095,128.178213,37.931927,6534.5154552,174.966,-18.863,194.398
13.1262,128.178199,37.931881,6532.5534576,174.577,-19.0,194.374
13.1429,128.178185,37.931835,6530.585059200001,174.349,-19.207,194.346
13.1596,128.178171,37.931788,6528.6099552000005,174.284,-19.497,194.325
13.1763,128.178156,37.931742,6526.627536,174.376,-19.881,194.314
13.193,128.178142,37.931696,6524.637496800001,174.618,-20.362,194.313
13.2097,128.178128,37.93165,6522.639532800001,175.002,-20.924,194.319
13.2264,128.178114,37.931604,6520.6333392,175.504,-21.549,194.331
13.2431,128.178099,37.931557,6518.618001600001,176.094,-22.213,194.346
13.2598,128.178085,37.931511,6516.59352,176.741,-22.891,194.362
13.2765,128.178071,37.931465,6514.5595896,177.421,-23.559,194.376
13.2932,128.178057,37.931419,6512.513772,178.112,-24.194,194.386
13.3099,128.178042,37.931373,6510.4566768,178.798,-24.772,194.389
13.3266,128.178028,37.931327,6508.38678,179.466,-25.285,194.385
13.3433,128.178014,37.931281,6506.3037768,-179.89,-25.743,194.374
13.36,128.178,37.931235,6504.2070576,-179.276,-26.16,194.356
13.3767,128.177985,37.931189,6502.0963176000005,-178.693,-26.547,194.332
13.3934,128.177971,37.931143,6499.971252000001,-178.141,-26.911,194.303
13.4101,128.177957,37.931097,6497.831556000001,-177.618,-27.257,194.269
13.4268,128.177943,37.931051,6495.676924800001,-177.122,-27.588,194.231
13.4435,128.177929,37.931005,6493.5073584,-176.653,-27.905,194.19
13.4602,128.177914,37.93096,6491.322247200001,-176.208,-28.21,194.145
13.4769,128.1779,37.930914,6489.122810400001,-175.694,-28.503,194.09
13.4936,128.177886,37.930868,6486.9087432,-175.118,-28.785,194.025
13.5103,128.177872,37.930823,6484.680655200001,-174.494,-29.057,193.954
13.527,128.177858,37.930777,6482.438241600001,-173.836,-29.32,193.883
13.5437,128.177844,37.930732,6480.1802832,-173.159,-29.575,193.811
13.5604,128.17783,37.930686,6477.90678,-172.477,-29.824,193.741
13.5771,128.177816,37.930641,6475.617732000001,-171.802,-30.065,193.671
13.5938,128.177802,37.930595,6473.3125296,-171.143,-30.3,193.6
13.6105,128.177788,37.93055,6470.9914776000005,-170.507,-30.53,193.528
13.6272,128.177774,37.930505,6468.653661599999,-169.9,-30.754,193.455
13.6439,128.17776,37.93046,6466.299996000001,-169.325,-30.974,193.38
13.6606,128.177747,37.930414,6463.9295664,-168.783,-31.19,193.303
13.6773,128.177733,37.930369,6461.5429824,-168.275,-31.402,193.223
13.694,128.177719,37.930324,6459.1399392,-167.8,-31.611,193.142
13.7107,128.177706,37.930279,6456.7204368,-167.357,-31.817,193.058
13.7274,128.177692,37.930234,6454.2844752,-166.943,-32.02,192.972
13.7441,128.177679,37.93019,6451.832054400001,-166.555,-32.222,192.887
13.7608,128.177665,37.930145,6449.363784000001,-166.19,-32.422,192.801
13.7775,128.177652,37.9301,6446.8787496,-165.849,-32.62,192.716
13.7942,128.177638,37.930055,6444.3778656,-165.529,-32.816,192.63
13.8109,128.177625,37.930011,6441.8605224,-165.23,-33.01,192.542
13.8276,128.177612,37.929966,6439.327024800001,-164.949,-33.203,192.453
13.8443,128.177599,37.929922,6436.7773728,-164.685,-33.394,192.363
13.861,128.177586,37.929877,6434.2115664,-164.436,-33.583,192.272
13.8777,128.177573,37.929833,6431.629605600001,-164.2,-33.771,192.18
13.8944,128.17756,37.929788,6429.0317952000005,-163.976,-33.958,192.087
13.9111,128.177547,37.929744,6426.4178304,-163.763,-34.144,191.993
13.9278,128.177534,37.9297,6423.7880159999995,-163.559,-34.328,191.899
13.9445,128.177521,37.929656,6421.142352000001,-163.363,-34.511,191.804
13.9612,128.177508,37.929612,6418.480533600001,-163.175,-34.693,191.709
13.9779,128.177496,37.929568,6415.802865600001,-162.994,-34.875,191.613
13.9946,128.177483,37.929524,6413.109348,-162.819,-35.055,191.516
14.0113,128.17747,37.92948,6410.3999808,-162.65,-35.234,191.42
14.028,128.177458,37.929436,6407.6750688,-162.485,-35.413,191.323
14.0447,128.177446,37.929392,6404.934002399999,-162.325,-35.591,191.225
14.0614,128.177433,37.929348,6402.177391200001,-162.17,-35.768,191.127
14.0781,128.177421,37.929305,6399.4049304,-162.018,-35.944,191.029
14.0948,128.177409,37.929261,6396.616924800001,-161.87,-36.12,190.931
14.1115,128.177397,37.929218,6393.813069600001,-161.725,-36.295,190.832
14.1282,128.177385,37.929174,6390.9936696,-161.583,-36.47,190.733
14.1449,128.177373,37.929131,6388.1587248000005,-161.444,-36.644,190.634
14.1616,128.177361,37.929087,6385.3082352,-161.307,-36.817,190.535
14.1783,128.177349,37.929044,6382.441896,-161.173,-36.99,190.435
14.195,128.177337,37.929001,6379.5603168,-161.042,-37.163,190.335
14.2117,128.177325,37.928958,6376.663192800001,-160.912,-37.335,190.235
14.2284,128.177314,37.928915,6373.750524000001,-160.785,-37.507,190.135
14.2451,128.177302,37.928872,6370.822310400001,-160.659,-37.679,190.034
14.2618,128.177291,37.928829,6367.878856800001,-160.536,-37.85,189.933
14.2785,128.177279,37.928786,6364.9198584000005,-160.414,-38.021,189.832
14.2952,128.177268,37.928743,6361.94562,-160.294,-38.192,189.73
14.3119,128.177257,37.9287,6358.955836800001,-160.175,-38.362,189.629
14.3286,128.177246,37.928657,6355.9508136,-160.058,-38.532,189.527
14.3453,128.177235,37.928615,6352.9308552,-159.942,-38.702,189.425
14.362,128.177223,37.928572,6349.8953520000005,-159.828,-38.872,189.322
14.3787,128.177213,37.92853,6346.8446088,-159.715,-39.041,189.219
14.3954,128.177202,37.928487,6343.7786256,-159.603,-39.211,189.116
14.4121,128.177191,37.928445,6340.6977072,-159.492,-39.38,189.013
14.4288,128.17718,37.928403,6337.6015488,-159.383,-39.549,188.91
14.4455,128.177169,37.928361,6334.490150400001,-159.274,-39.717,188.806
14.4622,128.177159,37.928318,6331.3638168,-159.167,-39.886,188.702
14.4789,128.177148,37.928276,6328.222548,-159.061,-40.054,188.597
14.4956,128.177138,37.928234,6325.0660392,-158.955,-40.222,188.492
14.5123,128.177128,37.928193,6321.8945952,-158.851,-40.391,188.388
14.529,128.177117,37.928151,6318.708216,-158.748,-40.559,188.282
14.5457,128.177107,37.928109,6315.5072064000005,-158.645,-40.726,188.177
14.5624,128.177097,37.928067,6312.2909568000005,-158.543,-40.894,188.071
14.5791,128.177087,37.928026,6309.0597720000005,-158.442,-41.062,187.965
14.5958,128.177077,37.927984,6305.813956800001,-158.342,-41.229,187.858
14.6125,128.177067,37.927943,6302.553511200001,-158.242,-41.397,187.751
14.6292,128.177058,37.927901,6299.2778256,-158.143,-41.564,187.644
14.6459,128.177048,37.92786,6295.9878144,-158.045,-41.731,187.537
14.6626,128.177038,37.927819,6292.682868,-157.947,-41.898,187.429
14.6793,128.177029,37.927777,6289.3632912,-157.85,-42.065,187.321
14.696,128.177019,37.927736,6286.029084000001,-157.754,-42.232,187.212
14.7127,128.17701,37.927695,6282.6802464,-157.658,-42.399,187.103
14.7294,128.177001,37.927654,6279.3170832000005,-157.563,-42.566,186.994
14.7461,128.176992,37.927613,6275.9389848,-157.468,-42.732,186.884
14.7628,128.176982,37.927573,6272.5465608,-157.373,-42.899,186.774
14.7795,128.176973,37.927532,6269.139506400001,-157.279,-43.066,186.664
14.7962,128.176964,37.927491,6265.7181264,-157.186,-43.232,186.553
14.8129,128.176956,37.927451,6262.282115999999,-157.092,-43.398,186.442
14.8296,128.176947,37.92741,6258.8317799999995,-157.0,-43.565,186.331
14.8463,128.176938,37.92737,6255.3671184,-156.907,-43.731,186.219
14.863,128.17693,37.927329,6251.8881312,-156.815,-43.897,186.107
14.8797,128.176921,37.927289,6248.3948184,-156.723,-44.064,185.995
14.8964,128.176913,37.927249,6244.88718,-156.631,-44.23,185.882
14.9131,128.176904,37.927209,6241.365216,-156.539,-44.396,185.77
14.9298,128.176896,37.927169,6237.8292312,-156.448,-44.562,185.657
14.9465,128.176888,37.927129,6234.2789207999995,-156.357,-44.728,185.543
14.9632,128.17688,37.927089,6230.7145896,-156.266,-44.895,185.429
14.9799,128.176872,37.927049,6227.135932800001,-156.176,-45.061,185.315
14.9966,128.176864,37.92701,6223.5432552,-156.086,-45.227,185.201
15.0133,128.176856,37.92697,6219.936556800001,-155.996,-45.393,185.086
15.03,128.176848,37.926931,6216.315837600001,-155.906,-45.559,184.971
15.0467,128.17684,37.926891,6212.681097600001,-155.816,-45.725,184.856
15.0634,128.176833,37.926852,6209.032336800001,-155.727,-45.891,184.74
15.0801,128.176825,37.926813,6205.369860000001,-155.638,-46.057,184.623
15.0968,128.176818,37.926773,6201.6933624,-155.548,-46.223,184.507
15.1135,128.176811,37.926734,6198.002844,-155.459,-46.389,184.39
15.1302,128.176803,37.926695,6194.2986096,-155.37,-46.555,184.272
15.1469,128.176796,37.926656,6190.5803544,-155.281,-46.721,184.154
15.1636,128.176789,37.926618,6186.848688000001,-155.192,-46.887,184.036
15.1803,128.176782,37.926579,6183.103000800001,-155.103,-47.053,183.917
