Time,Longitude,Latitude,Altitude,Roll (deg),Pitch (deg),Yaw (deg)
0.0,128.181881,37.923466,7000.0816056,0.0,-0.003,179.999
0.0167,128.181881,37.923421,7000.0630128,0.0,-0.012,180.0
0.0334,128.181881,37.923376,7000.043505600001,0.0,-0.026,180.0
0.0501,128.181881,37.923331,7000.0233888,0.0,-0.042,180.0
0.0668,128.181881,37.923286,7000.0023576,0.0,-0.06,180.0
0.0834,128.181881,37.923241,6999.9801072,0.0,-0.08,180.0
0.1002,128.181881,37.923196,6999.957247200001,0.0,-0.1,180.0
0.1169,128.181881,37.923151,6999.9334728,0.0,-0.12,180.0
0.1336,128.181881,37.923106,6999.908479200001,0.0,-0.14,180.0
0.1503,128.181881,37.923061,6999.882876,0.0,-0.161,180.0
0.1669,128.181881,37.923016,6999.8560536,0.0,-0.181,180.0
0.1837,128.181881,37.922971,6999.8286216,0.0,-0.201,180.0
0.2004,128.181881,37.922926,6999.799970400001,0.0,-0.221,180.0
0.2171,128.181881,37.922881,6999.7704048000005,0.0,-0.24,180.0
0.2338,128.181881,37.922836,6999.739620000001,0.0,-0.26,180.0
0.2505,128.181881,37.922791,6999.7082256,0.0,-0.279,180.0
0.2672,128.181881,37.922746,6999.675612,0.0,-0.297,180.0
0.2839,128.181881,37.922701,6999.641779200001,0.0,-0.316,180.0
0.3006,128.181881,37.922656,6999.607336800001,0.0,-0.334,180.0
0.3172,128.181881,37.922611,6999.5716752,0.0,-0.352,180.0
0.3339,128.181881,37.922566,6999.5347944000005,0.0,-0.37,180.0
0.3507,128.181881,37.922521,6999.496999200001,0.0,-0.387,180.0
0.3674,128.181881,37.922475,6999.4582896,0.0,-0.405,180.0
0.3841,128.181881,37.92243,6999.418360800001,0.001,-0.422,180.0
0.4008,128.181881,37.922385,6999.3775176,0.001,-0.439,180.0
0.4175,128.181881,37.92234,6999.3354552,0.001,-0.455,180.0
0.4342,128.181881,37.922295,6999.292173600001,0.001,-0.472,180.0
0.4509,128.181881,37.92225,6999.2479776,0.001,-0.488,180.0
0.4676,128.181881,37.922204,6999.2028672,0.001,-0.505,180.0
0.4843,128.181881,37.922159,6999.156537600001,0.002,-0.521,180.0
0.501,128.181881,37.922114,6999.1089888,0.002,-0.537,180.0
0.5176,128.181881,37.922069,6999.0602208,0.002,-0.553,180.0
0.5344,128.181881,37.922024,6999.010538400001,0.002,-0.568,180.0
0.5511,128.181881,37.921978,6998.9599416,0.003,-0.584,180.0
0.5678,128.181881,37.921933,6998.9081256,0.003,-0.599,180.0
0.5845,128.181881,37.921888,6998.8550904,0.003,-0.615,180.0
0.6012,128.181881,37.921843,6998.800836,0.004,-0.63,180.0
0.6179,128.181881,37.921797,6998.7456672,0.004,-0.645,180.0
0.6345,128.181881,37.921752,6998.689279200001,0.005,-0.66,180.0
0.6513,128.181881,37.921707,6998.631672,0.005,-0.675,180.0
0.6679,128.181881,37.921662,6998.5731504000005,0.006,-0.69,180.0
0.6847,128.181881,37.921616,6998.5134096,0.006,-0.705,180.0
0.7014,128.181881,37.921571,6998.4524496,0.007,-0.719,180.001
0.7181,128.181881,37.921526,6998.390270400001,0.008,-0.734,180.001
0.7348,128.181881,37.92148,6998.3271768,0.009,-0.748,180.001
0.7514,128.181881,37.921435,6998.262864,0.01,-0.763,180.001
0.7682,128.181881,37.92139,6998.197332000001,0.011,-0.777,180.001
0.7848,128.181881,37.921344,6998.1305808,0.012,-0.791,180.001
0.8016,128.181881,37.921299,6998.062915200001,0.013,-0.806,180.001
0.8183,128.181881,37.921254,6997.9940304,0.014,-0.82,180.001
0.835,128.181881,37.921208,6997.9239264,0.015,-0.834,180.001
0.8517,128.181881,37.921163,6997.852908,0.017,-0.848,180.001
0.8684,128.181881,37.921117,6997.780365600001,0.019,-0.862,180.001
0.8851,128.181881,37.921072,6997.7069088,0.02,-0.876,180.002
0.9018,128.181881,37.921027,6997.632232800001,0.022,-0.89,180.002
0.9185,128.181881,37.920981,6997.556337600001,0.024,-0.904,180.002
0.9352,128.181881,37.920936,6997.479223200001,0.027,-0.918,180.002
0.9519,128.181881,37.92089,6997.4011944,0.029,-0.932,180.002
0.9686,128.181881,37.920845,6997.3219464,0.032,-0.945,180.002
0.9853,128.181881,37.920799,6997.241479200001,0.035,-0.959,180.003
1.002,128.181881,37.920754,6997.159792800001,0.038,-0.973,180.003
1.0187,128.181881,37.920708,6997.076887200001,0.041,-0.987,180.003
1.0353,128.181881,37.920663,6996.9930672,0.045,-1.0,180.003
1.0521,128.181881,37.920617,6996.907723200001,0.049,-1.014,180.003
1.0688,128.181881,37.920572,6996.8214648,0.054,-1.027,180.004
1.0855,128.181881,37.920526,6996.7339872,0.059,-1.041,180.004
1.1022,128.181881,37.920481,6996.6452904,0.064,-1.055,180.004
1.1189,128.181881,37.920435,6996.555374400001,0.07,-1.068,180.005
1.1356,128.181881,37.92039,6996.4642392,0.076,-1.082,180.005
1.1522,128.181881,37.920344,6996.3721896,0.083,-1.095,180.005
1.169,128.181881,37.920299,6996.278616,0.09,-1.109,180.006
1.1857,128.181881,37.920253,6996.184128000001,0.098,-1.122,180.006
1.2024,128.181881,37.920207,6996.0884208,0.107,-1.135,180.007
1.2191,128.181881,37.920162,6995.9914944,0.116,-1.149,180.007
1.2358,128.181881,37.920116,6995.893044,0.126,-1.162,180.008
1.2525,128.181881,37.920071,6995.793679200001,0.138,-1.176,180.009
1.2691,128.181881,37.920025,6995.6930952,0.15,-1.189,180.009
1.2859,128.181881,37.919979,6995.591292000001,0.163,-1.202,180.01
1.3026,128.181881,37.919934,6995.4882696,0.177,-1.216,180.011
1.3193,128.181881,37.919888,6995.3843328,0.193,-1.229,180.012
1.3359,128.181881,37.919842,6995.278872,0.21,-1.242,180.013
1.3527,128.18188,37.919797,6995.172192000001,0.228,-1.256,180.014
1.3694,128.18188,37.919751,6995.064292800001,0.248,-1.269,180.015
1.386,128.18188,37.919705,6994.954869600001,0.27,-1.282,180.016
1.4028,128.18188,37.91966,6994.844532,0.294,-1.296,180.017
1.4195,128.18188,37.919614,6994.7329752,0.319,-1.309,180.018
1.4362,128.18188,37.919568,6994.620199200001,0.347,-1.323,180.02
1.4528,128.18188,37.919522,6994.5058992,0.378,-1.336,180.022
1.4696,128.18188,37.919477,6994.39038,0.411,-1.349,180.023
1.4863,128.18188,37.919431,6994.273641600001,0.446,-1.363,180.025
1.5029,128.18188,37.919385,6994.155684000001,0.485,-1.376,180.027
1.5197,128.18188,37.919339,6994.0362024,0.528,-1.39,180.03
1.5364,128.18188,37.919293,6993.9155016,0.574,-1.403,180.032
1.5531,128.18188,37.919248,6993.7935816,0.624,-1.417,180.035
1.5697,128.18188,37.919202,6993.670137600001,0.678,-1.43,180.038
1.5865,128.18188,37.919156,6993.545474400001,0.737,-1.444,180.041
1.6032,128.18188,37.91911,6993.4192872,0.802,-1.458,180.044
1.6198,128.18188,37.919064,6993.291576,0.872,-1.471,180.048
1.6366,128.18188,37.919019,6993.1626456,0.948,-1.485,180.052
1.6533,128.18188,37.918973,6993.032191200001,1.03,-1.499,180.056
1.67,128.18188,37.918927,6992.9002128,1.12,-1.513,180.061
1.6867,128.18188,37.918881,6992.766710400001,1.218,-1.527,180.066
1.7034,128.18188,37.918835,6992.631684000001,1.324,-1.541,180.071
1.7201,128.18188,37.918789,6992.4948288000005,1.439,-1.556,180.077
1.7368,128.18188,37.918743,6992.356754400001,1.564,-1.57,180.084
1.7535,128.18188,37.918697,6992.216851200001,1.701,-1.585,180.091
1.7702,128.18188,37.918651,6992.075424000001,1.849,-1.599,180.099
1.7869,128.18188,37.918605,6991.9318632,2.01,-1.614,180.107
1.8036,128.18188,37.918559,6991.786778400001,2.185,-1.629,180.116
1.8203,128.18188,37.918513,6991.6398648,2.376,-1.645,180.125
1.837,128.18188,37.918467,6991.491122400001,2.585,-1.66,180.135
1.8537,128.18188,37.918421,6991.340246400001,2.812,-1.676,180.145
1.8704,128.18188,37.918375,6991.1872368,3.06,-1.692,180.155
1.8871,128.18188,37.918329,6991.0323984,3.331,-1.709,180.165
1.9038,128.18188,37.918283,6990.8751216,3.626,-1.725,180.175
1.9205,128.18188,37.918237,6990.7157112,3.947,-1.742,180.186
1.9372,128.18188,37.918191,6990.5538624,4.297,-1.76,180.197
1.9539,128.18188,37.918145,6990.3895752,4.678,-1.778,180.208
1.9706,128.18188,37.918099,6990.2225448,5.094,-1.796,180.22
1.9873,128.18188,37.918053,6990.053076,5.546,-1.815,180.232
2.004,128.18188,37.918007,6989.880559200001,6.039,-1.835,180.245
2.0207,128.18188,37.917961,6989.7049944,6.576,-1.855,180.258
2.0374,128.18188,37.917915,6989.526381600001,7.161,-1.876,180.271
2.0541,128.18188,37.917868,6989.34594,7.715,-1.897,180.28
2.0707,128.18188,37.917822,6989.163364800001,8.238,-1.918,180.285
2.0875,128.18188,37.917776,6988.979265600001,8.734,-1.938,180.287
2.1042,128.18188,37.91773,6988.793947200001,9.21,-1.959,180.288
2.1208,128.18188,37.917684,6988.607714400001,9.67,-1.98,180.29
2.1376,128.18188,37.917637,6988.4196528,10.122,-2.001,180.293
2.1543,128.18188,37.917591,6988.230372,10.57,-2.022,180.297
2.171,128.18188,37.917545,6988.0389576,11.019,-2.044,180.302
2.1877,128.18188,37.917499,6987.8460192,11.473,-2.066,180.308
2.2044,128.18188,37.917452,6987.651252000001,11.936,-2.089,180.315
2.2211,128.18188,37.917406,6987.454351200001,12.411,-2.111,180.322
2.2378,128.18188,37.91736,6987.2556216,12.898,-2.134,180.33
2.2544,128.181879,37.917314,6987.0547584000005,13.401,-2.157,180.337
2.2712,128.181879,37.917267,6986.8517616,13.92,-2.18,180.345
2.2879,128.181879,37.917221,6986.6466312,14.458,-2.204,180.354
2.3045,128.181879,37.917175,6986.439367200001,15.015,-2.228,180.362
2.3213,128.181879,37.917128,6986.229969600001,15.592,-2.252,180.371
2.338,128.181879,37.917082,6986.0181336000005,16.191,-2.276,180.379
2.3546,128.181879,37.917036,6985.8038592,16.812,-2.301,180.388
2.3714,128.181879,37.916989,6985.587451200001,17.456,-2.326,180.397
2.3881,128.181879,37.916943,6985.3683,18.125,-2.351,180.405
2.4048,128.181879,37.916896,6985.147015200001,18.819,-2.377,180.414
2.4215,128.181879,37.91685,6984.9229872000005,19.54,-2.404,180.423
2.4382,128.181879,37.916803,6984.6965208,20.287,-2.431,180.431
2.4549,128.181879,37.916757,6984.467311200001,21.063,-2.458,180.44
2.4716,128.181879,37.916711,6984.2356632,21.869,-2.486,180.449
2.4882,128.181879,37.916664,6984.001272,22.705,-2.515,180.457
2.505,128.181878,37.916618,6983.7638328,23.573,-2.544,180.465
2.5217,128.181878,37.916571,6983.5239552,24.475,-2.574,180.472
2.5383,128.181878,37.916525,6983.2810296,25.41,-2.604,180.48
2.5551,128.181878,37.916478,6983.0353608000005,26.381,-2.635,180.486
2.5718,128.181878,37.916431,6982.7863392,27.389,-2.666,180.492
2.5884,128.181878,37.916385,6982.534574400001,28.434,-2.698,180.498
2.6052,128.181878,37.916338,6982.2797616,29.519,-2.73,180.502
2.6219,128.181878,37.916292,6982.0219008,30.643,-2.764,180.507
2.6386,128.181878,37.916245,6981.760687200001,31.81,-2.797,180.51
2.6553,128.181878,37.916198,6981.4964256,33.019,-2.832,180.513
2.6719,128.181878,37.916152,6981.2291159999995,34.272,-2.867,180.514
2.6887,128.181878,37.916105,6980.9581488,35.57,-2.902,180.515
2.7054,128.181878,37.916058,6980.684133600001,36.915,-2.939,180.515
2.722,128.181878,37.916012,6980.406460800001,38.309,-2.975,180.514
2.7388,128.181878,37.915965,6980.1254352,39.751,-3.013,180.513
2.7555,128.181877,37.915918,6979.841056800001,41.243,-3.051,180.509
2.7721,128.181877,37.915872,6979.5536304,42.783,-3.089,180.505
2.7889,128.181877,37.915825,6979.2625464,44.369,-3.128,180.499
2.8056,128.181877,37.915778,6978.9684144,46.0,-3.166,180.492
2.8222,128.181877,37.915731,6978.6709296,47.674,-3.205,180.484
2.839,128.181877,37.915684,6978.370092000001,49.39,-3.244,180.473
2.8557,128.181877,37.915638,6978.066206400001,51.147,-3.282,180.462
2.8724,128.181877,37.915591,6977.758968,52.942,-3.321,180.449
2.8891,128.181877,37.915544,6977.4483768,54.774,-3.359,180.434
2.9057,128.181877,37.915497,6977.135042400001,56.643,-3.397,180.419
2.9225,128.181877,37.91545,6976.818355200001,58.547,-3.435,180.401
2.9392,128.181877,37.915403,6976.498620000001,60.485,-3.472,180.383
2.9558,128.181877,37.915356,6976.1758368,62.455,-3.509,180.363
2.9726,128.181877,37.915309,6975.8500056,64.457,-3.545,180.342
2.9893,128.181878,37.915262,6975.5211264,66.49,-3.58,180.32
3.0059,128.181878,37.915215,6975.1891992,68.553,-3.615,180.296
3.0227,128.181878,37.915168,6974.854224000001,70.644,-3.649,180.272
3.0394,128.181878,37.915121,6974.5165056000005,72.764,-3.682,180.246
3.056,128.181878,37.915074,6974.1757392,74.91,-3.714,180.22
3.0728,128.181878,37.915027,6973.831924800001,77.083,-3.745,180.193
3.0895,128.181878,37.91498,6973.4853672,79.281,-3.775,180.165
3.1062,128.181878,37.914933,6973.1360664,81.504,-3.804,180.136
3.1229,128.181878,37.914886,6972.7837176,83.751,-3.832,180.106
3.1395,128.181878,37.914839,6972.4286256,86.021,-3.858,180.076
3.1563,128.181878,37.914792,6972.0710952,88.314,-3.884,180.046
3.173,128.181879,37.914745,6971.7105168,90.628,-3.908,180.015
3.1896,128.181879,37.914698,6971.347500000001,92.964,-3.932,179.983
3.2064,128.181879,37.914651,6970.98174,95.32,-3.954,179.952
3.2231,128.181879,37.914603,6970.613541600001,97.696,-3.975,179.922
3.2397,128.181879,37.914556,6970.2426000000005,100.09,-3.996,179.9
3.2565,128.181879,37.914509,6969.868915200001,102.503,-4.019,179.893
3.2732,128.18188,37.914462,6969.493096800001,104.932,-4.046,179.905
3.2899,128.18188,37.914414,6969.1145352,107.377,-4.079,179.937
3.3066,128.18188,37.914367,6968.7335352,109.837,-4.119,179.99
3.3233,128.18188,37.91432,6968.349792000001,112.31,-4.168,180.065
3.34,128.18188,37.914273,6967.9633056,114.797,-4.229,180.159
3.3567,128.18188,37.914225,6967.574076,117.296,-4.302,180.272
3.3734,128.181881,37.914178,6967.1821032,119.798,-4.389,180.403
3.3901,128.181881,37.914131,6966.7861680000005,122.288,-4.491,180.55
3.4068,128.181881,37.914083,6966.3865752,124.75,-4.607,180.711
3.4235,128.181881,37.914036,6965.983020000001,127.171,-4.739,180.886
3.4402,128.181881,37.913989,6965.574588,129.536,-4.888,181.072
3.4569,128.181881,37.913941,6965.160669600001,131.835,-5.055,181.267
3.4736,128.181881,37.913894,6964.741264800001,134.057,-5.239,181.47
3.4903,128.181881,37.913846,6964.3154592,136.194,-5.441,181.678
3.507,128.181881,37.913799,6963.8826432,138.241,-5.661,181.89
3.5237,128.181881,37.913752,6963.4422072,140.192,-5.899,182.104
3.5404,128.18188,37.913704,6962.993846400001,142.047,-6.154,182.317
3.5571,128.18188,37.913657,6962.536646400001,143.803,-6.425,182.528
3.5738,128.18188,37.91361,6962.0706072,145.461,-6.71,182.737
3.5905,128.181879,37.913562,6961.5951192,147.022,-7.01,182.94
3.6072,128.181879,37.913515,6961.109877600001,148.489,-7.321,183.139
3.6239,128.181878,37.913467,6960.613968000001,149.866,-7.643,183.33
3.6406,128.181878,37.91342,6960.1073904,151.156,-7.974,183.514
3.6573,128.181877,37.913373,6959.589840000001,152.364,-8.313,183.69
3.674,128.181876,37.913325,6959.0604023999995,153.494,-8.658,183.858
3.6907,128.181875,37.913278,6958.519687200001,154.551,-9.004,184.016
3.7074,128.181875,37.913231,6957.9664752,155.541,-9.349,184.162
3.7241,128.181874,37.913183,6957.4010712,156.468,-9.688,184.296
3.7408,128.181873,37.913136,6956.822865600001,157.338,-10.02,184.418
3.7575,128.181872,37.913088,6956.2318584,158.154,-10.343,184.528
3.7742,128.181871,37.913041,6955.6280496,158.921,-10.658,184.627
3.7909,128.18187,37.912994,6955.010524800001,159.643,-10.965,184.716
3.8076,128.181868,37.912947,6954.3795887999995,160.323,-11.262,184.794
3.8243,128.181867,37.912899,6953.7352416,160.966,-11.552,184.864
3.841,128.181866,37.912852,6953.076873600001,161.575,-11.833,184.926
3.8577,128.181865,37.912805,6952.4044848,162.152,-12.107,184.981
3.8744,128.181863,37.912757,6951.7180751999995,162.7,-12.374,185.029
3.8911,128.181862,37.91271,6951.0182544,163.299,-12.636,185.067
3.9078,128.18186,37.912663,6950.3050224,163.944,-12.893,185.094
3.9245,128.181859,37.912616,6949.578684000001,164.627,-13.145,185.113
3.9412,128.181857,37.912568,6948.8389344,165.336,-13.391,185.128
3.9579,128.181856,37.912521,6948.085468800001,166.06,-13.632,185.139
3.9746,128.181854,37.912474,6947.3176776,166.789,-13.868,185.147
3.9913,128.181852,37.912427,6946.535256000001,167.514,-14.099,185.153
4.008,128.181851,37.91238,6945.738204,168.227,-14.327,185.155
4.0247,128.181849,37.912333,6944.9262168,168.921,-14.551,185.155
4.0414,128.181847,37.912285,6944.0989896,169.591,-14.772,185.153
4.058,128.181845,37.912238,6943.2565224,170.234,-14.99,185.147
4.0748,128.181844,37.912191,6942.3985104,170.848,-15.207,185.139
4.0915,128.181842,37.912144,6941.5249536,171.43,-15.421,185.128
4.1082,128.18184,37.912097,6940.6355472000005,171.98,-15.633,185.115
4.1249,128.181838,37.91205,6939.7309008,172.5,-15.844,185.099
4.1415,128.181836,37.912003,6938.8104048000005,172.989,-16.054,185.08
4.1583,128.181834,37.911956,6937.874364,173.45,-16.263,185.061
4.175,128.181832,37.911909,6936.922473600001,173.885,-16.47,185.042
4.1917,128.18183,37.911862,6935.955038400001,174.294,-16.676,185.021
4.2084,128.181828,37.911815,6934.9717536,174.679,-16.881,184.999
4.2251,128.181826,37.911769,6933.972619200001,175.041,-17.085,184.976
4.2417,128.181824,37.911722,6932.95794,175.38,-17.288,184.951
4.2585,128.181822,37.911675,6931.927411200001,175.699,-17.489,184.925
4.2752,128.18182,37.911628,6930.881337600001,175.999,-17.69,184.898
4.2919,128.181818,37.911581,6929.819414400001,176.282,-17.89,184.869
4.3086,128.181816,37.911535,6928.7419464,176.55,-18.089,184.84
4.3252,128.181813,37.911488,6927.648628800001,176.803,-18.286,184.809
4.342,128.181811,37.911441,6926.5397664,177.043,-18.483,184.777
4.3587,128.181809,37.911394,6925.4153592,177.272,-18.678,184.745
4.3754,128.181807,37.911348,6924.2751024,177.49,-18.872,184.711
4.3921,128.181805,37.911301,6923.119300800001,177.698,-19.066,184.678
4.4088,128.181803,37.911255,6921.947649600001,177.898,-19.258,184.643
4.4254,128.1818,37.911208,6920.7604536,178.089,-19.449,184.608
4.4422,128.181798,37.911161,6919.5577128,178.273,-19.639,184.573
4.4589,128.181796,37.911115,6918.3394272000005,178.451,-19.828,184.537
4.4756,128.181794,37.911068,6917.105292,178.622,-20.017,184.501
4.4923,128.181791,37.911022,6915.855612,178.788,-20.204,184.464
4.5089,128.181789,37.910976,6914.590387200001,178.949,-20.391,184.428
4.5256,128.181787,37.910929,6913.3096176,179.105,-20.576,184.391
4.5424,128.181785,37.910883,6912.0129984,179.258,-20.761,184.355
4.5591,128.181782,37.910837,6910.7011391999995,179.407,-20.945,184.319
4.5758,128.18178,37.91079,6909.3734304,179.554,-21.129,184.284
4.5925,128.181778,37.910744,6908.0301768,179.697,-21.311,184.25
4.6091,128.181776,37.910698,6906.6713784,179.838,-21.494,184.216
4.6259,128.181773,37.910652,6905.2970352,179.976,-21.675,184.183
4.6426,128.181771,37.910605,6903.906842400001,-179.888,-21.856,184.151
4.6593,128.181769,37.910559,6902.5014096,-179.755,-22.037,184.119
4.676,128.181767,37.910513,6901.080432000001,-179.624,-22.217,184.088
4.6927,128.181764,37.910467,6899.6436048000005,-179.496,-22.396,184.057
4.7093,128.181762,37.910421,6898.191537600001,-179.37,-22.575,184.027
4.7261,128.18176,37.910375,6896.7239256,-179.245,-22.754,183.998
4.7428,128.181757,37.910329,6895.2407688,-179.123,-22.932,183.969
4.7595,128.181755,37.910283,6893.7417624,-179.002,-23.11,183.94
4.7762,128.181753,37.910237,6892.227516,-178.883,-23.288,183.913
4.7928,128.181751,37.910191,6890.697724800001,-178.767,-23.466,183.885
4.8096,128.181748,37.910145,6889.1526936,-178.651,-23.643,183.859
4.8263,128.181746,37.9101,6887.5918128,-178.538,-23.82,183.832
4.843,128.181744,37.910054,6886.015692000001,-178.427,-23.997,183.807
4.8597,128.181741,37.910008,6884.4237216,-178.317,-24.173,183.781
4.8764,128.181739,37.909963,6882.816511200001,-178.209,-24.349,183.756
4.893,128.181737,37.909917,6881.1940608,-178.103,-24.526,183.732
4.9098,128.181735,37.909871,6879.555760800001,-177.999,-24.702,183.708
4.9265,128.181732,37.909826,6877.9022208,-177.897,-24.877,183.684
4.9432,128.18173,37.90978,6876.233136,-177.798,-25.053,183.66
4.9599,128.181728,37.909735,6874.5485064,-177.7,-25.229,183.636
4.9765,128.181726,37.909689,6872.8486368,-177.605,-25.404,183.612
4.9932,128.181723,37.909644,6871.133222400001,-177.512,-25.579,183.587
5.01,128.181721,37.909598,6869.402568,-177.421,-25.754,183.563
5.0267,128.181719,37.909553,6867.656368800001,-177.332,-25.929,183.538
5.0434,128.181717,37.909508,6865.894624800001,-177.245,-26.104,183.514
5.0601,128.181714,37.909463,6864.1176408,-177.16,-26.279,183.489
5.0767,128.181712,37.909417,6862.3254168,-177.077,-26.454,183.464
5.0935,128.18171,37.909372,6860.517648,-176.995,-26.628,183.439
5.1102,128.181708,37.909327,6858.6946392,-176.916,-26.803,183.414
5.1269,128.181706,37.909282,6856.8560856,-176.838,-26.977,183.389
5.1436,128.181703,37.909237,6855.002292000001,-176.762,-27.152,183.364
5.1602,128.181701,37.909192,6853.1332584,-176.688,-27.326,183.338
5.1769,128.181699,37.909147,6851.24868,-176.616,-27.5,183.313
5.1937,128.181697,37.909102,6849.3488615999995,-176.546,-27.674,183.287
5.2104,128.181695,37.909057,6847.4338032,-176.477,-27.848,183.262
5.2271,128.181693,37.909012,6845.5035048,-176.411,-28.022,183.237
5.2438,128.18169,37.908968,6843.5579664,-176.346,-28.196,183.211
5.2604,128.181688,37.908923,6841.596883200001,-176.283,-28.37,183.185
5.2772,128.181686,37.908878,6839.62056,-176.222,-28.544,183.16
5.2939,128.181684,37.908834,6837.628996800001,-176.163,-28.718,183.134
5.3106,128.181682,37.908789,6835.6221936,-176.105,-28.891,183.109
5.3273,128.18168,37.908744,6833.6004552,-176.05,-29.065,183.083
5.3439,128.181678,37.9087,6831.563172,-175.996,-29.239,183.057
5.3606,128.181676,37.908656,6829.5106488,-175.944,-29.412,183.032
5.3774,128.181673,37.908611,6827.4428856,-175.894,-29.586,183.006
5.3941,128.181671,37.908567,6825.360187200001,-175.845,-29.759,182.98
5.4108,128.181669,37.908522,6823.261944,-175.799,-29.933,182.955
5.4275,128.181667,37.908478,6821.148765600001,-175.754,-30.106,182.929
5.4441,128.181665,37.908434,6819.020347200001,-175.711,-30.279,182.903
5.4609,128.181663,37.90839,6816.8766888,-175.67,-30.453,182.878
5.4776,128.181661,37.908346,6814.7180952,-175.63,-30.626,182.852
5.4943,128.181659,37.908302,6812.5442616,-175.592,-30.799,182.827
5.511,128.181657,37.908258,6810.355188,-175.556,-30.972,182.802
5.5277,128.181655,37.908214,6808.150874400001,-175.522,-31.146,182.776
5.5443,128.181653,37.90817,6805.9319304,-175.489,-31.319,182.751
5.5611,128.181651,37.908126,6803.6974416,-175.457,-31.492,182.726
5.5778,128.181649,37.908082,6801.448017600001,-175.428,-31.665,182.7
5.5945,128.181647,37.908038,6799.1836584,-175.4,-31.838,182.675
5.6112,128.181646,37.907995,6796.9040592,-175.373,-32.011,182.65
5.6278,128.181644,37.907951,6794.609524800001,-175.348,-32.184,182.625
5.6445,128.181642,37.907908,6792.3000552,-175.324,-32.357,182.6
5.6613,128.18164,37.907864,6789.975345600001,-175.302,-32.53,182.575
5.678,128.181638,37.907821,6787.6360056,-175.281,-32.703,182.55
5.6947,128.181636,37.907777,6785.2814256,-175.262,-32.876,182.526
5.7114,128.181634,37.907734,6782.9116056,-175.244,-33.049,182.501
5.728,128.181632,37.90769,6780.5271552,-175.227,-33.222,182.477
5.7448,128.181631,37.907647,6778.127769600001,-175.211,-33.395,182.452
5.7615,128.181629,37.907604,6775.7134488,-175.197,-33.567,182.428
5.7782,128.181627,37.907561,6773.283888000001,-175.184,-33.74,182.404
5.7949,128.181625,37.907518,6770.839696800001,-175.172,-33.913,182.38
5.8115,128.181623,37.907475,6768.380570400001,-175.162,-34.086,182.356
5.8282,128.181622,37.907432,6765.906508800001,-175.152,-34.259,182.332
5.845,128.18162,37.907389,6763.4178168,-175.144,-34.432,182.308
5.8617,128.181618,37.907346,6760.9138848,-175.136,-34.604,182.285
5.8784,128.181616,37.907303,6758.395322400001,-175.13,-34.777,182.261
5.8951,128.181615,37.90726,6755.861824800001,-175.125,-34.95,182.238
5.9117,128.181613,37.907218,6753.313696800001,-175.12,-35.123,182.215
5.9285,128.181611,37.907175,6750.750633600001,-175.117,-35.296,182.191
5.9452,128.18161,37.907133,6748.1726352,-175.114,-35.468,182.168
5.9619,128.181608,37.90709,6745.5800064000005,-175.113,-35.641,182.146
5.9786,128.181606,37.907048,6742.9727472,-175.112,-35.814,182.123
5.9952,128.181605,37.907005,6740.3505528,-175.112,-35.987,182.1
6.0119,128.181603,37.906963,6737.713728000001,-175.113,-36.159,182.078
6.0287,128.181602,37.906921,6735.062272800001,-175.114,-36.332,182.055
6.0454,128.1816,37.906879,6732.396187200001,-175.116,-36.505,182.033
6.0621,128.181598,37.906837,6729.7151664,-175.119,-36.678,182.011
6.0788,128.181597,37.906794,6727.019515200001,-175.123,-36.851,181.989
6.0954,128.181595,37.906752,6724.309233600001,-175.127,-37.024,181.967
6.1121,128.181594,37.906711,6721.5843216,-175.132,-37.196,181.946
6.1289,128.181592,37.906669,6718.844779200001,-175.138,-37.369,181.924
6.1456,128.181591,37.906627,6716.090606400001,-175.144,-37.542,181.903
6.1623,128.181589,37.906585,6713.322108,-175.15,-37.715,181.882
6.179,128.181588,37.906544,6710.538674400001,-175.158,-37.888,181.861
6.1956,128.181586,37.906502,6707.740915200001,-175.165,-38.061,181.84
6.2124,128.181585,37.90646,6704.9285256,-175.173,-38.234,181.819
6.2291,128.181583,37.906419,6702.101505600001,-175.182,-38.406,181.798
6.2458,128.181582,37.906378,6699.260160000001,-175.191,-38.579,181.778
6.2625,128.181581,37.906336,6696.404184000001,-175.2,-38.752,181.757
6.2791,128.181579,37.906295,6693.5335776,-175.21,-38.925,181.737
6.2958,128.181578,37.906254,6690.6486456,-175.22,-39.098,181.717
6.3126,128.181576,37.906213,6687.749388000001,-175.231,-39.271,181.697
6.3293,128.181575,37.906172,6684.8355,-175.242,-39.444,181.677
6.346,128.181574,37.906131,6681.9072864,-175.253,-39.617,181.657
6.3627,128.181572,37.90609,6678.964747200001,-175.264,-39.79,181.638
6.3793,128.181571,37.906049,6676.0075776,-175.276,-39.963,181.619
6.3961,128.18157,37.906008,6673.036387200001,-175.288,-40.137,181.599
6.4128,128.181568,37.905967,6670.0505664,-175.301,-40.31,181.58
6.4295,128.181567,37.905927,6667.0504200000005,-175.313,-40.483,181.561
6.4462,128.181566,37.905886,6664.035948,-175.326,-40.656,181.542
6.4628,128.181565,37.905846,6661.007455200001,-175.339,-40.829,181.524
6.4795,128.181563,37.905805,6657.9643320000005,-175.352,-41.002,181.505
6.4963,128.181562,37.905765,6654.907188000001,-175.365,-41.176,181.486
6.513,128.181561,37.905725,6651.835718400001,-175.379,-41.349,181.468
6.5297,128.18156,37.905684,6648.7499232,-175.393,-41.522,181.45
6.5464,128.181558,37.905644,6645.6498024,-175.407,-41.696,181.432
6.5631,128.181557,37.905604,6642.535660800001,-175.42,-41.869,181.414
6.5798,128.181556,37.905564,6639.4074984,-175.435,-42.042,181.396
6.5965,128.181555,37.905524,6636.2650104,-175.449,-42.216,181.378
6.6132,128.181554,37.905485,6633.108196800001,-175.463,-42.389,181.361
6.6299,128.181553,37.905445,6629.9373624,-175.477,-42.563,181.343
6.6466,128.181552,37.905405,6626.7525072,-175.492,-42.736,181.326
6.6633,128.18155,37.905366,6623.5536312,-175.507,-42.91,181.309
6.68,128.181549,37.905326,6620.3404296,-175.521,-43.083,181.292
6.6967,128.181548,37.905287,6617.1132072,-175.536,-43.257,181.275
6.7134,128.181547,37.905247,6613.871964000001,-175.55,-43.43,181.258
6.7301,128.181546,37.905208,6610.6170048,-175.565,-43.604,181.241
6.7468,128.181545,37.905169,6607.347720000001,-175.58,-43.778,181.225
6.7635,128.181544,37.90513,6604.064414400001,-175.595,-43.951,181.208
6.7802,128.181543,37.905091,6600.7673928,-175.61,-44.125,181.192
6.7969,128.181542,37.905052,6597.456350400001,-175.624,-44.299,181.175
6.8136,128.181541,37.905013,6594.131287200001,-175.639,-44.473,181.159
6.8303,128.18154,37.904974,6590.7922032,-175.654,-44.646,181.143
6.847,128.181539,37.904935,6587.4394032,-175.669,-44.82,181.127
6.8637,128.181538,37.904896,6584.0725824,-175.684,-44.994,181.111
6.8804,128.181537,37.904858,6580.692045600001,-175.698,-45.168,181.095
6.8971,128.181536,37.904819,6577.297792800001,-175.713,-45.342,181.08
6.9138,128.181536,37.904781,6573.889519200001,-175.728,-45.516,181.064
6.9305,128.181535,37.904743,6570.4675296,-175.743,-45.69,181.049
6.9472,128.181534,37.904704,6567.031519200001,-175.757,-45.864,181.033
6.9639,128.181533,37.904666,6563.5820976,-175.772,-46.038,181.018
6.9806,128.181532,37.904628,6560.118655200001,-175.786,-46.212,181.003
6.9973,128.181531,37.90459,6556.641801600001,-175.801,-46.386,180.988
7.014,128.18153,37.904552,6553.1509272,-175.815,-46.561,180.973
7.0307,128.18153,37.904515,6549.6466416,-175.83,-46.735,180.958
7.0474,128.181529,37.904477,6546.12864,-175.844,-46.909,180.943
7.0641,128.181528,37.904439,6542.5969224,-175.858,-47.084,180.928
7.0808,128.181527,37.904402,6539.0517936,-175.872,-47.258,180.913
7.0975,128.181526,37.904364,6535.4929488,-175.886,-47.432,180.899
7.1142,128.181526,37.904327,6531.9203880000005,-175.9,-47.607,180.884
7.1309,128.181525,37.904289,6528.334416,-175.914,-47.781,180.87
7.1476,128.181524,37.904252,6524.734728,-175.928,-47.956,180.855
7.1643,128.181523,37.904215,6521.1219336,-175.942,-48.13,180.841
7.181,128.181523,37.904178,6517.4951184,-175.955,-48.305,180.827
7.1977,128.181522,37.904141,6513.855196800001,-175.969,-48.479,180.812
7.2144,128.181521,37.904104,6510.201864000001,-175.982,-48.654,180.798
7.2311,128.181521,37.904068,6506.534815200001,-175.996,-48.829,180.784
7.2478,128.18152,37.904031,6502.854660000001,-176.009,-49.004,180.77
7.2645,128.181519,37.903994,6499.1610936,-176.022,-49.178,180.756
7.2812,128.181519,37.903958,6495.454116,-176.035,-49.353,180.743
7.2979,128.181518,37.903921,6491.7337272,-176.048,-49.528,180.729
7.3146,128.181517,37.903885,6487.9999272000005,-176.061,-49.703,180.715
7.3313,128.181517,37.903849,6484.2530208,-176.074,-49.878,180.701
7.348,128.181516,37.903813,6480.4927032,-176.086,-50.053,180.688
7.3647,128.181516,37.903777,6476.7192792000005,-176.099,-50.228,180.674
7.3814,128.181515,37.903741,6472.932444,-176.111,-50.403,180.661
7.3981,128.181514,37.903705,6469.1328072,-176.124,-50.578,180.647
7.4148,128.181514,37.903669,6465.319454400001,-176.136,-50.753,180.634
7.4315,128.181513,37.903634,6461.4933,-176.148,-50.928,180.62
7.4482,128.181513,37.903598,6457.6540392,-176.16,-51.104,180.607
7.4649,128.181512,37.903562,6453.8013672,-176.171,-51.279,180.594
7.4816,128.181512,37.903527,6449.9358936,-176.183,-51.454,180.581
7.4983,128.181511,37.903492,6446.0573136,-176.195,-51.63,180.567
7.515,128.181511,37.903457,6442.1656272,-176.206,-51.805,180.554
7.5317,128.18151,37.903422,6438.2608344,-176.217,-51.98,180.541
7.5484,128.18151,37.903387,6434.34324,-176.229,-52.156,180.528
7.5651,128.181509,37.903352,6430.4125392,-176.24,-52.331,180.515
7.5818,128.181509,37.903317,6426.4690368,-176.251,-52.507,180.502
7.5985,128.181508,37.903282,6422.512732800001,-176.262,-52.683,180.489
7.6152,128.181508,37.903248,6418.5433224,-176.272,-52.858,180.476
7.6319,128.181508,37.903213,6414.561110400001,-176.283,-53.034,180.463
7.6486,128.181507,37.903179,6410.565792,-176.293,-53.21,180.45
7.6653,128.181507,37.903144,6406.5579768,-176.304,-53.386,180.437
7.682,128.181506,37.90311,6402.53736,-176.314,-53.562,180.424
7.6987,128.181506,37.903076,6398.503941600001,-176.324,-53.737,180.412
7.7154,128.181506,37.903042,6394.4577216,-176.334,-53.913,180.399
7.7321,128.181505,37.903008,6390.398700000001,-176.344,-54.089,180.386
7.7488,128.181505,37.902974,6386.327181600001,-176.353,-54.265,180.373
7.7655,128.181505,37.902941,6382.2428616,-176.363,-54.442,180.361
7.7822,128.181504,37.902907,6378.14574,-176.372,-54.618,180.348
7.7989,128.181504,37.902874,6374.0364264,-176.382,-54.794,180.335
7.8156,128.181504,37.90284,6369.914311200001,-176.391,-54.97,180.322
7.8323,128.181503,37.902807,6365.7796992,-176.4,-55.146,180.31
7.849,128.181503,37.902774,6361.6322856,-176.409,-55.323,180.297
7.8657,128.181503,37.902741,6357.47268,-176.417,-55.499,180.284
7.8824,128.181503,37.902708,6353.3005776,-176.426,-55.675,180.272
7.8991,128.181502,37.902675,6349.115978400001,-176.435,-55.852,180.259
7.9158,128.181502,37.902642,6344.9188824,-176.443,-56.028,180.246
7.9325,128.181502,37.90261,6340.7092896,-176.451,-56.205,180.234
7.9492,128.181502,37.902577,6336.4875048,-176.459,-56.382,180.221
7.9659,128.181501,37.902545,6332.253528,-176.467,-56.558,180.208
7.9826,128.181501,37.902512,6328.0070544,-176.475,-56.735,180.196
7.9993,128.181501,37.90248,6323.748084000001,-176.483,-56.912,180.183
8.016,128.181501,37.902448,6319.4772264,-176.491,-57.089,180.17
8.0327,128.181501,37.902416,6315.193872,-176.498,-57.265,180.158
8.0494,128.181501,37.902384,6310.8983256,-176.506,-57.442,180.145
8.0661,128.1815,37.902352,6306.590892,-176.513,-57.619,180.132
8.0828,128.1815,37.902321,6302.2712664,-176.52,-57.796,180.119
8.0994,128.1815,37.902289,6297.939144,-176.527,-57.973,180.107
8.1161,128.1815,37.902258,6293.5954392,-176.534,-58.151,180.094
8.1329,128.1815,37.902226,6289.239237600001,-176.54,-58.328,180.081
8.1496,128.1815,37.902195,6284.8711488,-176.547,-58.505,180.068
8.1663,128.1815,37.902164,6280.491172800001,-176.553,-58.682,180.055
8.183,128.1815,37.902133,6276.0993096,-176.56,-58.859,180.043
8.1997,128.1815,37.902102,6271.6952544000005,-176.566,-59.037,180.03
8.2164,128.181499,37.902071,6267.2796167999995,-176.572,-59.214,180.017
8.2331,128.181499,37.902041,6262.8517872,-176.578,-59.392,180.004
8.2498,128.181499,37.90201,6258.4123752,-176.584,-59.569,179.991
8.2665,128.181499,37.90198,6253.961076,-176.59,-59.747,179.978
8.2831,128.181499,37.901949,6249.4978896,-176.595,-59.925,179.965
8.2998,128.181499,37.901919,6245.022816,-176.601,-60.102,179.952
8.3166,128.181499,37.901889,6240.5364648,-176.606,-60.28,179.939
8.3333,128.181499,37.901859,6236.0379216,-176.611,-60.458,179.926
8.35,128.181499,37.901829,6231.5281008,-176.616,-60.636,179.913
8.3667,128.181499,37.901799,6227.006392800001,-176.621,-60.814,179.899
8.3834,128.181499,37.90177,6222.4734072,-176.626,-60.991,179.886
8.4001,128.181499,37.90174,6217.9285344,-176.631,-61.169,179.873
8.4168,128.181499,37.901711,6213.372384000001,-176.635,-61.348,179.859
8.4335,128.181499,37.901681,6208.804651200001,-176.64,-61.526,179.846
8.4502,128.181499,37.901652,6204.225336,-176.644,-61.704,179.833
8.4668,128.1815,37.901623,6199.634743199999,-176.648,-61.882,179.819
8.4835,128.1815,37.901594,6195.0325680000005,-176.652,-62.06,179.806
8.5003,128.1815,37.901566,6190.419420000001,-176.656,-62.239,179.792
8.517,128.1815,37.901537,6185.7943847999995,-176.66,-62.417,179.778
8.5337,128.1815,37.901508,6181.1583768,-176.664,-62.596,179.764
8.5504,128.1815,37.90148,6176.5110912,-176.667,-62.774,179.751
8.5671,128.1815,37.901452,6171.852528,-176.671,-62.953,179.737
8.5838,128.1815,37.901423,6167.182992000001,-176.674,-63.131,179.723
8.6005,128.1815,37.901395,6162.5018736,-176.677,-63.31,179.709
8.6172,128.1815,37.901367,6157.8100872,-176.68,-63.489,179.695
8.6339,128.181501,37.901339,6153.1067184,-176.683,-63.668,179.681
8.6505,128.181501,37.901312,6148.3926816,-176.686,-63.846,179.667
8.6672,128.181501,37.901284,6143.6673672,-176.689,-64.025,179.652
8.684,128.181501,37.901257,6138.93108,-176.691,-64.204,179.638
8.7007,128.181501,37.901229,6134.184124800001,-176.694,-64.383,179.623
8.7174,128.181502,37.901202,6129.425892,-176.696,-64.562,179.609
8.7341,128.181502,37.901175,6124.6569912,-176.698,-64.742,179.594
8.7508,128.181502,37.901148,6119.8771176,-176.7,-64.921,179.58
8.7675,128.181502,37.901121,6115.086576,-176.702,-65.1,179.565
8.7842,128.181502,37.901094,6110.2850616,-176.704,-65.279,179.55
8.8009,128.181503,37.901068,6105.4728792000005,-176.705,-65.459,179.535
8.8176,128.181503,37.901041,6100.650028800001,-176.707,-65.638,179.52
8.8342,128.181503,37.901015,6095.816510400001,-176.708,-65.818,179.505
8.8509,128.181503,37.900989,6090.972628800001,-176.71,-65.997,179.489
8.8676,128.181504,37.900963,6086.117774400001,-176.711,-66.177,179.474
8.8844,128.181504,37.900937,6081.252556800001,-176.712,-66.356,179.458
8.9011,128.181504,37.900911,6076.3766712,-176.713,-66.536,179.443
8.9178,128.181504,37.900885,6071.4904224,-176.713,-66.716,179.427
8.9345,128.181505,37.90086,6066.593505600001,-176.714,-66.896,179.411
8.9512,128.181505,37.900834,6061.6865304,-176.714,-67.076,179.395
8.9679,128.181505,37.900809,6056.768887200001,-176.715,-67.256,179.379
8.9846,128.181506,37.900784,6051.8411856,-176.715,-67.436,179.363
9.0013,128.181506,37.900759,6046.9031208,-176.715,-67.616,179.347
9.0179,128.181506,37.900734,6041.954692800001,-176.715,-67.796,179.33
9.0346,128.181507,37.900709,6036.9959016,-176.715,-67.976,179.313
9.0513,128.181507,37.900684,6032.027356800001,-176.714,-68.156,179.297
9.0681,128.181507,37.90066,6027.0484488,-176.714,-68.337,179.28
9.0848,128.181508,37.900636,6022.059482400001,-176.713,-68.517,179.263
9.1015,128.181508,37.900611,6017.0601528,-176.712,-68.698,179.245
9.1182,128.181508,37.900587,6012.051069600001,-176.711,-68.878,179.228
9.1349,128.181509,37.900563,6007.0322328,-176.71,-69.059,179.211
9.1516,128.181509,37.900539,6002.0030328,-176.709,-69.239,179.193
9.1683,128.18151,37.900516,5996.964384000001,-176.708,-69.42,179.175
9.185,128.18151,37.900492,5991.9156768,-176.706,-69.601,179.157
9.2016,128.18151,37.900469,5986.8569112000005,-176.704,-69.782,179.139
9.2183,128.181511,37.900445,5981.7886968,-176.703,-69.963,179.12
9.235,128.181511,37.900422,5976.710728800001,-176.701,-70.144,179.102
9.2518,128.181512,37.900399,5971.6227024,-176.698,-70.325,179.083
9.2685,128.181512,37.900376,5966.525532000001,-176.696,-70.506,179.064
9.2852,128.181513,37.900353,5961.4183032,-176.694,-70.687,179.045
9.3019,128.181513,37.900331,5956.3019304,-176.691,-70.868,179.026
9.3186,128.181513,37.900308,5951.175804,-176.688,-71.049,179.006
9.3353,128.181514,37.900286,5946.0402288000005,-176.685,-71.231,178.986
9.352,128.181514,37.900264,5940.8952048,-176.682,-71.412,178.966
9.3687,128.181515,37.900242,5935.740732,-176.679,-71.594,178.946
9.3854,128.181515,37.90022,5930.576810400001,-176.675,-71.775,178.925
9.402,128.181516,37.900198,5925.4037448,-176.671,-71.957,178.905
9.4187,128.181516,37.900176,5920.2212303999995,-176.667,-72.138,178.884
9.4355,128.181517,37.900155,5915.0298768,-176.663,-72.32,178.863
9.4522,128.181517,37.900133,5909.8290744000005,-176.659,-72.502,178.841
9.4689,128.181518,37.900112,5904.619128,-176.655,-72.684,178.819
9.4856,128.181518,37.900091,5899.4000376,-176.65,-72.866,178.797
9.5023,128.181519,37.90007,5894.172108,-176.645,-73.048,178.775
9.519,128.181519,37.900049,5888.9350343999995,-176.64,-73.23,178.753
9.5357,128.18152,37.900029,5883.6888168,-176.635,-73.412,178.73
9.5524,128.18152,37.900008,5878.434064800001,-176.629,-73.594,178.707
9.5691,128.181521,37.899988,5873.1701688,-176.624,-73.776,178.683
9.5857,128.181522,37.899968,5867.897738400001,-176.618,-73.958,178.659
9.6024,128.181522,37.899948,5862.616164,-176.612,-74.14,178.635
9.6192,128.181523,37.899928,5857.3260552,-176.605,-74.323,178.611
9.6359,128.181523,37.899908,5852.0274119999995,-176.599,-74.505,178.586
9.6526,128.181524,37.899888,5846.7199296,-176.592,-74.687,178.561
9.6693,128.181524,37.899869,5841.4039128,-176.585,-74.87,178.535
9.686,128.181525,37.899849,5836.079056800001,-176.577,-75.052,178.509
9.7027,128.181526,37.89983,5830.7459712,-176.569,-75.235,178.483
9.7194,128.181526,37.899811,5825.404656000001,-176.561,-75.418,178.456
9.7361,128.181527,37.899792,5820.054501600001,-176.553,-75.6,178.429
9.7528,128.181527,37.899773,5814.6964224,-176.545,-75.783,178.402
9.7694,128.181528,37.899755,5809.3298088,-176.536,-75.966,178.373
9.7861,128.181529,37.899736,5803.954965600001,-176.527,-76.149,178.345
9.8029,128.181529,37.899718,5798.571892800001,-176.517,-76.332,178.316
9.8196,128.18153,37.8997,5793.1805904,-176.507,-76.515,178.286
9.8363,128.18153,37.899682,5787.7810584,-176.497,-76.698,178.256
9.853,128.181531,37.899664,5782.373906400001,-176.487,-76.881,178.226
9.8697,128.181532,37.899646,5776.95822,-176.476,-77.064,178.195
9.8864,128.181532,37.899629,5771.5349136,-176.465,-77.247,178.163
9.9031,128.181533,37.899611,5766.1036824,-176.453,-77.431,178.131
9.9198,128.181534,37.899594,5760.6645264,-176.441,-77.614,178.098
9.9365,128.181534,37.899577,5755.2174456,-176.428,-77.798,178.065
9.9531,128.181535,37.89956,5749.7627448,-176.415,-77.981,178.03
9.9698,128.181536,37.899543,5744.3001192,-176.402,-78.165,177.996
9.9865,128.181536,37.899526,5738.829873600001,-176.388,-78.348,177.96
10.0033,128.181537,37.89951,5733.352008,-176.374,-78.532,177.924
10.02,128.181538,37.899493,5727.8668272,-176.359,-78.716,177.887
10.0367,128.181538,37.899477,5722.3740264,-176.343,-78.9,177.849
10.0534,128.181539,37.899461,5716.873605600001,-176.327,-79.084,177.81
10.0701,128.18154,37.899445,5711.3658696,-176.311,-79.268,177.77
10.0868,128.18154,37.89943,5705.8508184,-176.294,-79.452,177.73
10.1035,128.181541,37.899414,5700.328147200001,-176.276,-79.636,177.688
10.1202,128.181542,37.899399,5694.798465600001,-176.257,-79.82,177.646
10.1368,128.181543,37.899383,5689.2617736,-176.238,-80.004,177.602
10.1535,128.181543,37.899368,5683.7177664,-176.218,-80.189,177.558
10.1702,128.181544,37.899353,5678.1664439999995,-176.197,-80.373,177.512
10.187,128.181545,37.899338,5672.608416,-176.175,-80.557,177.465
10.2037,128.181545,37.899324,5667.0430728,-176.153,-80.742,177.417
10.2204,128.181546,37.899309,5661.471024,-176.129,-80.926,177.367
10.2371,128.181547,37.899295,5655.891964800001,-176.105,-81.111,177.316
10.2538,128.181548,37.899281,5650.3062,-176.079,-81.296,177.264
10.2705,128.181548,37.899267,5644.713424800001,-176.053,-81.481,177.21
10.2872,128.181549,37.899253,5639.113944,-176.025,-81.665,177.154
10.3039,128.18155,37.899239,5633.5080624,-175.996,-81.85,177.097
10.3205,128.181551,37.899225,5627.8954752,-175.966,-82.035,177.038
10.3372,128.181551,37.899212,5622.276182400001,-175.934,-82.22,176.976
10.3539,128.181552,37.899199,5616.6504888,-175.901,-82.406,176.913
10.3707,128.181553,37.899186,5611.0180896,-175.867,-82.591,176.848
10.3874,128.181553,37.899173,5605.3795944,-175.83,-82.776,176.78
10.4041,128.181554,37.89916,5599.7346984,-175.792,-82.961,176.71
10.4208,128.181555,37.899148,5594.083401600001,-175.752,-83.147,176.637
10.4375,128.181556,37.899135,5588.4260088,-175.709,-83.332,176.561
10.4542,128.181557,37.899123,5582.762520000001,-175.665,-83.518,176.483
10.4709,128.181557,37.899111,5577.0926303999995,-175.618,-83.703,176.4
10.4876,128.181558,37.899099,5571.4169496,-175.568,-83.889,176.315
10.5042,128.181559,37.899087,5565.7348680000005,-175.515,-84.075,176.225
10.5209,128.18156,37.899075,5560.0473,-175.459,-84.261,176.132
10.5376,128.18156,37.899064,5554.353636,-175.4,-84.447,176.033
10.5544,128.181561,37.899053,5548.6541808,-175.336,-84.633,175.93
10.5711,128.181562,37.899041,5542.948934399999,-175.267,-84.819,175.82
10.5878,128.181563,37.899031,5537.2378968,-175.193,-85.005,175.703
10.6045,128.181563,37.89902,5531.521068,-175.113,-85.191,175.579
10.6212,128.181564,37.899009,5525.7990576,-175.026,-85.377,175.446
10.6379,128.181565,37.898999,5520.071256000001,-174.933,-85.562,175.306
10.6546,128.181566,37.898988,5514.3376632,-174.842,-85.739,175.166
10.6713,128.181566,37.898978,5508.5988888,-174.758,-85.903,175.031
10.6879,128.181567,37.898968,5502.854628,-174.688,-86.054,174.908
10.7046,128.181568,37.898958,5497.1048808,-174.634,-86.189,174.799
10.7213,128.181569,37.898949,5491.350256800001,-174.596,-86.312,174.704
10.7381,128.181569,37.898939,5485.590146400001,-174.573,-86.424,174.622
10.7548,128.18157,37.89893,5479.8248544,-174.563,-86.527,174.55
10.7715,128.181571,37.898921,5474.0543808,-174.563,-86.624,174.486
10.7882,128.181572,37.898912,5468.2790304,-174.571,-86.715,174.429
10.8049,128.181572,37.898903,5462.4984984,-174.586,-86.803,174.377
10.8216,128.181573,37.898894,5456.7130896,-174.604,-86.889,174.327
10.8383,128.181574,37.898885,5450.922804,-174.627,-86.972,174.281
10.855,128.181575,37.898877,5445.1276416,-174.652,-87.053,174.236
10.8717,128.181575,37.898869,5439.3279072,-174.68,-87.132,174.194
10.8883,128.181576,37.898861,5433.5229912,-174.709,-87.21,174.154
10.905,128.181577,37.898853,5427.7135032,-174.741,-87.287,174.116
10.9218,128.181578,37.898845,5421.8994432,-174.774,-87.363,174.08
10.9385,128.181578,37.898837,5416.080506400001,-174.809,-87.437,174.046
10.9552,128.181579,37.89883,5410.256692800001,-174.846,-87.511,174.014
10.9719,128.18158,37.898822,5404.428612,-174.884,-87.583,173.985
10.9886,128.181581,37.898815,5398.5956544,-174.925,-87.654,173.958
11.0053,128.181581,37.898808,5392.7584295999995,-174.967,-87.724,173.934
11.022,128.181582,37.898801,5386.916328,-175.011,-87.793,173.913
11.0387,128.181583,37.898794,5381.0699592,-175.058,-87.861,173.895
11.0554,128.181583,37.898787,5375.2190184,-175.106,-87.928,173.88
11.072,128.181584,37.89878,5369.3635056,-175.156,-87.994,173.868
11.0887,128.181585,37.898774,5363.5034208,-175.209,-88.059,173.86
11.1054,128.181586,37.898768,5357.639373600001,-175.268,-88.123,173.859
11.1222,128.181586,37.898761,5351.770449600001,-175.334,-88.186,173.867
11.1389,128.181587,37.898755,5345.8972584,-175.406,-88.249,173.881
11.1556,128.181588,37.898749,5340.0198,-175.48,-88.31,173.899
11.1723,128.181588,37.898743,5334.138074400001,-175.555,-88.37,173.92
11.189,128.181589,37.898738,5328.252081600001,-175.63,-88.43,173.943
11.2057,128.18159,37.898732,5322.3618216,-175.705,-88.488,173.966
11.2224,128.18159,37.898727,5316.4672944,-175.779,-88.546,173.989
11.2391,128.181591,37.898721,5310.5688048,-175.851,-88.602,174.013
11.2557,128.181591,37.898716,5304.665743199999,-175.921,-88.658,174.037
11.2724,128.181592,37.898711,5298.759024000001,-175.99,-88.713,174.06
11.2891,128.181593,37.898706,5292.848037600001,-176.055,-88.767,174.083
11.3059,128.181593,37.898701,5286.9327840000005,-176.119,-88.82,174.105
11.3226,128.181594,37.898696,5281.0138728,-176.179,-88.872,174.126
11.3393,128.181595,37.898691,5275.0906944,-176.235,-88.923,174.144
11.356,128.181595,37.898687,5269.1635536,-176.287,-88.974,174.16
11.3727,128.181596,37.898682,5263.232450400001,-176.333,-89.023,174.172
11.3894,128.181596,37.898678,5257.2973848,-176.374,-89.072,174.18
11.4061,128.181597,37.898674,5251.3583568,-176.406,-89.12,174.18
11.4228,128.181598,37.89867,5245.415671199999,-176.422,-89.167,174.167
11.4394,128.181598,37.898665,5239.4687184,-176.417,-89.213,174.134
11.4561,128.181599,37.898662,5233.518108,-176.383,-89.258,174.073
11.4728,128.181599,37.898658,5227.56384,-176.311,-89.303,173.977
11.4896,128.1816,37.898654,5221.6053048,-176.194,-89.347,173.838
11.5063,128.1816,37.89865,5215.6434168,-176.022,-89.389,173.645
11.523,128.181601,37.898647,5209.6772616,-175.786,-89.431,173.389
11.5397,128.181601,37.898643,5203.7074488,-175.659,-89.449,173.245
11.5564,128.181602,37.89864,5197.733673600001,-175.71,-89.439,173.278
11.5731,128.181602,37.898636,5191.7559360000005,-175.852,-89.412,173.402
11.5898,128.181603,37.898633,5185.7748456,-175.981,-89.381,173.514
11.6065,128.181603,37.89863,5179.789792800001,-176.041,-89.356,173.556
11.6231,128.181604,37.898627,5173.8010824,-176.015,-89.341,173.513
11.6398,128.181604,37.898624,5167.809019200001,-175.908,-89.337,173.388
11.6565,128.181605,37.898621,5161.8129936,-175.729,-89.342,173.193
11.6733,128.181605,37.898618,5155.813310400001,-175.494,-89.355,172.94
11.69,128.181606,37.898616,5149.810274400001,-175.215,-89.372,172.645
11.7067,128.181606,37.898613,5143.803276,-174.91,-89.392,172.322
11.7234,128.181607,37.898611,5137.792620000001,-174.594,-89.414,171.987
11.7401,128.181607,37.898608,5131.7783064000005,-174.281,-89.437,171.654
11.7568,128.181608,37.898606,5125.7603352,-173.988,-89.46,171.337
11.7735,128.181608,37.898603,5119.7387064,-173.728,-89.483,171.052
11.7902,128.181609,37.898601,5113.713115200001,-173.806,-89.483,171.102
11.8068,128.181609,37.898599,5107.6838664,-174.318,-89.451,171.583
11.8235,128.181609,37.898597,5101.650960000001,-175.019,-89.398,172.251
11.8402,128.18161,37.898595,5095.614396,-175.69,-89.341,172.886
11.857,128.18161,37.898593,5089.5744792000005,-176.247,-89.291,173.408
11.8737,128.181611,37.898591,5083.5306,-176.685,-89.255,173.812
11.8904,128.181611,37.898589,5077.483368,-177.025,-89.234,174.121
11.9071,128.181612,37.898587,5071.4321736,-177.288,-89.224,174.358
11.9238,128.181612,37.898585,5065.3776264,-177.491,-89.223,174.539
11.9405,128.181612,37.898583,5059.3191168,-177.643,-89.229,174.674
11.9572,128.181613,37.898582,5053.2572544,-177.751,-89.238,174.767
11.9739,128.181613,37.89858,5047.1914295999995,-177.815,-89.25,174.82
11.9905,128.181614,37.898578,5041.1219472,-177.836,-89.263,174.833
12.0072,128.181614,37.898577,5035.0488072,-177.814,-89.277,174.805
12.0239,128.181614,37.898575,5028.9720096,-177.747,-89.292,174.734
12.0407,128.181615,37.898574,5022.8912496,-177.636,-89.307,174.62
12.0574,128.181615,37.898573,5016.8071368,-177.482,-89.322,174.464
12.0741,128.181615,37.898571,5010.7190616,-177.287,-89.338,174.267
12.0908,128.181616,37.89857,5004.627633600001,-177.054,-89.353,174.034
12.1075,128.181616,37.898569,4998.532243199999,-176.789,-89.369,173.768
12.1242,128.181617,37.898568,4992.4331952,-176.5,-89.384,173.476
12.1409,128.181617,37.898566,4986.330489600001,-176.194,-89.399,173.168
12.1576,128.181617,37.898565,4980.2241264,-175.883,-89.414,172.854
12.1743,128.181618,37.898564,4974.114105600001,-175.579,-89.428,172.545
12.1909,128.181618,37.898563,4968.000427200001,-175.295,-89.443,172.254
12.2076,128.181618,37.898562,4961.8830912,-175.045,-89.457,171.994
12.2243,128.181619,37.898561,4955.7617928,-174.841,-89.47,171.779
12.2411,128.181619,37.898561,4949.6371416,-174.696,-89.484,171.619
12.2578,128.181619,37.89856,4943.5088328,-174.618,-89.497,171.525
12.2745,128.18162,37.898559,4937.3768664,-174.616,-89.511,171.503
12.2912,128.18162,37.898558,4931.2409376,-174.69,-89.524,171.556
12.3079,128.18162,37.898557,4925.101656,-174.84,-89.538,171.683
12.3246,128.181621,37.898557,4918.958412,-175.06,-89.551,171.879
12.3413,128.181621,37.898556,4912.8115104,-175.337,-89.564,172.132
12.358,128.181621,37.898556,4906.661256,-175.657,-89.577,172.428
12.3746,128.181621,37.898555,4900.507039200001,-176.0,-89.591,172.749
12.3913,128.181622,37.898554,4894.34886,-176.346,-89.604,173.075
12.408,128.181622,37.898554,4888.187328,-176.671,-89.617,173.382
12.4248,128.181622,37.898554,4882.0218336,-176.952,-89.63,173.648
12.4415,128.181623,37.898553,4875.8529864,-177.167,-89.643,173.851
12.4582,128.181623,37.898553,4869.6801768000005,-177.295,-89.656,173.97
12.4749,128.181623,37.898552,4863.503404800001,-177.317,-89.668,173.985
12.4916,128.181623,37.898552,4857.3232800000005,-177.217,-89.681,173.88
12.5083,128.181624,37.898552,4851.1391928,-176.981,-89.693,173.641
12.525,128.181624,37.898552,4844.951448000001,-176.599,-89.704,173.258
12.5417,128.181624,37.898551,4838.7600456,-176.069,-89.715,172.727
12.5583,128.181625,37.898551,4832.5649856,-175.391,-89.726,172.049
12.575,128.181625,37.898551,4826.366268,-174.578,-89.736,171.235
12.5917,128.181625,37.898551,4820.1638928,-173.649,-89.746,170.305
12.6085,128.181625,37.898551,4813.957555200001,-172.637,-89.755,169.29
12.6252,128.181626,37.898551,4807.7478648,-171.585,-89.763,168.233
12.6419,128.181626,37.898551,4801.5345168,-170.55,-89.771,167.189
12.6586,128.181626,37.898551,4795.3172064,-169.596,-89.779,166.221
12.6753,128.181626,37.898551,4789.0965432,-168.794,-89.787,165.399
12.692,128.181626,37.898551,4782.8725272,-168.214,-89.795,164.792
12.7087,128.181627,37.898551,4776.644548800001,-167.919,-89.802,164.462
12.7254,128.181627,37.898551,4770.4132176,-167.958,-89.81,164.459
12.742,128.181627,37.898551,4764.1782288,-168.355,-89.819,164.806
12.7587,128.181627,37.898552,4757.9395824,-169.101,-89.827,165.497
12.7754,128.181628,37.898552,4751.697278400001,-170.148,-89.836,166.486
12.7922,128.181628,37.898552,4745.4513168,-171.407,-89.844,167.686
12.8089,128.181628,37.898552,4739.2020024,-172.753,-89.853,168.978
12.8256,128.181628,37.898553,4732.9487256,-174.037,-89.861,170.213
12.8423,128.181628,37.898553,4726.6917912,-175.101,-89.87,171.236
12.859,128.181629,37.898553,4720.4311992,-175.792,-89.878,171.894
12.8757,128.181629,37.898554,4714.1672544,-175.971,-89.887,172.049
12.8924,128.181629,37.898554,4707.8993472,-175.511,-89.895,171.572
12.9091,128.181629,37.898554,4701.627782400001,-174.294,-89.903,170.345
12.9257,128.181629,37.898555,4695.3528648,-172.213,-89.911,168.258
12.9424,128.18163,37.898555,4689.0739848,-169.185,-89.918,165.225
12.9591,128.18163,37.898556,4682.791752,-165.189,-89.924,161.227
12.9759,128.18163,37.898556,4676.505861600001,-160.336,-89.929,156.37
12.9926,128.18163,37.898557,4670.2163136,-154.915,-89.934,150.941
13.0093,128.18163,37.898557,4663.9234128,-149.398,-89.937,145.409
13.026,128.181631,37.898558,4657.6268544,-144.358,-89.941,140.339
13.0427,128.181631,37.898558,4651.3272480000005,-140.355,-89.945,136.287
13.0594,128.181631,37.898559,4645.023984,-137.96,-89.951,133.817
13.0761,128.181631,37.89856,4638.717672,-137.881,-89.959,133.633
13.0928,128.181631,37.89856,4632.4077024,-141.745,-89.97,137.364
13.1095,128.181631,37.898561,4626.0943800000005,-154.734,-89.981,150.2
13.1262,128.181632,37.898562,4619.777704800001,164.785,-89.989,190.522
13.1429,128.181632,37.898563,4613.4570672,109.113,-89.987,246.05
13.1596,128.181632,37.898563,4607.1324672,83.233,-89.982,271.819
13.1763,128.181632,37.898564,4600.8042096,65.727,-89.979,289.254
13.193,128.181632,37.898565,4594.471989600001,45.498,-89.979,309.449
13.2097,128.181632,37.898566,4588.1364168,21.622,-89.977,333.307
13.2264,128.181632,37.898566,4581.7974912,-0.435,-89.971,355.358
13.2431,128.181633,37.898567,4575.454603200001,-16.605,-89.963,11.525
13.2598,128.181633,37.898568,4569.1083624,-27.507,-89.952,22.428
13.2765,128.181633,37.898569,4562.7584640000005,-34.824,-89.939,29.746
13.2932,128.181633,37.89857,4556.4049079999995,-39.747,-89.925,34.673
13.3099,128.181633,37.898571,4550.0479992,-43.008,-89.91,37.94
13.3266,128.181633,37.898571,4543.6874328,-45.065,-89.895,40.004
13.3433,128.181633,37.898572,4537.3235136,-46.209,-89.881,41.158
13.36,128.181633,37.898573,4530.9559368,-46.621,-89.867,41.583
13.3767,128.181634,37.898574,4524.5847024,-46.405,-89.855,41.381
13.3934,128.181634,37.898575,4518.2101152000005,-45.61,-89.843,40.606
13.4101,128.181634,37.898576,4511.8318704,-44.25,-89.834,39.268
13.4268,128.181634,37.898577,4505.450272800001,-42.312,-89.826,37.357
13.4435,128.181634,37.898578,4499.0650176,-39.766,-89.82,34.84
13.4602,128.181634,37.898579,4492.676409600001,-36.578,-89.815,31.685
13.4769,128.181634,37.89858,4486.284144,-32.718,-89.811,27.859
13.4936,128.181634,37.898581,4479.8882208,-28.178,-89.808,23.356
13.5103,128.181634,37.898582,4473.4889448,-22.995,-89.804,18.211
13.527,128.181635,37.898583,4467.086316,-17.276,-89.8,12.528
13.5437,128.181635,37.898584,4460.6803344,-11.208,-89.794,6.496
13.5604,128.181635,37.898586,4454.2703904,-5.047,-89.786,0.369
13.5771,128.181635,37.898587,4447.8573984,0.917,-89.776,354.433
13.5938,128.181635,37.898588,4441.440748800001,6.42,-89.763,348.956
13.6105,128.181635,37.898589,4435.0207464000005,11.258,-89.749,344.139
13.6272,128.181635,37.89859,4428.5973912,15.308,-89.732,340.104
13.6439,128.181635,37.898591,4422.1703784,18.517,-89.716,336.902
13.6606,128.181635,37.898592,4415.7400128,20.88,-89.699,334.539
13.6773,128.181635,37.898594,4409.3059896,22.417,-89.683,332.995
13.694,128.181635,37.898595,4402.8689184,23.155,-89.668,332.241
13.7107,128.181636,37.898596,4396.4281896,23.117,-89.655,332.255
13.7274,128.181636,37.898597,4389.983803200001,22.321,-89.644,333.018
13.7441,128.181636,37.898599,4383.536368800001,20.778,-89.634,334.522
13.7608,128.181636,37.8986,4377.0852768,18.497,-89.626,336.757
13.7775,128.181636,37.898601,4370.6305272,15.499,-89.619,339.704
13.7942,128.181636,37.898603,4364.1727296,11.828,-89.612,343.323
13.8109,128.181636,37.898604,4357.7109696,7.564,-89.605,347.534
13.8276,128.181636,37.898605,4351.2461616,2.84,-89.595,352.207
13.8443,128.181636,37.898607,4344.7773912,-2.161,-89.583,357.163
13.861,128.181636,37.898608,4338.3055728,-7.224,-89.568,2.188
13.8777,128.181636,37.898609,4331.829792,-12.12,-89.549,7.058
13.8944,128.181636,37.898611,4325.3506584,-16.651,-89.527,11.574
13.9111,128.181636,37.898612,4318.8678672,-20.661,-89.502,15.587
13.9278,128.181636,37.898614,4312.3817232,-24.052,-89.477,18.998
13.9445,128.181636,37.898615,4305.8919216,-26.771,-89.451,21.758
13.9612,128.181636,37.898616,4299.3984624,-28.797,-89.426,23.848
13.9779,128.181636,37.898618,4292.9013456,-30.215,-89.404,25.352
13.9946,128.181636,37.898619,4286.400876000001,-31.09,-89.384,26.335
14.0113,128.181636,37.898621,4279.896748800001,-31.47,-89.366,26.844
14.028,128.181636,37.898622,4273.388964000001,-31.387,-89.352,26.909
14.0447,128.181636,37.898624,4266.8775216,-30.857,-89.341,26.546
14.0614,128.181636,37.898625,4260.3624216,-29.885,-89.333,25.756
14.0781,128.181636,37.898627,4253.843968800001,-28.463,-89.328,24.529
14.0948,128.181636,37.898628,4247.3218584,-26.572,-89.325,22.842
14.1115,128.181636,37.89863,4240.7963952,-24.184,-89.325,20.665
14.1282,128.181637,37.898631,4234.2675792,-21.272,-89.326,17.964
14.1449,128.181637,37.898633,4227.735105600001,-17.805,-89.328,14.707
14.1616,128.181637,37.898634,4221.1992792,-13.766,-89.329,10.87
14.1783,128.181637,37.898636,4214.6604048,-9.159,-89.328,6.454
14.195,128.181637,37.898638,4208.1178728,-4.024,-89.323,1.494
14.2117,128.181637,37.898639,4201.5722928000005,1.51,-89.313,356.113
14.2284,128.181637,37.898641,4195.02336,7.188,-89.297,350.563
14.2451,128.181637,37.898643,4188.4710744,12.723,-89.272,345.122
14.2618,128.181637,37.898644,4181.9160456,17.852,-89.242,340.049
14.2785,128.181637,37.898646,4175.357664,22.369,-89.206,335.543
14.2952,128.181637,37.898648,4168.796234400001,26.148,-89.167,331.726
14.3119,128.181637,37.89865,4162.2317568,29.219,-89.127,328.565
14.3286,128.181637,37.898651,4155.6642312,31.659,-89.087,325.983
14.3453,128.181637,37.898653,4149.0939624,33.537,-89.048,323.907
14.362,128.181637,37.898655,4142.5206456000005,34.917,-89.012,322.276
14.3787,128.181637,37.898657,4135.9445856,35.85,-88.978,321.036
14.3954,128.181637,37.898659,4129.3654776,36.377,-88.947,320.148
14.4121,128.181637,37.898661,4122.7836264,36.524,-88.919,319.585
14.4288,128.181637,37.898663,4116.198727200001,36.312,-88.896,319.332
14.4455,128.181637,37.898665,4109.611084800001,35.748,-88.877,319.385
14.4622,128.181637,37.898667,4103.0206992,34.82,-88.863,319.764
14.4789,128.181637,37.898669,4096.4269608,33.507,-88.854,320.502
14.4956,128.181637,37.898671,4089.8301744,31.781,-88.85,321.635
14.5123,128.181637,37.898673,4083.23034,29.61,-88.851,323.208
14.529,128.181637,37.898675,4076.6271528,26.952,-88.856,325.267
14.5457,128.181636,37.898677,4070.0209176,23.765,-88.864,327.868
14.5624,128.181636,37.89868,4063.4113296,20.002,-88.874,331.065
14.5791,128.181636,37.898682,4056.798084,15.621,-88.883,334.909
14.5958,128.181636,37.898684,4050.1811807999998,10.598,-88.89,339.435
14.6125,128.181636,37.898686,4043.5609248,4.947,-88.89,344.639
14.6292,128.181636,37.898688,4036.9367064000003,-1.263,-88.881,350.462
14.6459,128.181636,37.89869,4030.3085256000004,-7.891,-88.859,356.775
14.6626,128.181635,37.898693,4023.6766872000003,-14.61,-88.82,3.263
14.6793,128.181635,37.898695,4017.0405816,-21.032,-88.765,9.557
14.696,128.181635,37.898697,4010.4002088,-26.833,-88.695,15.346
14.7127,128.181635,37.898699,4003.7552640000004,-31.927,-88.613,20.554
14.7294,128.181635,37.898701,3997.1063568000004,-36.306,-88.521,25.176
14.7461,128.181635,37.898703,3990.4525728000003,-40.001,-88.421,29.243
14.7628,128.181635,37.898705,3983.7945216,-43.064,-88.316,32.809
14.7795,128.181634,37.898707,3977.1318984000004,-45.558,-88.209,35.935
14.7962,128.181634,37.898709,3970.4643984000004,-47.543,-88.102,38.68
14.8129,128.181634,37.898711,3963.7932408,-48.876,-88.012,40.69
14.8296,128.181634,37.898713,3957.1181208000003,-49.658,-87.944,42.05
14.8463,128.181634,37.898715,3950.4390384000003,-50.054,-87.896,42.955
14.863,128.181634,37.898717,3943.7562984000006,-50.132,-87.865,43.511
14.8797,128.181634,37.89872,3937.0705104,-49.902,-87.85,43.754
14.8964,128.181634,37.898722,3930.3807600000005,-49.357,-87.851,43.689
14.9131,128.181634,37.898724,3923.687352,-48.48,-87.867,43.304
14.9298,128.181634,37.898726,3916.9902864,-47.239,-87.896,42.564
14.9465,128.181634,37.898728,3910.2895632,-45.59,-87.939,41.422
14.9632,128.181634,37.89873,3903.5854872000004,-43.488,-87.994,39.825
14.9799,128.181635,37.898733,3896.8780584,-40.879,-88.059,37.714
14.9966,128.181635,37.898735,3890.1672768,-37.688,-88.131,35.008
15.0133,128.181635,37.898737,3883.4528376,-33.828,-88.209,31.613
15.03,128.181635,37.898739,3876.7353504000002,-29.195,-88.287,27.421
15.0467,128.181635,37.898742,3870.0145104,-23.7,-88.36,22.335
15.0634,128.181635,37.898744,3863.2900128,-17.767,-88.416,16.96
15.0801,128.181635,37.898746,3856.5612480000004,-11.471,-88.456,11.326
15.0968,128.181635,37.898749,3849.8291304000004,-4.647,-88.479,5.181
15.1135,128.181636,37.898751,3843.0939648,2.703,-88.481,358.446
