Time,Longitude,Latitude,Altitude,Roll (deg),Pitch (deg),Yaw (deg)
0.0,128.181881,37.968463,7002.830292000001,0.0,-0.003,179.999
0.0167,128.181881,37.968418,7002.8116992000005,0.0,-0.012,180.0
0.0334,128.181881,37.968374,7002.7912776,0.087,-0.026,180.011
0.0501,128.181881,37.968329,7002.7690272,0.258,-0.042,180.034
0.0668,128.181881,37.968284,7002.744033600001,0.516,-0.061,180.064
0.0834,128.181881,37.968239,7002.7187352,0.689,-0.081,180.074
0.1002,128.181881,37.968194,7002.692522400001,0.783,-0.102,180.064
0.1169,128.181881,37.968149,7002.6657000000005,0.789,-0.122,180.039
0.1336,128.181881,37.968104,7002.6388776,0.702,-0.142,180.006
0.1503,128.181881,37.968059,7002.6120552,0.518,-0.162,179.97
0.1669,128.181881,37.968014,7002.585842400001,0.237,-0.182,179.932
0.1837,128.181881,37.967969,7002.560544,-0.136,-0.201,179.895
0.2004,128.181881,37.967924,7002.5343312,-0.428,-0.218,179.882
0.2171,128.181881,37.967879,7002.5078136,-0.639,-0.234,179.892
0.2338,128.181881,37.967834,7002.4800768000005,-0.759,-0.25,179.917
0.2505,128.181881,37.967789,7002.450816,-0.781,-0.266,179.951
0.2672,128.181881,37.967744,7002.4200312,-0.701,-0.283,179.988
0.2839,128.181881,37.967699,7002.386808,-0.52,-0.3,180.027
0.3006,128.181881,37.967653,7002.351451200001,-0.24,-0.318,180.066
0.3172,128.181881,37.967608,7002.3130464000005,0.136,-0.336,180.103
0.3339,128.181881,37.967563,7002.2734224000005,0.429,-0.352,180.117
0.3507,128.181881,37.967518,7002.232579200001,0.641,-0.367,180.107
0.3674,128.181881,37.967473,7002.1905168,0.763,-0.382,180.082
0.3841,128.181881,37.967428,7002.148149600001,0.785,-0.398,180.048
0.4008,128.181881,37.967383,7002.1051728,0.707,-0.414,180.011
0.4175,128.181881,37.967338,7002.062500800001,0.526,-0.43,179.973
0.4342,128.181881,37.967293,7002.020133600001,0.246,-0.447,179.934
0.4509,128.181881,37.967248,7001.9786808,-0.129,-0.462,179.897
0.4676,128.181881,37.967202,7001.9363136,-0.422,-0.476,179.883
0.4843,128.181881,37.967157,7001.893336800001,-0.633,-0.488,179.894
0.501,128.181881,37.967112,7001.8491408,-0.754,-0.501,179.919
0.5176,128.181881,37.967067,7001.8034208,-0.775,-0.514,179.953
0.5344,128.181881,37.967022,7001.7561768000005,-0.694,-0.529,179.99
0.5511,128.181881,37.966977,7001.7064944,-0.511,-0.543,180.029
0.5678,128.181881,37.966932,7001.6540688000005,-0.228,-0.559,180.067
0.5845,128.181881,37.966886,7001.5989,0.15,-0.575,180.105
0.6012,128.181881,37.966841,7001.5428168,0.446,-0.589,180.118
0.6179,128.181881,37.966796,7001.4852096,0.66,-0.601,180.108
0.6345,128.181881,37.966751,7001.426383200001,0.783,-0.614,180.083
0.6513,128.181881,37.966706,7001.366947200001,0.806,-0.628,180.049
0.6679,128.181881,37.96666,7001.307206400001,0.727,-0.642,180.012
0.6847,128.181881,37.966615,7001.2474656,0.546,-0.657,179.974
0.7014,128.181881,37.96657,7001.1880296,0.264,-0.671,179.936
0.7181,128.181881,37.966525,7001.129508,-0.113,-0.686,179.898
0.7348,128.181881,37.966479,7001.070072,-0.407,-0.698,179.885
0.7514,128.181881,37.966434,7001.0097216,-0.619,-0.709,179.896
0.7682,128.181881,37.966389,7000.948456800001,-0.739,-0.719,179.921
0.7848,128.181881,37.966344,7000.885668,-0.76,-0.731,179.955
0.8016,128.181881,37.966298,7000.821050400001,-0.678,-0.744,179.993
0.8183,128.181881,37.966253,7000.7539944,-0.493,-0.758,180.031
0.835,128.181881,37.966208,7000.6845,-0.208,-0.772,180.069
0.8517,128.181881,37.966162,7000.6122624,0.173,-0.787,180.107
0.8684,128.181881,37.966117,7000.5388056,0.471,-0.8,180.12
0.8851,128.181881,37.966072,7000.463824800001,0.687,-0.812,180.109
0.9018,128.181881,37.966026,7000.387624800001,0.81,-0.823,180.084
0.9185,128.181881,37.965981,7000.3108152,0.834,-0.836,180.05
0.9352,128.18188,37.965936,7000.2340056,0.754,-0.849,180.013
0.9519,128.18188,37.96589,7000.1568912,0.572,-0.863,179.975
0.9686,128.18188,37.965845,7000.0800816,0.289,-0.877,179.937
0.9853,128.18188,37.9658,7000.0041864,-0.089,-0.891,179.9
1.002,128.18188,37.965754,6999.9273768,-0.385,-0.903,179.887
1.0187,128.18188,37.965709,6999.8496528,-0.598,-0.912,179.898
1.0353,128.18188,37.965664,6999.7710144,-0.719,-0.922,179.924
1.0521,128.18188,37.965618,6999.690852000001,-0.739,-0.932,179.958
1.0688,128.18188,37.965573,6999.608860800001,-0.656,-0.944,179.995
1.0855,128.18188,37.965527,6999.524736,-0.469,-0.958,180.033
1.1022,128.18188,37.965482,6999.437868,-0.182,-0.972,180.071
1.1189,128.18188,37.965436,6999.347952000001,0.202,-0.986,180.108
1.1356,128.18188,37.965391,6999.2574264,0.502,-0.999,180.121
1.1522,128.18188,37.965346,6999.165072,0.719,-1.01,180.111
1.169,128.18188,37.9653,6999.0714984,0.843,-1.021,180.085
1.1857,128.18188,37.965255,6998.977620000001,0.867,-1.033,180.051
1.2024,128.18188,37.965209,6998.883132000001,0.787,-1.046,180.014
1.2191,128.18188,37.965164,6998.788644,0.604,-1.06,179.976
1.2358,128.18188,37.965118,6998.694765600001,0.32,-1.074,179.939
1.2525,128.18188,37.965073,6998.601496800001,-0.061,-1.087,179.902
1.2691,128.18188,37.965027,6998.5073136,-0.358,-1.098,179.889
1.2859,128.18188,37.964982,6998.412216,-0.572,-1.107,179.9
1.3026,128.18188,37.964936,6998.316204000001,-0.693,-1.116,179.926
1.3193,128.18188,37.964891,6998.218668,-0.713,-1.125,179.96
1.3359,128.18188,37.964845,6998.1193032,-0.629,-1.137,179.997
1.3527,128.18188,37.9648,6998.017804800001,-0.441,-1.149,180.036
1.3694,128.18188,37.964754,6997.913868000001,-0.151,-1.163,180.073
1.386,128.18188,37.964709,6997.806883200001,0.235,-1.177,180.11
1.4028,128.18188,37.964663,6997.698984000001,0.538,-1.19,180.122
1.4195,128.18188,37.964617,6997.589256000001,0.756,-1.2,180.112
1.4362,128.18188,37.964572,6997.4786136,0.881,-1.211,180.086
1.4528,128.18188,37.964526,6997.3673616,0.905,-1.223,180.052
1.4696,128.18188,37.964481,6997.2558048,0.825,-1.236,180.015
1.4863,128.18188,37.964435,6997.144248,0.641,-1.249,179.977
1.5029,128.18188,37.964389,6997.032996000001,0.355,-1.263,179.94
1.5197,128.18188,37.964344,6996.9223536,-0.029,-1.277,179.904
1.5364,128.18188,37.964298,6996.811101600001,-0.327,-1.287,179.892
1.5531,128.18188,37.964252,6996.6989352,-0.542,-1.296,179.903
1.5697,128.18188,37.964207,6996.5858544,-0.663,-1.303,179.929
1.5865,128.18188,37.964161,6996.4709448,-0.682,-1.312,179.963
1.6032,128.18188,37.964115,6996.354511200001,-0.597,-1.323,180.0
1.6198,128.18188,37.96407,6996.235944,-0.407,-1.335,180.038
1.6366,128.18188,37.964024,6996.114633600001,-0.115,-1.348,180.075
1.6533,128.18188,37.963978,6995.99058,0.274,-1.363,180.111
1.67,128.18188,37.963933,6995.865612,0.578,-1.375,180.124
1.6867,128.18188,37.963887,6995.739120000001,0.798,-1.385,180.113
1.7034,128.18188,37.963841,6995.6114088,0.924,-1.396,180.087
1.7201,128.18188,37.963796,6995.483088000001,0.948,-1.407,180.053
1.7368,128.18188,37.96375,6995.3544624,0.867,-1.42,180.016
1.7535,128.18188,37.963704,6995.2258368,0.682,-1.433,179.979
1.7702,128.18188,37.963658,6995.097516,0.394,-1.447,179.942
1.7869,128.18188,37.963613,6994.970109600001,0.008,-1.461,179.906
1.8036,128.18188,37.963567,6994.8414840000005,-0.291,-1.472,179.894
1.8203,128.18188,37.963521,6994.7125536,-0.507,-1.479,179.905
1.837,128.18188,37.963475,6994.582404,-0.628,-1.486,179.931
1.8537,128.18188,37.963429,6994.4507304,-0.647,-1.494,179.965
1.8704,128.18188,37.963384,6994.317228000001,-0.561,-1.504,180.002
1.8871,128.18188,37.963338,6994.181896800001,-0.369,-1.515,180.04
1.9038,128.18188,37.963292,6994.0435176,-0.075,-1.528,180.077
1.9205,128.18188,37.963246,6993.902700000001,0.317,-1.542,180.113
1.9372,128.18188,37.9632,6993.7609680000005,0.624,-1.554,180.125
1.9539,128.18188,37.963155,6993.6174072,0.845,-1.564,180.114
1.9706,128.18188,37.963109,6993.472932000001,0.972,-1.574,180.088
1.9873,128.18188,37.963063,6993.327847200001,0.996,-1.585,180.054
2.004,128.18188,37.963017,6993.1824576,0.915,-1.598,180.017
2.0207,128.18188,37.962971,6993.0370680000005,0.728,-1.612,179.98
2.0374,128.18188,37.962925,6992.891983200001,0.438,-1.625,179.943
2.0541,128.181879,37.962879,6992.7478128,0.05,-1.64,179.908
2.0707,128.181879,37.962833,6992.604556800001,-0.433,-1.653,179.873
2.0875,128.181879,37.962787,6992.460691200001,-0.825,-1.664,179.863
2.1042,128.181879,37.962742,6992.3165208,-1.128,-1.672,179.875
2.1208,128.181879,37.962696,6992.1714360000005,-1.332,-1.68,179.903
2.1376,128.181879,37.96265,6992.0254368000005,-1.429,-1.689,179.938
2.1543,128.181879,37.962604,6991.8779136,-1.417,-1.699,179.976
2.171,128.181879,37.962558,6991.728256800001,-1.295,-1.711,180.014
2.1877,128.181879,37.962512,6991.5767712,-1.067,-1.723,180.052
2.2044,128.181879,37.962466,6991.422542400001,-0.736,-1.736,180.089
2.2211,128.181879,37.96242,6991.265570400001,-0.307,-1.75,180.124
2.2378,128.181879,37.962374,6991.1076840000005,0.032,-1.759,180.135
2.2544,128.181879,37.962328,6990.948273600001,0.285,-1.764,180.124
2.2712,128.181879,37.962282,6990.7879488,0.441,-1.768,180.097
2.2879,128.181879,37.962236,6990.6267096,0.492,-1.773,180.064
2.3045,128.181879,37.96219,6990.465165600001,0.436,-1.779,180.027
2.3213,128.181879,37.962144,6990.3039264,0.272,-1.787,179.99
2.338,128.181879,37.962098,6990.1426872,0.004,-1.796,179.953
2.3546,128.181879,37.962052,6989.9823624,-0.364,-1.806,179.918
2.3714,128.181879,37.962006,6989.8211232,-0.646,-1.814,179.906
2.3881,128.181879,37.96196,6989.659274400001,-0.843,-1.821,179.918
2.4048,128.181879,37.961914,6989.496511200001,-0.945,-1.829,179.944
2.4215,128.181879,37.961868,6989.332224000001,-0.944,-1.838,179.978
2.4382,128.181879,37.961821,6989.166108,-0.837,-1.85,180.015
2.4549,128.181879,37.961775,6988.9978584,-0.624,-1.862,180.052
2.4716,128.181879,37.961729,6988.827170400001,-0.308,-1.876,180.088
2.4882,128.181879,37.961683,6988.6537392,0.105,-1.891,180.123
2.505,128.181879,37.961637,6988.4793936,0.431,-1.903,180.134
2.5217,128.181879,37.961591,6988.303524000001,0.67,-1.911,180.123
2.5383,128.181879,37.961545,6988.1264352,0.812,-1.919,180.096
2.5551,128.181879,37.961499,6987.949041600001,0.849,-1.928,180.062
2.5718,128.181879,37.961452,6987.7713432,0.778,-1.938,180.026
2.5884,128.181879,37.961406,6987.5936448,0.599,-1.95,179.989
2.6052,128.181879,37.96136,6987.4162512,0.317,-1.963,179.953
2.6219,128.181879,37.961314,6987.2394672,-0.066,-1.977,179.918
2.6386,128.181879,37.961268,6987.0639024,-0.545,-1.99,179.884
2.6553,128.181879,37.961221,6986.887728000001,-0.933,-2.0,179.874
2.6719,128.181879,37.961175,6986.7112488,-1.23,-2.007,179.887
2.6887,128.181879,37.961129,6986.53416,-1.426,-2.015,179.915
2.7054,128.181879,37.961083,6986.355852000001,-1.515,-2.024,179.949
2.722,128.181879,37.961036,6986.176020000001,-1.493,-2.035,179.987
2.7388,128.181879,37.96099,6985.9943592,-1.36,-2.046,180.025
2.7555,128.181879,37.960944,6985.810564800001,-1.121,-2.059,180.062
2.7721,128.181879,37.960898,6985.624332,-0.778,-2.072,180.097
2.7889,128.181879,37.960851,6985.435356000001,-0.336,-2.086,180.132
2.8056,128.181879,37.960805,6985.245770400001,0.013,-2.095,180.142
2.8222,128.181879,37.960759,6985.054356000001,0.275,-2.099,180.13
2.839,128.181879,37.960713,6984.862027200001,0.438,-2.102,180.103
2.8557,128.181879,37.960666,6984.6690888,0.494,-2.105,180.069
2.8724,128.181879,37.96062,6984.4758456,0.441,-2.11,180.033
2.8891,128.181878,37.960574,6984.2826024,0.278,-2.117,179.996
2.9057,128.181878,37.960527,6984.089664,0.01,-2.125,179.96
2.9225,128.181878,37.960481,6983.89764,-0.36,-2.134,179.926
2.9392,128.181878,37.960434,6983.7065304,-0.828,-2.143,179.892
2.9558,128.181878,37.960388,6983.514811200001,-1.203,-2.15,179.882
2.9726,128.181878,37.960342,6983.322787200001,-1.488,-2.157,179.896
2.9893,128.181878,37.960295,6983.1301536,-1.672,-2.165,179.923
3.0059,128.181878,37.960249,6982.936300800001,-1.748,-2.175,179.958
3.0227,128.181878,37.960203,6982.7412288000005,-1.713,-2.186,179.995
3.0394,128.181878,37.960156,6982.544328000001,-1.567,-2.199,180.033
3.056,128.181878,37.96011,6982.3452936,-1.314,-2.212,180.069
3.0728,128.181878,37.960063,6982.1438208,-0.958,-2.226,180.104
3.0895,128.181878,37.960017,6981.939604800001,-0.503,-2.24,180.138
3.1062,128.181878,37.95997,6981.734474400001,-0.14,-2.248,180.148
3.1229,128.181878,37.959924,6981.528124800001,0.132,-2.252,180.135
3.1395,128.181878,37.959877,6981.320556000001,0.304,-2.253,180.108
3.1563,128.181878,37.959831,6981.1123776,0.368,-2.254,180.074
3.173,128.181878,37.959784,6980.9041992,0.32,-2.258,180.038
3.1896,128.181878,37.959738,6980.695716,0.163,-2.263,180.001
3.2064,128.181878,37.959691,6980.487842400001,-0.1,-2.269,179.966
3.2231,128.181878,37.959645,6980.280883200001,-0.467,-2.277,179.931
3.2397,128.181878,37.959598,6980.074838400001,-0.932,-2.284,179.898
3.2565,128.181878,37.959552,6979.867879200001,-1.304,-2.291,179.889
3.2732,128.181878,37.959505,6979.661224800001,-1.585,-2.297,179.902
3.2899,128.181878,37.959459,6979.453351200001,-1.765,-2.306,179.93
3.3066,128.181878,37.959412,6979.244868000001,-1.836,-2.317,179.965
3.3233,128.181878,37.959366,6979.0345560000005,-1.795,-2.329,180.002
3.34,128.181878,37.959319,6978.822720000001,-1.643,-2.342,180.039
3.3567,128.181878,37.959272,6978.6090552000005,-1.384,-2.356,180.074
3.3734,128.181878,37.959226,6978.392647200001,-1.021,-2.37,180.109
3.3901,128.181878,37.959179,6978.1738008,-0.558,-2.385,180.142
3.4068,128.181878,37.959133,6977.951906400001,-0.002,-2.4,180.174
3.4235,128.181878,37.959086,6977.729097600001,0.456,-2.401,180.183
3.4402,128.181878,37.959039,6977.505069600001,0.819,-2.374,180.169
3.4569,128.181878,37.958993,6977.2807368,1.076,-2.304,180.142
3.4736,128.181878,37.958946,6977.0573184,1.22,-2.176,180.109
3.4903,128.181878,37.958899,6976.835119200001,1.249,-1.982,180.076
3.507,128.181878,37.958853,6976.6153584,1.163,-1.713,180.044
3.5237,128.181878,37.958806,6976.399255200001,0.967,-1.362,180.015
3.5404,128.181878,37.958759,6976.187114400001,0.665,-0.937,179.987
3.5571,128.181878,37.958713,6975.980155200001,0.262,-0.453,179.96
3.5738,128.181878,37.958666,6975.7786824,-0.235,0.075,179.931
3.5905,128.181878,37.958619,6975.5823912000005,-0.638,0.629,179.923
3.6072,128.181878,37.958573,6975.3912816,-0.947,1.189,179.935
3.6239,128.181878,37.958526,6975.206268,-1.153,1.737,179.957
3.6406,128.181878,37.958479,6975.0267408,-1.249,2.252,179.984
3.6573,128.181878,37.958432,6974.8527,-1.235,2.717,180.012
3.674,128.181878,37.958386,6974.6841456,-1.113,3.112,180.04
3.6907,128.181878,37.958339,6974.520468000001,-0.886,3.419,180.068
3.7074,128.181877,37.958292,6974.364105600001,-0.742,3.652,180.076
3.7241,128.181877,37.958245,6974.2147536,-0.679,3.826,180.063
3.7408,128.181877,37.958199,6974.0727168,-0.706,3.954,180.037
3.7575,128.181877,37.958152,6973.9389096,-0.828,4.051,180.005
3.7742,128.181877,37.958105,6973.813332000001,-1.047,4.133,179.971
3.7909,128.181877,37.958058,6973.6965936,-1.362,4.213,179.935
3.8076,128.181877,37.958012,6973.5896088,-1.772,4.307,179.899
3.8243,128.181877,37.957965,6973.4926824,-2.272,4.426,179.862
3.841,128.181877,37.957918,6973.406119200001,-2.861,4.581,179.823
3.8577,128.181877,37.957871,6973.330528800001,-3.535,4.769,179.781
3.8744,128.181877,37.957825,6973.2665208,-4.29,4.982,179.736
3.8911,128.181877,37.957778,6973.212876,-5.124,5.213,179.687
3.9078,128.181877,37.957731,6973.1705088,-6.033,5.455,179.635
3.9245,128.181877,37.957685,6973.139419200001,-7.013,5.701,179.578
3.9412,128.181877,37.957638,6973.119912,-8.063,5.947,179.517
3.9579,128.181878,37.957591,6973.1116824,-9.178,6.189,179.452
3.9746,128.181878,37.957544,6973.1150352,-10.358,6.425,179.382
3.9913,128.181878,37.957498,6973.129970400001,-11.598,6.654,179.308
4.008,128.181878,37.957451,6973.1564880000005,-12.898,6.874,179.23
4.0247,128.181878,37.957404,6973.194892800001,-14.255,7.086,179.147
4.0414,128.181878,37.957358,6973.24488,-15.667,7.29,179.059
4.058,128.181879,37.957311,6973.3067544000005,-17.134,7.486,178.966
4.0748,128.181879,37.957264,6973.380211200001,-18.653,7.674,178.867
4.0915,128.181879,37.957218,6973.4652504000005,-20.224,7.854,178.764
4.1082,128.18188,37.957171,6973.5615672,-21.846,8.028,178.655
4.1249,128.18188,37.957124,6973.6697712,-23.518,8.194,178.54
4.1415,128.181881,37.957078,6973.788947999999,-25.238,8.354,178.419
4.1583,128.181881,37.957031,6973.9194024,-27.007,8.509,178.292
4.175,128.181882,37.956984,6974.060524800001,-28.824,8.657,178.159
4.1917,128.181883,37.956938,6974.212620000001,-30.687,8.799,178.019
4.2084,128.181884,37.956891,6974.375383200001,-32.598,8.936,177.872
4.2251,128.181884,37.956845,6974.5482048,-34.555,9.067,177.719
4.2417,128.181885,37.956798,6974.7313896,-36.558,9.192,177.558
4.2585,128.181887,37.956752,6974.9240232,-38.607,9.311,177.39
4.2752,128.181888,37.956705,6975.1261056,-40.701,9.424,177.214
4.2919,128.181889,37.956659,6975.337332,-42.841,9.532,177.031
4.3086,128.18189,37.956612,6975.5573976000005,-45.027,9.633,176.839
4.3252,128.181892,37.956566,6975.785692800001,-47.257,9.728,176.639
4.342,128.181894,37.956519,6976.0219128,-49.533,9.816,176.431
4.3587,128.181895,37.956473,6976.2657528,-51.855,9.897,176.214
4.3754,128.181897,37.956426,6976.5169080000005,-54.222,9.97,175.988
4.3921,128.181899,37.95638,6976.774464,-56.634,10.035,175.754
4.4088,128.181901,37.956333,6977.0384208,-59.091,10.091,175.511
4.4254,128.181903,37.956287,6977.307864,-61.594,10.139,175.259
4.4422,128.181906,37.956241,6977.5827936,-64.142,10.176,174.999
4.4589,128.181908,37.956194,6977.861990400001,-66.736,10.203,174.731
4.4756,128.181911,37.956148,6978.145759200001,-69.375,10.218,174.454
4.4923,128.181913,37.956101,6978.4328808,-72.061,10.221,174.17
4.5089,128.181916,37.956055,6978.723050400001,-74.792,10.211,173.877
4.5256,128.181919,37.956009,6979.015658400001,-77.569,10.188,173.578
4.5424,128.181923,37.955962,6979.3100952,-80.392,10.149,173.271
4.5591,128.181926,37.955916,6979.6060560000005,-83.261,10.095,172.958
4.5758,128.181929,37.95587,6979.9026264,-86.176,10.025,172.64
4.5925,128.181933,37.955823,6980.199196800001,-89.137,9.938,172.318
4.6091,128.181937,37.955777,6980.4951576,-92.144,9.834,171.991
4.6259,128.18194,37.955731,6980.790204,-95.196,9.711,171.662
4.6426,128.181944,37.955685,6981.0837264,-98.293,9.569,171.331
4.6593,128.181948,37.955638,6981.374810400001,-101.433,9.406,170.999
4.676,128.181953,37.955592,6981.663456000001,-104.613,9.223,170.669
4.6927,128.181957,37.955546,6981.9487488,-107.825,9.022,170.353
4.7093,128.181962,37.9555,6982.230384000001,-111.063,8.809,170.066
4.7261,128.181966,37.955453,6982.508056800001,-114.322,8.59,169.821
4.7428,128.181971,37.955407,6982.7817672,-117.598,8.374,169.628
4.7595,128.181976,37.955361,6983.050905600001,-120.887,8.171,169.498
4.7762,128.181981,37.955315,6983.3160816,-124.186,7.991,169.44
4.7928,128.181986,37.955268,6983.5766856,-127.495,7.846,169.458
4.8096,128.181991,37.955222,6983.8330224,-130.814,7.734,169.539
4.8263,128.181996,37.955176,6984.085092,-134.146,7.647,169.666
4.843,128.182001,37.95513,6984.3328944,-137.494,7.576,169.821
4.8597,128.182006,37.955084,6984.5770391999995,-140.858,7.508,169.99
4.8764,128.182011,37.955037,6984.8169168,-144.24,7.433,170.161
4.893,128.182016,37.954991,6985.053746400001,-147.643,7.347,170.33
4.9098,128.182022,37.954945,6985.2869184,-151.07,7.248,170.498
4.9265,128.182027,37.954899,6985.517347200001,-154.522,7.134,170.661
4.9432,128.182032,37.954852,6985.744728000001,-157.999,6.999,170.816
4.9599,128.182038,37.954806,6985.969365600001,-161.5,6.837,170.961
4.9765,128.182043,37.95476,6986.1912600000005,-165.022,6.647,171.098
4.9932,128.182049,37.954714,6986.410715999999,-168.563,6.428,171.225
5.01,128.182054,37.954667,6986.627733600001,-172.118,6.181,171.346
5.0267,128.182059,37.954621,6986.8423128,-175.683,5.907,171.459
5.0434,128.182065,37.954575,6987.053844,-179.255,5.608,171.568
5.0601,128.18207,37.954528,6987.262632000001,177.172,5.286,171.672
5.0767,128.182076,37.954482,6987.468372,173.601,4.941,171.772
5.0935,128.182081,37.954436,6987.6704544,170.037,4.577,171.87
5.1102,128.182087,37.95439,6987.868879200001,166.497,4.195,171.974
5.1269,128.182092,37.954343,6988.062732,162.994,3.799,172.092
5.1436,128.182098,37.954297,6988.251708,159.539,3.394,172.23
5.1602,128.182103,37.954251,6988.435197600001,156.137,2.982,172.393
5.1769,128.182109,37.954204,6988.612591200001,152.786,2.567,172.581
5.1937,128.182114,37.954158,6988.783279200001,149.486,2.152,172.797
5.2104,128.18212,37.954112,6988.9466520000005,146.233,1.74,173.041
5.2271,128.182125,37.954065,6989.102709600001,143.024,1.334,173.312
5.2438,128.182131,37.954019,6989.250842400001,139.855,0.94,173.607
5.2604,128.182136,37.953973,6989.390745600001,136.723,0.564,173.921
5.2772,128.182141,37.953926,6989.522114400001,133.626,0.212,174.249
5.2939,128.182147,37.95388,6989.6452536,130.558,-0.109,174.583
5.3106,128.182152,37.953834,6989.7595536,127.515,-0.405,174.929
5.3273,128.182157,37.953787,6989.865624000001,124.494,-0.672,175.28
5.3439,128.182162,37.953741,6989.963769600001,121.492,-0.907,175.628
5.3606,128.182167,37.953694,6990.053990400001,118.513,-1.107,175.966
5.3774,128.182172,37.953648,6990.1365912,115.556,-1.273,176.289
5.3941,128.182177,37.953601,6990.2121816,112.622,-1.405,176.592
5.4108,128.182182,37.953555,6990.2807616,109.709,-1.507,176.874
5.4275,128.182187,37.953509,6990.3429408,106.816,-1.582,177.136
5.4441,128.182191,37.953462,6990.399024,103.943,-1.632,177.376
5.4609,128.182196,37.953416,6990.449316,101.092,-1.662,177.597
5.4776,128.1822,37.953369,6990.495036,98.271,-1.674,177.801
5.4943,128.182205,37.953323,6990.535879200001,95.489,-1.672,177.989
5.511,128.182209,37.953276,6990.5724552,92.751,-1.658,178.163
5.5277,128.182213,37.95323,6990.6050688000005,90.072,-1.634,178.337
5.5443,128.182217,37.953183,6990.6343296,87.463,-1.603,178.513
5.5611,128.182222,37.953137,6990.660237600001,84.935,-1.564,178.689
5.5778,128.182226,37.95309,6990.6834024,82.504,-1.518,178.864
5.5945,128.18223,37.953044,6990.7035192,80.168,-1.466,179.033
5.6112,128.182233,37.952997,6990.720892800001,77.929,-1.409,179.195
5.6278,128.182237,37.952951,6990.735828000001,75.786,-1.346,179.347
5.6445,128.182241,37.952904,6990.748324800001,73.744,-1.279,179.49
5.6613,128.182245,37.952857,6990.758688000001,71.799,-1.208,179.622
5.678,128.182249,37.952811,6990.767527200001,69.933,-1.135,179.742
5.6947,128.182252,37.952764,6990.7745376,68.142,-1.059,179.848
5.7114,128.182256,37.952717,6990.780024000001,66.497,-0.981,179.957
5.728,128.182259,37.952671,6990.784291200001,64.992,-0.897,180.078
5.7448,128.182263,37.952624,6990.7867295999995,63.622,-0.808,180.206
5.7615,128.182266,37.952577,6990.787644,62.384,-0.718,180.334
5.7782,128.182269,37.952531,6990.7870344,61.273,-0.627,180.458
5.7949,128.182273,37.952484,6990.7849008,60.285,-0.539,180.572
5.8115,128.182276,37.952437,6990.7812432,59.403,-0.453,180.673
5.8282,128.182279,37.952391,6990.7766712,58.612,-0.372,180.759
5.845,128.182283,37.952344,6990.7711848,57.889,-0.296,180.828
5.8617,128.182286,37.952297,6990.7650888,57.23,-0.226,180.882
5.8784,128.182289,37.95225,6990.758383200001,56.626,-0.162,180.923
5.8951,128.182292,37.952203,6990.7513728,56.071,-0.105,180.951
5.9117,128.182295,37.952157,6990.7437528,55.562,-0.055,180.969
5.9285,128.182298,37.95211,6990.736132800001,55.088,-0.01,180.977
5.9452,128.182301,37.952063,6990.7279032,54.654,0.028,180.979
5.9619,128.182303,37.952016,6990.7196736000005,54.258,0.064,180.978
5.9786,128.182306,37.951969,6990.711444,53.897,0.097,180.975
5.9952,128.182309,37.951922,6990.702604800001,53.568,0.129,180.972
6.0119,128.182312,37.951876,6990.694070400001,53.265,0.159,180.968
6.0287,128.182314,37.951829,6990.6849264,52.994,0.184,180.96
6.0454,128.182317,37.951782,6990.675782400001,52.748,0.203,180.944
6.0621,128.182319,37.951735,6990.666333600001,52.532,0.212,180.919
6.0788,128.182322,37.951688,6990.655970400001,52.349,0.209,180.881
6.0954,128.182324,37.951641,6990.644997600001,52.203,0.192,180.827
6.1121,128.182327,37.951594,6990.633110400001,52.096,0.162,180.76
6.1289,128.182329,37.951547,6990.6203088,52.031,0.126,180.688
6.1456,128.182332,37.9515,6990.6072024,52.003,0.091,180.62
6.1623,128.182334,37.951453,6990.5934864,52.004,0.063,180.563
6.179,128.182336,37.951406,6990.579465600001,52.025,0.044,180.518
6.1956,128.182338,37.951359,6990.56514,52.056,0.037,180.488
6.2124,128.182341,37.951312,6990.5499,51.976,0.043,180.454
6.2291,128.182343,37.951265,6990.53466,51.787,0.063,180.418
6.2458,128.182345,37.951218,6990.5197248,51.488,0.087,180.376
6.2625,128.182347,37.951171,6990.5050944,51.077,0.111,180.33
6.2791,128.182349,37.951123,6990.491378400001,50.555,0.136,180.283
6.2958,128.182351,37.951076,6990.478272,49.924,0.16,180.237
6.3126,128.182353,37.951029,6990.4663848,49.188,0.184,180.193
6.3293,128.182354,37.950982,6990.4557168,48.352,0.21,180.154
6.346,128.182356,37.950935,6990.4465728000005,47.42,0.24,180.122
6.3627,128.182358,37.950888,6990.4395624,46.395,0.276,180.098
6.3793,128.182359,37.950841,6990.4346856,45.283,0.318,180.082
6.3961,128.182361,37.950794,6990.4319424000005,44.086,0.365,180.074
6.4128,128.182363,37.950747,6990.4307232,42.809,0.408,180.063
6.4295,128.182364,37.950699,6990.431028000001,41.48,0.444,180.048
6.4462,128.182365,37.950652,6990.4337712,40.087,0.472,180.029
6.4628,128.182367,37.950605,6990.437733600001,38.677,0.496,180.009
6.4795,128.182368,37.950558,6990.442915200001,37.294,0.516,179.993
6.4963,128.182369,37.950511,6990.4496208,35.978,0.535,179.984
6.513,128.182371,37.950464,6990.4569360000005,34.795,0.554,179.985
6.5297,128.182372,37.950417,6990.465165600001,33.751,0.578,179.997
6.5464,128.182373,37.950369,6990.4740048,32.845,0.606,180.016
6.5631,128.182374,37.950322,6990.482844,32.067,0.641,180.042
6.5798,128.182375,37.950275,6990.491683200001,31.403,0.682,180.07
6.5965,128.182376,37.950228,6990.5002176,30.838,0.73,180.1
6.6132,128.182378,37.950181,6990.508447200001,30.354,0.782,180.131
6.6299,128.182379,37.950133,6990.5157624,29.939,0.839,180.16
6.6466,128.18238,37.950086,6990.5236872000005,29.423,0.887,180.18
6.6633,128.182381,37.950039,6990.5313072,28.808,0.913,180.185
6.68,128.182382,37.949992,6990.539536800001,28.095,0.91,180.173
6.6967,128.182383,37.949944,6990.5486808000005,27.287,0.886,180.15
6.7134,128.182384,37.949897,6990.5587392,26.388,0.847,180.121
6.7301,128.182385,37.94985,6990.5700168,25.401,0.8,180.088
6.7468,128.182386,37.949803,6990.5831232,24.33,0.749,180.055
6.7635,128.182387,37.949755,6990.5977536,23.176,0.697,180.023
6.7802,128.182387,37.949708,6990.6145176,21.944,0.646,179.992
6.7969,128.182388,37.949661,6990.633720000001,20.637,0.597,179.965
6.8136,128.182389,37.949614,6990.6553608,19.257,0.55,179.94
6.8303,128.18239,37.949566,6990.6797448,17.807,0.507,179.918
6.847,128.182391,37.949519,6990.7062624,16.29,0.466,179.898
6.8637,128.182391,37.949472,6990.7349136,14.708,0.428,179.882
6.8804,128.182392,37.949425,6990.7660032,13.065,0.394,179.868
6.8971,128.182393,37.949377,6990.7992264,11.362,0.362,179.856
6.9138,128.182394,37.94933,6990.8345832,9.604,0.333,179.847
6.9305,128.182394,37.949283,6990.8711592,7.801,0.307,179.84
6.9472,128.182395,37.949236,6990.909259200001,5.958,0.284,179.836
6.9639,128.182396,37.949188,6990.948883200001,4.085,0.264,179.834
6.9806,128.182396,37.949141,6990.9891168,2.187,0.245,179.835
6.9973,128.182397,37.949094,6991.0305696000005,0.271,0.229,179.837
7.014,128.182398,37.949047,6991.074156000001,-1.677,0.215,179.84
7.0307,128.182398,37.948999,6991.118352,-3.655,0.203,179.843
7.0474,128.182399,37.948952,6991.1634624,-5.655,0.193,179.848
7.0641,128.1824,37.948905,6991.209487200001,-7.486,0.201,179.862
7.0808,128.1824,37.948858,6991.2561216,-9.152,0.242,179.882
7.0975,128.182401,37.94881,6991.303365600001,-10.653,0.328,179.901
7.1142,128.182402,37.948763,6991.351524000001,-11.99,0.474,179.909
7.1309,128.182402,37.948716,6991.400596800001,-13.165,0.688,179.902
7.1476,128.182403,37.948669,6991.4511936,-14.182,0.977,179.872
7.1643,128.182404,37.948621,6991.503619200001,-15.049,1.35,179.817
7.181,128.182404,37.948574,6991.557568800001,-15.769,1.793,179.737
7.1977,128.182405,37.948527,6991.613652000001,-16.352,2.293,179.634
7.2144,128.182406,37.948479,6991.672173600001,-16.801,2.833,179.514
7.2311,128.182406,37.948432,6991.732828800001,-17.124,3.394,179.381
7.2478,128.182407,37.948385,6991.796532,-17.323,3.956,179.238
7.2645,128.182408,37.948338,6991.8629784,-17.427,4.499,179.09
7.2812,128.182409,37.94829,6991.933082400001,-17.438,5.003,178.94
7.2979,128.18241,37.948243,6992.0065392,-17.361,5.452,178.798
7.3146,128.18241,37.948195,6992.0848728,-17.381,5.824,178.663
7.3313,128.182411,37.948148,6992.1674736,-17.495,6.104,178.54
7.348,128.182412,37.948101,6992.2549512000005,-17.707,6.275,178.442
7.3647,128.182413,37.948053,6992.3466960000005,-18.018,6.326,178.379
7.3814,128.182414,37.948006,6992.4433176,-18.427,6.262,178.352
7.3981,128.182415,37.947959,6992.544816,-18.933,6.102,178.357
7.4148,128.182416,37.947911,6992.650886400001,-19.534,5.863,178.39
7.4315,128.182417,37.947864,6992.761528800001,-20.228,5.564,178.447
7.4482,128.182418,37.947816,6992.876438400001,-21.013,5.224,178.521
7.4649,128.182419,37.947769,6992.9956152,-21.889,4.862,178.607
7.4816,128.18242,37.947722,6993.1190592,-22.853,4.496,178.7
7.4983,128.182421,37.947674,6993.246770400001,-23.906,4.143,178.792
7.515,128.182422,37.947627,6993.376005600001,-24.84,3.827,178.886
7.5317,128.182423,37.947579,6993.507984000001,-25.66,3.563,178.975
7.5484,128.182424,37.947532,6993.641791200001,-26.363,3.354,179.049
7.5651,128.182425,37.947484,6993.7765128,-26.948,3.192,179.109
7.5818,128.182427,37.947437,6993.9115392,-27.415,3.063,179.157
7.5985,128.182428,37.947389,6994.046565600001,-27.765,2.958,179.196
7.6152,128.182429,37.947342,6994.181287200001,-28.008,2.868,179.229
7.6319,128.18243,37.947295,6994.3150944,-28.163,2.788,179.255
7.6486,128.182432,37.947247,6994.4476824,-28.247,2.716,179.276
7.6653,128.182433,37.9472,6994.578441600001,-28.226,2.649,179.295
7.682,128.182434,37.947152,6994.707372,-28.105,2.587,179.313
7.6987,128.182435,37.947104,6994.833864,-27.89,2.528,179.329
7.7154,128.182436,37.947057,6994.9582224000005,-27.6,2.472,179.344
7.7321,128.182438,37.947009,6995.081056800001,-27.253,2.418,179.356
7.7488,128.182439,37.946962,6995.202672,-26.869,2.365,179.366
7.7655,128.18244,37.946914,6995.3227632,-26.464,2.313,179.374
7.7822,128.182442,37.946867,6995.4422448000005,-26.055,2.262,179.379
7.7989,128.182443,37.946819,6995.5611168,-25.66,2.212,179.382
7.8156,128.182444,37.946771,6995.679684000001,-25.289,2.163,179.382
7.8323,128.182445,37.946724,6995.798251200001,-24.953,2.114,179.38
7.849,128.182447,37.946676,6995.917123200001,-24.656,2.066,179.376
7.8657,128.182448,37.946628,6996.0359952,-24.4,2.02,179.37
7.8824,128.182449,37.946581,6996.1548672,-24.185,1.976,179.364
7.8991,128.182451,37.946533,6996.2737392,-24.009,1.933,179.357
7.9158,128.182452,37.946485,6996.392611200001,-23.876,1.893,179.351
7.9325,128.182453,37.946438,6996.511483200001,-23.781,1.855,179.347
7.9492,128.182455,37.94639,6996.6297456,-23.722,1.819,179.344
7.9659,128.182456,37.946342,6996.7477032,-23.692,1.787,179.344
7.9826,128.182458,37.946294,6996.8650512,-23.689,1.757,179.347
7.9993,128.182459,37.946247,6996.9817896,-23.707,1.729,179.351
8.016,128.18246,37.946199,6997.098223200001,-23.747,1.704,179.357
8.0327,128.182462,37.946151,6997.214352000001,-23.813,1.68,179.363
8.0494,128.182463,37.946103,6997.3292616,-23.785,1.676,179.372
8.0661,128.182465,37.946056,6997.4435616,-23.665,1.705,179.377
8.0828,128.182466,37.946008,6997.5572520000005,-23.452,1.779,179.368
8.0994,128.182468,37.94596,6997.6703328,-23.144,1.91,179.337
8.1161,128.182469,37.945912,6997.7831088,-22.743,2.106,179.279
8.1329,128.18247,37.945864,6997.8958848,-22.252,2.374,179.191
8.1496,128.182472,37.945817,6998.0095752,-21.675,2.722,179.071
8.1663,128.182473,37.945769,6998.123265600001,-21.018,3.136,178.927
8.183,128.182475,37.945721,6998.2375656,-20.285,3.604,178.765
8.1997,128.182477,37.945673,6998.3530848,-19.479,4.109,178.593
8.2164,128.182478,37.945625,6998.470737600001,-18.605,4.633,178.419
8.2331,128.18248,37.945577,6998.590524000001,-17.665,5.157,178.253
8.2498,128.182481,37.94553,6998.7133584,-16.664,5.662,178.1
8.2665,128.182483,37.945482,6998.8392408,-15.602,6.129,177.967
8.2831,128.182484,37.945434,6998.9693904000005,-14.482,6.554,177.855
8.2998,128.182486,37.945386,6999.1038072,-13.306,6.942,177.762
8.3166,128.182488,37.945338,6999.2434056,-12.076,7.297,177.687
8.3333,128.182489,37.94529,6999.3881856,-10.793,7.623,177.628
8.35,128.182491,37.945242,6999.538756800001,-9.459,7.924,177.583
8.3667,128.182493,37.945194,6999.6954240000005,-8.075,8.203,177.552
8.3834,128.182495,37.945147,6999.858492,-6.643,8.462,177.533
8.4001,128.182496,37.945099,7000.027960800001,-5.162,8.703,177.524
8.4168,128.182498,37.945051,7000.20444,-3.635,8.929,177.526
8.4335,128.1825,37.945003,7000.3879296,-2.062,9.14,177.537
8.4502,128.182502,37.944955,7000.5784296,-0.444,9.339,177.557
8.4668,128.182503,37.944907,7000.7765496,1.217,9.527,177.586
8.4835,128.182505,37.944859,7000.98168,2.923,9.704,177.623
8.5003,128.182507,37.944811,7001.1947352,4.671,9.872,177.668
8.517,128.182509,37.944763,7001.414496,6.462,10.015,177.719
8.5337,128.182511,37.944715,7001.6412672,8.294,10.117,177.772
8.5504,128.182512,37.944668,7001.8744392,10.165,10.163,177.825
8.5671,128.182514,37.94462,7002.1134024,12.076,10.14,177.87
8.5838,128.182516,37.944572,7002.357852000001,14.025,10.034,177.902
8.6005,128.182518,37.944524,7002.6074832,16.013,9.864,177.92
8.6172,128.182519,37.944476,7002.8619912,18.043,9.649,177.927
8.6339,128.182521,37.944428,7003.1207664,20.118,9.407,177.924
8.6505,128.182523,37.94438,7003.383504,22.243,9.158,177.916
8.6672,128.182524,37.944332,7003.6498992,24.421,8.92,177.908
8.684,128.182526,37.944284,7003.9196472,26.657,8.707,177.908
8.7007,128.182527,37.944236,7004.1924432,28.953,8.53,177.921
8.7174,128.182529,37.944188,7004.467677600001,31.311,8.392,177.949
8.7341,128.182531,37.94414,7004.7456552,33.726,8.289,177.994
8.7508,128.182532,37.944092,7005.0266808,36.177,8.221,178.055
8.7675,128.182534,37.944045,7005.3104496000005,38.644,8.185,178.134
8.7842,128.182535,37.943997,7005.5969616,41.107,8.179,178.231
8.8009,128.182536,37.943949,7005.8865216,43.548,8.2,178.348
8.8176,128.182538,37.943901,7006.1791296,45.949,8.245,178.487
8.8342,128.182539,37.943853,7006.4750904,48.297,8.311,178.648
8.8509,128.18254,37.943805,7006.774404,50.577,8.394,178.833
8.8676,128.182541,37.943757,7007.077070400001,52.782,8.492,179.042
8.8844,128.182543,37.943709,7007.3830896,54.901,8.6,179.274
8.9011,128.182544,37.943661,7007.6927663999995,56.932,8.714,179.529
8.9178,128.182545,37.943613,7008.006405600001,58.869,8.833,179.806
8.9345,128.182545,37.943565,7008.323397600001,60.711,8.953,180.103
8.9512,128.182546,37.943517,7008.644352000001,62.46,9.072,180.42
8.9679,128.182547,37.943469,7008.968659200001,64.116,9.189,180.753
8.9846,128.182547,37.943421,7009.2966240000005,65.682,9.3,181.103
9.0013,128.182548,37.943373,7009.627636800001,67.162,9.405,181.465
9.0179,128.182548,37.943325,7009.961697600001,68.56,9.501,181.836
9.0346,128.182548,37.943278,7010.298806400001,69.879,9.586,182.21
9.0513,128.182549,37.94323,7010.6383536,71.124,9.659,182.582
9.0681,128.182549,37.943182,7010.980644,72.301,9.72,182.95
9.0848,128.182548,37.943134,7011.325068,73.367,9.774,183.311
9.1015,128.182548,37.943086,7011.6716256,74.335,9.827,183.661
9.1182,128.182548,37.943038,7012.0203168,75.206,9.879,184.001
9.1349,128.182547,37.94299,7012.3717512,75.979,9.926,184.333
9.1516,128.182546,37.942942,7012.725014400001,76.657,9.968,184.655
9.1683,128.182546,37.942894,7013.080106400001,77.242,10.005,184.969
9.185,128.182545,37.942847,7013.4376368,77.736,10.037,185.274
9.2016,128.182543,37.942799,7013.7966912,78.144,10.063,185.572
9.2183,128.182542,37.942751,7014.157574400001,78.47,10.086,185.862
9.235,128.182541,37.942703,7014.5202864,78.717,10.105,186.144
9.2518,128.182539,37.942655,7014.884522400001,78.886,10.121,186.42
9.2685,128.182537,37.942608,7015.2505872,78.983,10.134,186.688
9.2852,128.182535,37.94256,7015.618176,79.008,10.144,186.949
9.3019,128.182533,37.942512,7015.9875936,78.966,10.152,187.203
9.3186,128.182531,37.942464,7016.3600592,79.031,10.132,187.439
9.3353,128.182528,37.942417,7016.733744,79.197,10.082,187.639
9.352,128.182526,37.942369,7017.108647999999,79.467,10.007,187.788
9.3687,128.182523,37.942321,7017.4844664,79.847,9.913,187.869
9.3854,128.18252,37.942273,7017.8605896,80.333,9.799,187.866
9.402,128.182517,37.942226,7018.2370176,80.922,9.667,187.765
9.4187,128.182514,37.942178,7018.613750400001,81.614,9.52,187.586
9.4355,128.182511,37.94213,7018.9901784,82.411,9.364,187.349
9.4522,128.182508,37.942083,7019.365996800001,83.315,9.202,187.072
9.4689,128.182505,37.942035,7019.7412056,84.329,9.037,186.775
9.4856,128.182501,37.941987,7020.115500000001,85.455,8.874,186.478
9.5023,128.182498,37.94194,7020.48888,86.694,8.713,186.201
9.519,128.182494,37.941892,7020.8607360000005,88.047,8.556,185.959
9.5357,128.182491,37.941844,7021.231068,89.511,8.402,185.752
9.5524,128.182487,37.941797,7021.599876,91.083,8.252,185.572
9.5691,128.182484,37.941749,7021.96716,92.76,8.104,185.413
9.5857,128.18248,37.941701,7022.332920000001,94.539,7.959,185.271
9.6024,128.182477,37.941654,7022.6965464,96.42,7.815,185.161
9.6192,128.182473,37.941606,7023.0586488,98.401,7.67,185.101
9.6359,128.182469,37.941558,7023.4186176,100.481,7.52,185.102
9.6526,128.182466,37.941511,7023.776148,102.582,7.364,185.177
9.6693,128.182462,37.941463,7024.1306304,104.621,7.204,185.337
9.686,128.182458,37.941415,7024.481760000001,106.551,7.035,185.592
9.7027,128.182454,37.941368,7024.829232,108.376,6.856,185.933
9.7194,128.18245,37.94132,7025.173351200001,110.092,6.665,186.346
9.7361,128.182446,37.941272,7025.5138128,111.689,6.457,186.813
9.7528,128.182442,37.941225,7025.850312,113.157,6.228,187.318
9.7694,128.182438,37.941177,7026.182544,114.491,5.979,187.842
9.7861,128.182434,37.941129,7026.5095944,115.689,5.716,188.366
9.8029,128.18243,37.941082,7026.8314632,116.754,5.447,188.872
9.8196,128.182425,37.941034,7027.1478456,117.689,5.181,189.344
9.8363,128.182421,37.940986,7027.4575224,118.5,4.927,189.77
9.853,128.182416,37.940939,7027.7607984,119.191,4.685,190.154
9.8697,128.182412,37.940891,7028.0558448,119.78,4.458,190.505
9.8864,128.182407,37.940844,7028.3432712,120.272,4.244,190.831
9.9031,128.182402,37.940796,7028.6224680000005,120.67,4.04,191.135
9.9198,128.182396,37.940748,7028.8931304,120.975,3.845,191.421
9.9365,128.182391,37.940701,7029.1546488,121.193,3.656,191.692
9.9531,128.182386,37.940653,7029.407632800001,121.326,3.474,191.951
9.9698,128.18238,37.940606,7029.651168,121.379,3.297,192.198
9.9865,128.182374,37.940558,7029.885864000001,121.353,3.125,192.434
10.0033,128.182368,37.940511,7030.111111200001,121.253,2.958,192.661
10.02,128.182362,37.940463,7030.3272144,121.081,2.796,192.88
10.0367,128.182356,37.940416,7030.5338688,120.841,2.638,193.092
10.0534,128.18235,37.940368,7030.731074400001,120.535,2.485,193.297
10.0701,128.182343,37.940321,7030.919136,120.165,2.337,193.496
10.0868,128.182337,37.940273,7031.097444,119.735,2.193,193.689
10.1035,128.18233,37.940226,7031.2669128,119.247,2.055,193.877
10.1202,128.182323,37.940179,7031.426628,118.702,1.922,194.061
10.1368,128.182316,37.940131,7031.577504,118.103,1.794,194.241
10.1535,128.182309,37.940084,7031.7189312,117.451,1.671,194.417
10.1702,128.182301,37.940037,7031.8515192,116.748,1.553,194.59
10.187,128.182294,37.939989,7031.975268,115.996,1.44,194.76
10.2037,128.182286,37.939942,7032.0901776,115.195,1.333,194.927
10.2204,128.182278,37.939895,7032.196248,114.348,1.232,195.091
10.2371,128.18227,37.939848,7032.2940888,113.455,1.135,195.254
10.2538,128.182262,37.939801,7032.3840048,112.529,1.044,195.414
10.2705,128.182253,37.939754,7032.466300800001,111.584,0.956,195.571
10.2872,128.182245,37.939706,7032.5409768,110.633,0.872,195.726
10.3039,128.182236,37.939659,7032.6089472,109.689,0.791,195.878
10.3205,128.182227,37.939612,7032.671736,108.871,0.703,196.007
10.3372,128.182218,37.939565,7032.7278192,108.175,0.612,196.1
10.3539,128.182209,37.939518,7032.778111200001,107.607,0.53,196.143
10.3707,128.1822,37.939471,7032.8229168,107.17,0.464,196.125
10.3874,128.18219,37.939424,7032.862236,106.862,0.419,196.034
10.4041,128.182181,37.939377,7032.8966784,106.68,0.401,195.857
10.4208,128.182171,37.939331,7032.926244,106.622,0.405,195.612
10.4375,128.182162,37.939284,7032.9509328,106.685,0.425,195.319
10.4542,128.182152,37.939237,7032.971354400001,106.866,0.456,194.995
10.4709,128.182142,37.93919,7032.9875088,107.162,0.492,194.659
10.4876,128.182132,37.939143,7032.999396,107.57,0.529,194.328
10.5042,128.182122,37.939096,7033.0076256,108.085,0.561,194.021
10.5209,128.182112,37.939049,7033.011892800001,108.694,0.586,193.742
10.5376,128.182102,37.939002,7033.011892800001,109.389,0.607,193.491
10.5544,128.182092,37.938955,7033.0082352,110.16,0.623,193.262
10.5711,128.182082,37.938908,7033.00092,111.0,0.636,193.053
10.5878,128.182072,37.938861,7032.989642400001,111.905,0.647,192.861
10.6045,128.182062,37.938815,7032.9747072,112.87,0.657,192.684
10.6212,128.182052,37.938768,7032.956114400001,113.891,0.664,192.52
10.6379,128.182041,37.938721,7032.9341688,114.967,0.671,192.367
10.6546,128.182031,37.938674,7032.908565600001,116.094,0.676,192.226
10.6713,128.182021,37.938627,7032.8799144,117.273,0.679,192.094
10.6879,128.18201,37.93858,7032.847605600001,118.503,0.681,191.971
10.7046,128.182,37.938533,7032.8125536,119.784,0.681,191.857
10.7213,128.18199,37.938486,7032.7741488,121.116,0.68,191.751
10.7381,128.181979,37.938439,7032.733000800001,122.499,0.677,191.651
10.7548,128.181969,37.938392,7032.6888048,123.934,0.672,191.558
10.7715,128.181958,37.938346,7032.642170400001,125.423,0.667,191.472
10.7882,128.181948,37.938299,7032.592792800001,126.965,0.659,191.391
10.8049,128.181937,37.938252,7032.541281600001,128.562,0.65,191.315
10.8216,128.181927,37.938205,7032.4845888,130.04,0.647,191.271
10.8383,128.181916,37.938158,7032.4245432,131.404,0.638,191.271
10.855,128.181906,37.938111,7032.36084,132.643,0.603,191.322
10.8717,128.181895,37.938064,7032.292564800001,133.751,0.529,191.425
10.8883,128.181885,37.938017,7032.2194128,134.725,0.403,191.584
10.905,128.181874,37.93797,7032.140469600001,135.567,0.217,191.801
10.9218,128.181863,37.937923,7032.05604,136.279,-0.022,192.066
10.9385,128.181853,37.937876,7031.965209600001,136.865,-0.308,192.367
10.9552,128.181842,37.937829,7031.867064,137.33,-0.627,192.693
10.9719,128.181831,37.937782,7031.7612984,137.678,-0.967,193.031
10.9886,128.18182,37.937735,7031.647608,137.913,-1.313,193.369
11.0053,128.181809,37.937689,7031.525078400001,138.042,-1.652,193.695
11.022,128.181798,37.937642,7031.3934048,138.069,-1.969,193.997
11.0387,128.181787,37.937595,7031.252587200001,138.0,-2.251,194.264
11.0554,128.181776,37.937548,7031.101711200001,137.841,-2.497,194.496
11.072,128.181765,37.937501,7030.940472,137.596,-2.714,194.7
11.0887,128.181753,37.937454,7030.7688696000005,137.269,-2.908,194.883
11.1054,128.181742,37.937408,7030.586904,136.864,-3.085,195.051
11.1222,128.18173,37.937361,7030.3945752,136.385,-3.249,195.207
11.1389,128.181719,37.937314,7030.1912736,135.834,-3.403,195.356
11.1556,128.181707,37.937267,7029.9776088,135.214,-3.55,195.5
11.1723,128.181695,37.937221,7029.7535808,134.528,-3.691,195.64
11.189,128.181683,37.937174,7029.51858,133.779,-3.827,195.779
11.2057,128.181671,37.937127,7029.273216,132.967,-3.959,195.918
11.2224,128.181659,37.937081,7029.017184000001,132.096,-4.09,196.06
11.2391,128.181647,37.937034,7028.7507888,131.167,-4.221,196.207
11.2557,128.181634,37.936988,7028.4737256,130.182,-4.35,196.357
11.2724,128.181622,37.936941,7028.1887376,129.332,-4.485,196.486
11.2891,128.181609,37.936895,7027.8946056,128.613,-4.615,196.581
11.3059,128.181597,37.936848,7027.5916344,128.032,-4.726,196.635
11.3226,128.181584,37.936802,7027.280128800001,127.592,-4.805,196.638
11.3393,128.181571,37.936755,7026.961308,127.297,-4.838,196.582
11.356,128.181558,37.936709,7026.635172,127.142,-4.828,196.469
11.3727,128.181545,37.936662,7026.3017208,127.122,-4.784,196.314
11.3894,128.181532,37.936616,7025.961564,127.231,-4.717,196.13
11.4061,128.181519,37.936569,7025.615006400001,127.463,-4.638,195.933
11.4228,128.181506,37.936523,7025.2626576,127.813,-4.557,195.737
11.4394,128.181493,37.936476,7024.9045176,128.276,-4.482,195.551
11.4561,128.18148,37.93643,7024.541196,128.848,-4.416,195.378
11.4728,128.181467,37.936383,7024.172997600001,129.525,-4.356,195.217
11.4896,128.181453,37.936337,7023.800532,130.305,-4.304,195.068
11.5063,128.18144,37.93629,7023.4237992,131.185,-4.257,194.929
11.523,128.181427,37.936244,7023.0434088,132.16,-4.215,194.799
11.5397,128.181413,37.936197,7022.659360800001,133.229,-4.177,194.678
11.5564,128.1814,37.936151,7022.272264800001,134.387,-4.143,194.565
11.5731,128.181387,37.936104,7021.8821208,135.632,-4.113,194.458
11.5898,128.181373,37.936058,7021.4889288,136.961,-4.085,194.359
11.6065,128.18136,37.936011,7021.092688799999,138.37,-4.06,194.265
11.6231,128.181347,37.935965,7020.693705600001,139.857,-4.038,194.178
11.6398,128.181333,37.935918,7020.291979200001,141.418,-4.018,194.095
11.6565,128.18132,37.935871,7019.887814400001,143.052,-4.0,194.018
11.6733,128.181306,37.935825,7019.481211200001,144.754,-3.984,193.945
11.69,128.181293,37.935778,7019.072474400001,146.522,-3.969,193.876
11.7067,128.18128,37.935732,7018.658860800001,148.155,-3.957,193.84
11.7234,128.181266,37.935685,7018.2418944,149.657,-3.963,193.847
11.7401,128.181253,37.935638,7017.820965600001,151.016,-4.007,193.893
11.7568,128.181239,37.935592,7017.395160000001,152.226,-4.105,193.976
11.7735,128.181226,37.935545,7016.9644776000005,153.285,-4.253,194.087
11.7902,128.181212,37.935498,7016.5286136,154.196,-4.438,194.214
11.8068,128.181199,37.935452,7016.0869584,154.962,-4.646,194.348
11.8235,128.181185,37.935405,7015.6392072,155.59,-4.861,194.481
11.8402,128.181172,37.935358,7015.184750400001,156.087,-5.068,194.606
11.857,128.181158,37.935312,7014.723588000001,156.457,-5.259,194.719
11.8737,128.181144,37.935265,7014.2548056000005,156.709,-5.433,194.82
11.8904,128.181131,37.935218,7013.7780984,156.846,-5.591,194.912
11.9071,128.181117,37.935172,7013.292856800001,156.876,-5.737,194.996
11.9238,128.181103,37.935125,7012.7990808,156.802,-5.871,195.073
11.9405,128.18109,37.935078,7012.2961608000005,156.63,-5.998,195.146
11.9572,128.181076,37.935032,7011.7834872,156.365,-6.118,195.214
11.9739,128.181062,37.934985,7011.261060000001,156.011,-6.233,195.281
11.9905,128.181048,37.934939,7010.728574400001,155.572,-6.345,195.345
12.0072,128.181034,37.934892,7010.1863352,155.051,-6.455,195.409
12.0239,128.18102,37.934845,7009.634342400001,154.451,-6.564,195.473
12.0407,128.181006,37.934799,7009.0719864,153.778,-6.673,195.538
12.0574,128.180992,37.934752,7008.5001816,153.032,-6.783,195.605
12.0741,128.180978,37.934706,7007.9180136,152.217,-6.894,195.673
12.0908,128.180964,37.934659,7007.326092,151.337,-7.007,195.744
12.1075,128.18095,37.934613,7006.724112,150.393,-7.123,195.818
12.1242,128.180935,37.934566,7006.1120736,149.388,-7.241,195.896
12.1409,128.180921,37.93452,7005.4902816,148.324,-7.362,195.978
12.1576,128.180907,37.934473,7004.8581264,147.204,-7.485,196.065
12.1743,128.180892,37.934427,7004.2162176,146.029,-7.612,196.157
12.1909,128.180878,37.93438,7003.564250400001,144.802,-7.741,196.255
12.2076,128.180863,37.934334,7002.9046632,143.726,-7.874,196.329
12.2243,128.180849,37.934288,7002.2362368,142.797,-7.996,196.372
12.2411,128.180834,37.934241,7001.5601904000005,142.021,-8.092,196.379
12.2578,128.180819,37.934195,7000.8762192,141.405,-8.145,196.346
12.2745,128.180805,37.934148,7000.185237600001,140.947,-8.157,196.278
12.2912,128.18079,37.934102,6999.4872456,140.643,-8.139,196.188
12.3079,128.180775,37.934056,6998.7828528,140.487,-8.105,196.087
12.3246,128.18076,37.934009,6998.072059200001,140.47,-8.064,195.982
12.3413,128.180745,37.933963,6997.355779200001,140.587,-8.021,195.878
12.358,128.180731,37.933917,6996.6343176,140.831,-7.98,195.777
12.3746,128.180716,37.93387,6995.9076744,141.198,-7.942,195.68
12.3913,128.180701,37.933824,6995.176764000001,141.681,-7.907,195.589
12.408,128.180686,37.933777,6994.4415864,142.276,-7.877,195.501
12.4248,128.180671,37.933731,6993.703056,142.98,-7.851,195.419
12.4415,128.180656,37.933685,6992.960868,143.787,-7.827,195.341
12.4582,128.180641,37.933638,6992.215632,144.694,-7.807,195.268
12.4749,128.180626,37.933592,6991.4679576,145.697,-7.79,195.198
12.4916,128.180611,37.933545,6990.7181496,146.792,-7.775,195.132
12.5083,128.180596,37.933499,6989.9655984,147.975,-7.761,195.07
12.525,128.180581,37.933452,6989.2109136,149.243,-7.75,195.01
12.5417,128.180566,37.933406,6988.4537904,150.591,-7.74,194.954
12.5583,128.180551,37.933359,6987.694838400001,152.017,-7.732,194.9
12.575,128.180536,37.933313,6986.933448,153.517,-7.725,194.848
12.5917,128.180521,37.933266,6986.170228800001,155.088,-7.719,194.799
12.6085,128.180506,37.93322,6985.4051808,156.727,-7.713,194.752
12.6252,128.180491,37.933173,6984.638304,158.43,-7.709,194.707
12.6419,128.180476,37.933127,6983.8695984,160.195,-7.705,194.664
12.6586,128.180461,37.93308,6983.099368800001,162.019,-7.701,194.622
12.6753,128.180446,37.933033,6982.327310400001,163.9,-7.698,194.582
12.692,128.180431,37.932987,6981.5515944,165.625,-7.704,194.573
12.7087,128.180416,37.93294,6980.7728304,167.2,-7.736,194.598
12.7254,128.180401,37.932893,6979.9910184,168.614,-7.798,194.646
12.742,128.180386,37.932847,6979.2055488,169.86,-7.878,194.702
12.7587,128.180371,37.9328,6978.4161168,170.939,-7.961,194.76
12.7754,128.180356,37.932753,6977.6224176000005,171.853,-8.04,194.815
12.7922,128.180341,37.932707,6976.824451200001,172.608,-8.111,194.864
12.8089,128.180326,37.93266,6976.0213032,173.212,-8.17,194.91
12.8256,128.18031,37.932613,6975.212973600001,173.67,-8.22,194.951
12.8423,128.180295,37.932567,6974.3988528,173.991,-8.259,194.988
12.859,128.18028,37.93252,6973.5789408,174.181,-8.291,195.023
12.8757,128.180265,37.932473,6972.752932800001,174.247,-8.316,195.056
12.8924,128.18025,37.932426,6971.920524000001,174.193,-8.336,195.087
12.9091,128.180235,37.93238,6971.0811048000005,174.025,-8.353,195.117
12.9257,128.18022,37.932333,6970.23498,173.749,-8.368,195.146
12.9424,128.180205,37.932286,6969.3812352,173.369,-8.384,195.174
12.9591,128.18019,37.93224,6968.519870400001,172.89,-8.401,195.202
12.9759,128.180174,37.932193,6967.6508856,172.316,-8.421,195.229
12.9926,128.180159,37.932146,6966.7745856,171.651,-8.445,195.256
13.0093,128.180144,37.9321,6965.890970400001,170.899,-8.473,195.284
13.026,128.180129,37.932053,6964.9997352,170.064,-8.507,195.312
13.0427,128.180114,37.932006,6964.1014896,169.15,-8.548,195.341
13.0594,128.180098,37.93196,6963.195624000001,168.16,-8.595,195.37
13.0761,128.180083,37.931913,6962.2824432,167.098,-8.649,195.402
13.0928,128.180068,37.931866,6961.361947200001,165.967,-8.712,195.436
13.1095,128.180053,37.93182,6960.434136,164.771,-8.782,195.472
13.1262,128.180037,37.931773,6959.4987048,163.512,-8.861,195.511
13.1429,128.180022,37.931726,6958.5559584,162.195,-8.949,195.553
13.1596,128.180007,37.93168,6957.605592000001,160.821,-9.045,195.6
13.1763,128.179992,37.931633,6956.647605600001,159.394,-9.149,195.651
13.193,128.179976,37.931587,6955.684132800001,158.131,-9.257,195.676
13.2097,128.179961,37.93154,6954.714564000001,157.029,-9.352,195.669
13.2264,128.179945,37.931493,6953.739204,156.096,-9.424,195.636
13.2431,128.17993,37.931447,6952.7580528,155.341,-9.473,195.587
13.2598,128.179915,37.9314,6951.771415200001,154.761,-9.508,195.533
13.2765,128.179899,37.931354,6950.7799008,154.352,-9.534,195.477
13.2932,128.179884,37.931307,6949.783814400001,154.107,-9.555,195.422
13.3099,128.179868,37.931261,6948.783460800001,154.018,-9.574,195.37
13.3266,128.179853,37.931214,6947.779449600001,154.076,-9.592,195.319
13.3433,128.179837,37.931167,6946.7717808,154.274,-9.612,195.271
13.36,128.179822,37.931121,6945.761064,154.607,-9.632,195.224
13.3767,128.179806,37.931074,6944.7472992,155.068,-9.653,195.179
13.3934,128.179791,37.931027,6943.7314008,155.651,-9.675,195.135
13.4101,128.179775,37.930981,6942.7133688,156.351,-9.697,195.093
13.4268,128.17976,37.930934,6941.693508,157.163,-9.719,195.052
13.4435,128.179744,37.930887,6940.672428000001,158.082,-9.742,195.013
13.4602,128.179729,37.930841,6939.650128800001,159.103,-9.764,194.974
13.4769,128.179713,37.930794,6938.627220000001,160.221,-9.786,194.936
13.4936,128.179698,37.930747,6937.6027872,161.431,-9.808,194.899
13.5103,128.179682,37.930701,6936.5777448,162.731,-9.828,194.863
13.527,128.179667,37.930654,6935.551483200001,164.114,-9.849,194.827
13.5437,128.179651,37.930607,6934.5243072,165.578,-9.868,194.792
13.5604,128.179636,37.93056,6933.4962168,167.118,-9.886,194.758
13.5771,128.17962,37.930513,6932.467212,168.73,-9.904,194.724
13.5938,128.179605,37.930466,6931.437292800001,170.412,-9.92,194.691
13.6105,128.179589,37.930419,6930.4064592,172.159,-9.935,194.658
13.6272,128.179574,37.930373,6929.375016,173.968,-9.949,194.626
13.6439,128.179558,37.930326,6928.3423536,175.836,-9.962,194.594
13.6606,128.179543,37.930279,6927.3087768000005,177.76,-9.974,194.563
13.6773,128.179527,37.930232,6926.2727616,179.515,-9.989,194.562
13.694,128.179512,37.930185,6925.2355272,-178.892,-10.005,194.588
13.7107,128.179496,37.930138,6924.1955496,-177.474,-10.018,194.631
13.7274,128.17948,37.930091,6923.153133600001,-176.239,-10.03,194.68
13.7441,128.179465,37.930044,6922.107669600001,-175.186,-10.041,194.729
13.7608,128.179449,37.929997,6921.0588528,-174.311,-10.052,194.775
13.7775,128.179434,37.92995,6920.0063784,-173.608,-10.065,194.818
13.7942,128.179418,37.929903,6918.949941600001,-173.067,-10.078,194.858
13.8109,128.179403,37.929856,6917.889542400001,-172.682,-10.094,194.897
13.8276,128.179387,37.929809,6916.8242664,-172.444,-10.111,194.934
13.8443,128.179372,37.929762,6915.7541136,-172.348,-10.13,194.97
13.861,128.179356,37.929714,6914.679084000001,-172.386,-10.15,195.005
13.8777,128.17934,37.929667,6913.598568,-172.554,-10.173,195.038
13.8944,128.179325,37.92962,6912.512260800001,-172.845,-10.196,195.071
13.9111,128.179309,37.929573,6911.4198576,-173.255,-10.221,195.103
13.9278,128.179294,37.929526,6910.3213584000005,-173.777,-10.248,195.133
13.9445,128.179278,37.929479,6909.2161536,-174.408,-10.276,195.163
13.9612,128.179263,37.929432,6908.1039384000005,-175.141,-10.305,195.192
13.9779,128.179247,37.929385,6906.985627200001,-175.973,-10.335,195.22
13.9946,128.179232,37.929338,6905.860915200001,-176.9,-10.366,195.248
14.0113,128.179216,37.929291,6904.7298024,-177.915,-10.398,195.275
14.028,128.179201,37.929244,6903.5922888,-179.016,-10.43,195.301
14.0447,128.179185,37.929197,6902.448374400001,179.8,-10.463,195.328
14.0614,128.17917,37.92915,6901.2980592,178.541,-10.496,195.354
14.0781,128.179154,37.929103,6900.141648,177.208,-10.53,195.379
14.0948,128.179138,37.929056,6898.9791408,175.805,-10.564,195.405
14.1115,128.179123,37.929009,6897.8102328,174.336,-10.598,195.43
14.1282,128.179107,37.928962,6896.635228800001,172.804,-10.631,195.455
14.1449,128.179092,37.928915,6895.453824000001,171.213,-10.664,195.48
14.1616,128.179076,37.928868,6894.267847200001,169.793,-10.702,195.475
14.1783,128.179061,37.928821,6893.076384000001,168.54,-10.744,195.442
14.195,128.179045,37.928774,6891.8803488,167.465,-10.789,195.392
14.2117,128.179029,37.928727,6890.680046400001,166.577,-10.835,195.337
14.2284,128.179014,37.92868,6889.4754768,165.875,-10.881,195.283
14.2451,128.178998,37.928633,6888.266944800001,165.356,-10.926,195.232
14.2618,128.178983,37.928586,6887.0553648000005,165.012,-10.971,195.185
14.2785,128.178967,37.92854,6885.840432,164.834,-11.016,195.141
14.2952,128.178951,37.928493,6884.622756000001,164.814,-11.061,195.098
14.3119,128.178936,37.928446,6883.402641600001,164.945,-11.105,195.058
14.3286,128.17892,37.928399,6882.1803936,165.219,-11.15,195.018
14.3453,128.178905,37.928351,6880.9566216,165.629,-11.193,194.979
14.362,128.178889,37.928304,6879.7310208,166.17,-11.237,194.942
14.3787,128.178873,37.928257,6878.504505600001,166.836,-11.279,194.905
14.3954,128.178858,37.92821,6877.277076,167.62,-11.319,194.868
14.4121,128.178842,37.928163,6876.049341600001,168.517,-11.359,194.832
14.4288,128.178826,37.928116,6874.8213024,169.521,-11.397,194.797
14.4455,128.178811,37.928069,6873.5932632,170.628,-11.433,194.762
14.4622,128.178795,37.928022,6872.3646144,171.832,-11.468,194.727
14.4789,128.178779,37.927975,6871.1359656,173.128,-11.5,194.693
14.4956,128.178764,37.927927,6869.9067072,174.512,-11.531,194.659
14.5123,128.178748,37.92788,6868.6774488,175.978,-11.56,194.626
14.529,128.178733,37.927833,6867.4475808,177.523,-11.587,194.593
14.5457,128.178717,37.927786,6866.2171032,179.142,-11.612,194.56
14.5624,128.178701,37.927738,6864.985101600001,-179.416,-11.635,194.545
14.5791,128.178686,37.927691,6863.7518808,-178.149,-11.657,194.549
14.5958,128.17867,37.927644,6862.5162216,-177.06,-11.678,194.561
14.6125,128.178654,37.927597,6861.278428800001,-176.153,-11.698,194.576
14.6292,128.178639,37.927549,6860.037892800001,-175.424,-11.718,194.59
14.6459,128.178623,37.927502,6858.7943088,-174.858,-11.737,194.6
14.6626,128.178607,37.927454,6857.547372,-174.425,-11.756,194.606
14.6793,128.178591,37.927407,6856.296472800001,-174.097,-11.775,194.607
14.696,128.178576,37.92736,6855.041611200001,-173.852,-11.794,194.603
14.7127,128.17856,37.927312,6853.782482400001,-173.669,-11.814,194.596
14.7294,128.178544,37.927265,6852.5184768,-173.535,-11.834,194.586
14.7461,128.178529,37.927218,6851.250813600001,-173.436,-11.855,194.574
14.7628,128.178513,37.92717,6849.979188000001,-173.362,-11.875,194.562
14.7795,128.178497,37.927123,6848.703904800001,-173.306,-11.897,194.551
14.7962,128.178481,37.927075,6847.4246592,-173.264,-11.919,194.54
14.8129,128.178466,37.927028,6846.142060800001,-173.235,-11.941,194.53
14.8296,128.17845,37.926981,6844.855500000001,-173.21,-11.965,194.523
14.8463,128.178434,37.926933,6843.565891200001,-173.188,-11.989,194.521
14.863,128.178419,37.926886,6842.272320000001,-173.169,-12.015,194.522
14.8797,128.178403,37.926838,6840.975396000001,-173.157,-12.04,194.523
14.8964,128.178387,37.926791,6839.6748144,-173.152,-12.066,194.524
14.9131,128.178372,37.926743,6838.3708799999995,-173.152,-12.093,194.525
14.9298,128.178356,37.926696,6837.063592800001,-173.158,-12.119,194.526
14.9465,128.17834,37.926648,6835.7529528,-173.167,-12.146,194.526
14.9632,128.178324,37.926601,6834.4386552000005,-173.179,-12.173,194.525
14.9799,128.178309,37.926553,6833.1210048,-173.193,-12.2,194.525
14.9966,128.178293,37.926506,6831.8003064,-173.208,-12.227,194.524
15.0133,128.178277,37.926458,6830.4759504,-173.224,-12.255,194.523
15.03,128.178262,37.926411,6829.148241600001,-173.241,-12.282,194.523
15.0467,128.178246,37.926363,6827.8174848,-173.258,-12.31,194.522
15.0634,128.17823,37.926316,6826.4830704000005,-173.276,-12.338,194.521
15.0801,128.178214,37.926268,6825.1453032,-173.294,-12.366,194.52
15.0968,128.178199,37.926221,6823.804488000001,-173.311,-12.394,194.519
15.1135,128.178183,37.926173,6822.460320000001,-173.33,-12.423,194.518
15.1302,128.178167,37.926125,6821.1124944,-173.348,-12.451,194.517
15.1469,128.178152,37.926078,6819.7616208,-173.366,-12.479,194.517
15.1636,128.178136,37.92603,6818.4073944,-173.384,-12.508,194.516
15.1803,128.17812,37.925983,6817.050120000001,-173.402,-12.536,194.515
15.197,128.178104,37.925935,6815.689188000001,-173.421,-12.565,194.514
15.2137,128.178089,37.925887,6814.3249032,-173.439,-12.594,194.513
15.2304,128.178073,37.92584,6812.957570400001,-173.457,-12.622,194.512
15.2471,128.178057,37.925792,6811.5868848,-173.475,-12.651,194.511
15.2638,128.178041,37.925744,6810.212846400001,-173.493,-12.68,194.51
15.2805,128.178026,37.925697,6808.8354552,-173.511,-12.709,194.509
15.2972,128.17801,37.925649,6807.454711200001,-173.529,-12.738,194.508
15.3139,128.177994,37.925601,6806.0709192,-173.547,-12.767,194.507
15.3306,128.177978,37.925554,6804.6837744,-173.565,-12.796,194.506
15.3473,128.177963,37.925506,6803.2932768,-173.583,-12.825,194.505
15.364,128.177947,37.925458,6801.8994264,-173.6,-12.854,194.504
15.3807,128.177931,37.925411,6800.5022232,-173.618,-12.883,194.503
