Time,Longitude,Latitude,Altitude,Roll (deg),Pitch (deg),Yaw (deg)
0.0,128.181881,37.968643,7002.8955192,0.0,-0.003,0.0
0.0167,128.181881,37.968688,7002.909540000001,0.0,-0.012,0.0
0.0334,128.181881,37.968733,7002.923256000001,0.0,-0.012,359.999
0.0501,128.181881,37.968778,7002.9363624,0.0,0.009,359.999
0.0668,128.181881,37.968823,7002.9497736,0.0,0.066,359.999
0.0834,128.181881,37.968868,7002.9634896,0.0,0.172,359.999
0.1002,128.181881,37.968913,7002.977815200001,0.0,0.337,359.999
0.1169,128.181881,37.968958,7002.993969600001,0.0,0.569,359.999
0.1336,128.181881,37.969002,7003.0119528,-0.001,0.875,359.999
0.1503,128.181881,37.969047,7003.032374400001,-0.001,1.257,359.999
0.1669,128.181881,37.969092,7003.0555392,-0.001,1.701,359.999
0.1837,128.181881,37.969137,7003.082056800001,-0.002,2.195,359.999
0.2004,128.181881,37.969182,7003.1125368,-0.002,2.726,359.999
0.2171,128.181881,37.969227,7003.146979200001,-0.003,3.276,359.999
0.2338,128.181881,37.969272,7003.1866032,-0.003,3.829,359.999
0.2505,128.181881,37.969316,7003.231104,-0.004,4.368,359.999
0.2672,128.181881,37.969361,7003.2810912,-0.004,4.877,359.999
0.2839,128.181881,37.969406,7003.337174400001,-0.005,5.354,359.999
0.3006,128.181881,37.969451,7003.399658400001,-0.005,5.8,359.999
0.3172,128.181881,37.969496,7003.4688479999995,-0.006,6.217,359.999
0.3339,128.181881,37.96954,7003.5453528,-0.007,6.609,359.999
0.3507,128.181881,37.969585,7003.629172800001,-0.008,6.976,359.999
0.3674,128.181881,37.96963,7003.720917600001,-0.009,7.323,359.999
0.3841,128.181881,37.969675,7003.820587200001,-0.01,7.649,359.999
0.4008,128.181881,37.969719,7003.9284864,-0.011,7.957,359.998
0.4175,128.181881,37.969764,7004.044920000001,-0.012,8.249,359.998
0.4342,128.181881,37.969809,7004.1695832000005,-0.013,8.527,359.998
0.4509,128.181881,37.969853,7004.3033904,-0.015,8.791,359.998
0.4676,128.181881,37.969898,7004.445732,-0.016,9.043,359.998
0.4843,128.181881,37.969943,7004.5972176000005,-0.018,9.284,359.998
0.501,128.181881,37.969987,7004.7578472000005,-0.02,9.515,359.998
0.5176,128.181881,37.970032,7004.9276208,-0.022,9.737,359.997
0.5344,128.181881,37.970076,7005.1068432,-0.024,9.951,359.997
0.5511,128.181881,37.970121,7005.295209600001,-0.027,10.158,359.997
0.5678,128.181881,37.970165,7005.4933296,-0.029,10.359,359.997
0.5845,128.181881,37.97021,7005.7008984,-0.032,10.553,359.996
0.6012,128.181881,37.970254,7005.9182208,-0.035,10.743,359.996
0.6179,128.181881,37.970299,7006.1452968,-0.039,10.927,359.996
0.6345,128.181881,37.970343,7006.3818216,-0.042,11.107,359.995
0.6513,128.181881,37.970387,7006.6281,-0.047,11.283,359.995
0.6679,128.181881,37.970432,7006.884436800001,-0.051,11.456,359.995
0.6847,128.181881,37.970476,7007.1505272,-0.056,11.626,359.994
0.7014,128.181881,37.97052,7007.4263712,-0.061,11.793,359.994
0.7181,128.181881,37.970565,7007.7122736,-0.067,11.957,359.993
0.7348,128.181881,37.970609,7008.007929599999,-0.073,12.119,359.992
0.7514,128.181881,37.970653,7008.313644,-0.08,12.279,359.992
0.7682,128.181881,37.970697,7008.6294168,-0.087,12.437,359.991
0.7848,128.181881,37.970741,7008.955248,-0.096,12.594,359.99
0.8016,128.181881,37.970785,7009.2908328,-0.104,12.749,359.989
0.8183,128.181881,37.970829,7009.6367808,-0.114,12.903,359.988
0.835,128.181881,37.970873,7009.992482400001,-0.125,13.055,359.987
0.8517,128.181881,37.970917,7010.3585472,-0.136,13.207,359.986
0.8684,128.181881,37.970961,7010.734365600001,-0.149,13.358,359.985
0.8851,128.181881,37.971005,7011.120547200001,-0.162,13.508,359.983
0.9018,128.181881,37.971049,7011.5167872,-0.177,13.657,359.981
0.9185,128.181881,37.971093,7011.9230856,-0.194,13.805,359.98
0.9352,128.181881,37.971137,7012.339442400001,-0.212,13.953,359.978
0.9519,128.181881,37.971181,7012.7658576,-0.231,14.101,359.976
0.9686,128.181881,37.971225,7013.202636,-0.252,14.248,359.973
0.9853,128.181881,37.971268,7013.649472800001,-0.275,14.395,359.971
1.002,128.181881,37.971312,7014.1066728000005,-0.301,14.542,359.968
1.0187,128.181881,37.971356,7014.5736264,-0.328,14.688,359.965
1.0353,128.181881,37.971399,7015.051248,-0.358,14.834,359.962
1.0521,128.181881,37.971443,7015.5386232,-0.391,14.98,359.958
1.0688,128.181881,37.971487,7016.0366664,-0.427,15.126,359.954
1.0855,128.181881,37.97153,7016.5444632,-0.466,15.272,359.95
1.1022,128.181881,37.971574,7017.062928,-0.509,15.418,359.945
1.1189,128.181881,37.971617,7017.591451200001,-0.555,15.564,359.94
1.1356,128.181881,37.971661,7018.1303376000005,-0.606,15.71,359.935
1.1522,128.181881,37.971704,7018.6792824,-0.662,15.856,359.928
1.169,128.181881,37.971747,7019.2388952,-0.722,16.002,359.922
1.1857,128.181881,37.971791,7019.8085664,-0.789,16.148,359.914
1.2024,128.181881,37.971834,7020.388600800001,-0.861,16.294,359.906
1.2191,128.181881,37.971877,7020.9793032,-0.94,16.441,359.897
1.2358,128.181881,37.97192,7021.5803688000005,-1.026,16.588,359.888
1.2525,128.181881,37.971964,7022.1917976,-1.12,16.735,359.877
1.2691,128.181881,37.972007,7022.8135896,-1.222,16.882,359.865
1.2859,128.181881,37.97205,7023.4460496,-1.335,17.029,359.853
1.3026,128.181881,37.972093,7024.089177600001,-1.457,17.177,359.839
1.3193,128.181881,37.972136,7024.7426688000005,-1.591,17.325,359.823
1.3359,128.181881,37.972179,7025.407132800001,-1.736,17.474,359.807
1.3527,128.181881,37.972222,7026.0822648,-1.896,17.622,359.788
1.3694,128.18188,37.972265,7026.7680648000005,-2.07,17.771,359.769
1.386,128.18188,37.972307,7027.4648376000005,-2.261,17.921,359.747
1.4028,128.18188,37.97235,7028.172583200001,-2.47,18.071,359.725
1.4195,128.18188,37.972393,7028.891301600001,-2.699,18.221,359.701
1.4362,128.18188,37.972436,7029.620992800001,-2.95,18.372,359.675
1.4528,128.18188,37.972478,7030.3622663999995,-3.224,18.523,359.647
1.4696,128.18188,37.972521,7031.1145128,-3.524,18.675,359.617
1.4863,128.18188,37.972564,7031.878341600001,-3.852,18.828,359.585
1.5029,128.18188,37.972606,7032.6537528,-4.21,18.981,359.551
1.5197,128.18188,37.972649,7033.4410512,-4.602,19.134,359.514
1.5364,128.18188,37.972691,7034.239932,-5.03,19.288,359.474
1.5531,128.181879,37.972733,7035.050700000001,-5.497,19.443,359.431
1.5697,128.181879,37.972776,7035.873964800001,-6.008,19.598,359.384
1.5865,128.181879,37.972818,7036.7094216000005,-6.566,19.754,359.334
1.6032,128.181879,37.97286,7037.55768,-7.176,19.911,359.279
1.6198,128.181879,37.972902,7038.41874,-7.842,20.068,359.22
1.6366,128.181878,37.972945,7039.292601600001,-8.568,20.225,359.155
1.6533,128.181878,37.972987,7040.179264800001,-9.357,20.384,359.085
1.67,128.181878,37.973029,7041.0787296,-10.206,20.542,359.01
1.6867,128.181878,37.973071,7041.990691200001,-11.114,20.701,358.93
1.7034,128.181877,37.973112,7042.9151496,-12.081,20.861,358.845
1.7201,128.181877,37.973154,7043.8518,-13.105,21.02,358.754
1.7368,128.181876,37.973196,7044.801252000001,-14.184,21.18,358.658
1.7535,128.181876,37.973238,7045.7625912,-15.319,21.34,358.555
1.7702,128.181875,37.973279,7046.736122400001,-16.507,21.499,358.446
1.7869,128.181875,37.973321,7047.7218456,-17.748,21.658,358.33
1.8036,128.181874,37.973363,7048.719456000001,-19.041,21.816,358.207
1.8203,128.181874,37.973404,7049.7286488,-20.385,21.973,358.077
1.837,128.181873,37.973445,7050.7494240000005,-21.779,22.128,357.939
1.8537,128.181872,37.973487,7051.7814768,-23.222,22.282,357.793
1.8704,128.181871,37.973528,7052.8251119999995,-24.715,22.434,357.639
1.8871,128.18187,37.973569,7053.879415200001,-26.256,22.583,357.477
1.9038,128.181869,37.973611,7054.944996,-27.845,22.73,357.306
1.9205,128.181868,37.973652,7056.02094,-29.481,22.874,357.127
1.9372,128.181867,37.973693,7057.1072472000005,-31.165,23.015,356.939
1.9539,128.181866,37.973734,7058.2036128,-32.896,23.151,356.741
1.9706,128.181865,37.973775,7059.3100368000005,-34.672,23.284,356.535
1.9873,128.181863,37.973816,7060.4259096000005,-36.495,23.412,356.318
2.004,128.181862,37.973857,7061.5512312,-38.364,23.535,356.093
2.0207,128.18186,37.973897,7062.685392,-40.279,23.652,355.857
2.0374,128.181858,37.973938,7063.828392,-42.239,23.764,355.612
2.0541,128.181857,37.973979,7064.9796216,-44.244,23.868,355.357
2.0707,128.181855,37.97402,7066.1384712,-46.294,23.966,355.091
2.0875,128.181853,37.97406,7067.3052456000005,-48.389,24.056,354.817
2.1042,128.181851,37.974101,7068.4790304,-50.529,24.137,354.532
2.1208,128.181848,37.974141,7069.6598256,-52.713,24.208,354.237
2.1376,128.181846,37.974182,7070.8467168,-54.94,24.267,353.931
2.1543,128.181843,37.974222,7072.039704,-57.211,24.314,353.614
2.171,128.181841,37.974262,7073.2381776,-59.525,24.348,353.287
2.1877,128.181838,37.974303,7074.441528,-61.882,24.366,352.948
2.2044,128.181835,37.974343,7075.6497552,-64.28,24.367,352.6
2.2211,128.181832,37.974383,7076.8619448,-66.719,24.351,352.241
2.2378,128.181829,37.974423,7078.077792000001,-69.199,24.315,351.872
2.2544,128.181826,37.974463,7079.296687200001,-71.719,24.259,351.495
2.2712,128.181822,37.974503,7080.5180208,-74.278,24.181,351.11
2.2879,128.181819,37.974543,7081.7417928,-76.875,24.08,350.719
2.3045,128.181815,37.974583,7082.966784000001,-79.509,23.956,350.322
2.3213,128.181811,37.974623,7084.1926896,-82.18,23.806,349.922
2.338,128.181807,37.974663,7085.4192048,-84.886,23.63,349.52
2.3546,128.181803,37.974703,7086.64572,-87.627,23.428,349.117
2.3714,128.181799,37.974743,7087.8713208,-90.4,23.198,348.717
2.3881,128.181794,37.974783,7089.0957024,-93.206,22.941,348.32
2.4048,128.18179,37.974822,7090.318255200001,-96.042,22.656,347.929
2.4215,128.181785,37.974862,7091.538369600001,-98.907,22.343,347.546
2.4382,128.18178,37.974902,7092.7557408,-101.801,22.003,347.173
2.4549,128.181775,37.974941,7093.9694544,-104.722,21.635,346.813
2.4716,128.18177,37.974981,7095.1789008000005,-107.668,21.241,346.467
2.4882,128.181765,37.975021,7096.3837752,-110.639,20.82,346.138
2.505,128.18176,37.97506,7097.583468000001,-113.634,20.375,345.827
2.5217,128.181754,37.9751,7098.7773696,-116.651,19.906,345.538
2.5383,128.181748,37.975139,7099.964870400001,-119.689,19.414,345.27
2.5551,128.181743,37.975179,7101.145360800001,-122.748,18.902,345.027
2.5718,128.181737,37.975218,7102.3188408000005,-125.828,18.37,344.81
2.5884,128.181731,37.975258,7103.484091200001,-128.926,17.821,344.619
2.6052,128.181725,37.975297,7104.641112,-132.042,17.257,344.457
2.6219,128.181719,37.975337,7105.7899032000005,-135.152,16.682,344.321
2.6386,128.181712,37.975376,7106.929855200001,-138.212,16.1,344.211
2.6553,128.181706,37.975415,7108.061272800001,-141.184,15.516,344.122
2.6719,128.181699,37.975455,7109.1838512,-144.038,14.934,344.052
2.6887,128.181693,37.975494,7110.2975904,-146.772,14.355,344.0
2.7054,128.181686,37.975534,7111.4024904,-149.388,13.78,343.965
2.722,128.18168,37.975573,7112.499160800001,-151.892,13.212,343.947
2.7388,128.181673,37.975612,7113.5869920000005,-154.286,12.65,343.943
2.7555,128.181666,37.975652,7114.6665936,-156.574,12.097,343.953
2.7721,128.181659,37.975691,7115.737965600001,-158.76,11.552,343.977
2.7889,128.181653,37.975731,7116.801108,-160.846,11.016,344.013
2.8056,128.181646,37.97577,7117.8566304,-162.835,10.49,344.06
2.8222,128.181639,37.97581,7118.904228,-164.731,9.974,344.117
2.839,128.181632,37.975849,7119.944510400001,-166.536,9.468,344.185
2.8557,128.181625,37.975888,7120.9771728000005,-168.253,8.972,344.26
2.8724,128.181618,37.975928,7122.002824800001,-169.884,8.487,344.344
2.8891,128.181611,37.975967,7123.0217712,-171.432,8.013,344.435
2.9057,128.181604,37.976007,7124.034012,-172.902,7.549,344.531
2.9225,128.181597,37.976046,7125.0386328,-174.296,7.097,344.632
2.9392,128.18159,37.976085,7126.0356336,-175.616,6.655,344.737
2.9558,128.181583,37.976125,7127.0250144,-176.864,6.224,344.845
2.9726,128.181576,37.976164,7128.0067751999995,-178.041,5.804,344.956
2.9893,128.181568,37.976204,7128.980306400001,-179.15,5.393,345.07
3.0059,128.181561,37.976243,7129.945608,179.807,4.992,345.187
3.0227,128.181554,37.976283,7130.90268,178.83,4.601,345.305
3.0394,128.181547,37.976322,7131.8515224,177.917,4.22,345.425
3.056,128.18154,37.976362,7132.7912208,177.066,3.847,345.546
3.0728,128.181533,37.976401,7133.7223848,176.275,3.483,345.668
3.0895,128.181525,37.97644,7134.6447096,175.544,3.128,345.792
3.1062,128.181518,37.97648,7135.5578904,174.87,2.781,345.916
3.1229,128.181511,37.976519,7136.4619272,174.253,2.442,346.04
3.1395,128.181504,37.976559,7137.356515200001,173.692,2.11,346.165
3.1563,128.181497,37.976598,7138.241654400001,173.185,1.786,346.29
3.173,128.181489,37.976638,7139.11704,172.73,1.469,346.414
3.1896,128.181482,37.976677,7139.9823672,172.325,1.159,346.539
3.2064,128.181475,37.976717,7140.8373312,171.965,0.856,346.663
3.2231,128.181468,37.976756,7141.681627200001,171.647,0.559,346.787
3.2397,128.18146,37.976796,7142.515255200001,171.368,0.269,346.911
3.2565,128.181453,37.976835,7143.3379104000005,171.124,-0.014,347.035
3.2732,128.181446,37.976875,7144.1492880000005,170.914,-0.293,347.158
3.2899,128.181439,37.976914,7144.949083200001,170.734,-0.566,347.281
3.3066,128.181431,37.976954,7145.737296,170.583,-0.833,347.404
3.3233,128.181424,37.976993,7146.5136216,170.457,-1.096,347.526
3.34,128.181417,37.977033,7147.277755200001,170.354,-1.353,347.647
3.3567,128.18141,37.977072,7148.030001600001,170.273,-1.606,347.767
3.3734,128.181403,37.977112,7148.7697512,170.212,-1.855,347.886
3.3901,128.181395,37.977152,7149.4966992,170.169,-2.1,348.004
3.4068,128.181388,37.977191,7150.2111504,170.143,-2.341,348.12
3.4235,128.181381,37.977231,7150.9128,170.132,-2.58,348.235
3.4402,128.181374,37.97727,7151.601038400001,170.135,-2.815,348.348
3.4569,128.181367,37.97731,7152.2764752,170.153,-3.049,348.459
3.4736,128.18136,37.977349,7152.938805600001,170.182,-3.28,348.569
3.4903,128.181352,37.977389,7153.587420000001,170.224,-3.509,348.676
3.507,128.181345,37.977428,7154.2226232,170.276,-3.736,348.782
3.5237,128.181338,37.977468,7154.8441104,170.339,-3.962,348.886
3.5404,128.181331,37.977507,7155.4515768,170.411,-4.186,348.988
3.5571,128.181324,37.977547,7156.045632,170.492,-4.409,349.089
3.5738,128.181317,37.977586,7156.625361599999,170.58,-4.63,349.187
3.5905,128.18131,37.977626,7157.191070400001,170.675,-4.851,349.284
3.6072,128.181303,37.977665,7157.742758400001,170.776,-5.07,349.378
3.6239,128.181296,37.977705,7158.279816,170.882,-5.288,349.471
3.6406,128.181289,37.977744,7158.8028527999995,170.992,-5.506,349.563
3.6573,128.181282,37.977784,7159.312783200001,171.152,-5.723,349.647
3.674,128.181275,37.977823,7159.8093024,171.361,-5.941,349.725
3.6907,128.181268,37.977863,7160.293324800001,171.616,-6.158,349.798
3.7074,128.181261,37.977902,7160.764850400001,171.914,-6.375,349.866
3.7241,128.181254,37.977942,7161.223879200001,172.249,-6.592,349.93
3.7408,128.181247,37.977981,7161.669496800001,172.616,-6.808,349.992
3.7575,128.18124,37.978021,7162.1010936,173.008,-7.023,350.052
3.7742,128.181233,37.97806,7162.518974400001,173.422,-7.237,350.11
3.7909,128.181226,37.9781,7162.9225295999995,173.851,-7.451,350.166
3.8076,128.181219,37.978139,7163.3114544,174.291,-7.664,350.22
3.8243,128.181212,37.978179,7163.685444,174.737,-7.875,350.273
3.841,128.181205,37.978218,7164.0441936,175.184,-8.086,350.323
3.8577,128.181198,37.978258,7164.388008,175.629,-8.296,350.372
3.8744,128.181191,37.978297,7164.715972800001,176.069,-8.506,350.419
3.8911,128.181184,37.978336,7165.028088000001,176.5,-8.715,350.463
3.9078,128.181177,37.978376,7165.3246584,176.92,-8.924,350.505
3.9245,128.181171,37.978415,7165.605379200001,177.328,-9.132,350.545
3.9412,128.181164,37.978454,7165.8696408000005,177.721,-9.341,350.582
3.9579,128.181157,37.978494,7166.1180527999995,178.098,-9.55,350.617
3.9746,128.18115,37.978533,7166.350310400001,178.458,-9.758,350.649
3.9913,128.181143,37.978573,7166.5664136000005,178.802,-9.967,350.679
4.008,128.181136,37.978612,7166.7660576,179.129,-10.177,350.707
4.0247,128.181129,37.978651,7166.949547200001,179.439,-10.387,350.733
4.0414,128.181123,37.97869,7167.116882400001,179.734,-10.597,350.758
4.058,128.181116,37.97873,7167.2680632,-179.988,-10.808,350.781
4.0748,128.181109,37.978769,7167.4027848,-179.727,-11.019,350.801
4.0915,128.181102,37.978808,7167.521047200001,-179.481,-11.231,350.82
4.1082,128.181095,37.978847,7167.623460000001,-179.252,-11.444,350.837
4.1249,128.181088,37.978886,7167.7097184,-179.037,-11.657,350.851
4.1415,128.181081,37.978926,7167.7795176,-178.837,-11.871,350.864
4.1583,128.181075,37.978965,7167.8334672,-178.65,-12.086,350.874
4.175,128.181068,37.979004,7167.8709576,-178.475,-12.301,350.883
4.1917,128.181061,37.979043,7167.8925984,-178.313,-12.517,350.889
4.2084,128.181054,37.979082,7167.8983896,-178.162,-12.733,350.894
4.2251,128.181047,37.979121,7167.8877216,-178.022,-12.95,350.898
4.2417,128.18104,37.97916,7167.861508800001,-177.891,-13.168,350.899
4.2585,128.181034,37.979199,7167.819141600001,-177.769,-13.387,350.899
4.2752,128.181027,37.979238,7167.760924800001,-177.655,-13.606,350.898
4.2919,128.18102,37.979277,7167.6868584,-177.549,-13.825,350.896
4.3086,128.181013,37.979316,7167.596637600001,-177.45,-14.045,350.892
4.3252,128.181006,37.979355,7167.490872,-177.357,-14.266,350.886
4.342,128.180999,37.979394,7167.369256800001,-177.27,-14.487,350.88
4.3587,128.180992,37.979433,7167.2317920000005,-177.189,-14.709,350.873
4.3754,128.180985,37.979472,7167.0784776,-177.113,-14.931,350.865
4.3921,128.180979,37.97951,7166.9096184,-177.04,-15.153,350.855
4.4088,128.180972,37.979549,7166.7249096000005,-176.972,-15.376,350.845
4.4254,128.180965,37.979588,7166.524351200001,-176.908,-15.599,350.834
4.4422,128.180958,37.979627,7166.308248,-176.847,-15.823,350.823
4.4589,128.180951,37.979665,7166.0766,-176.789,-16.047,350.81
4.4756,128.180944,37.979704,7165.8291024,-176.734,-16.271,350.798
4.4923,128.180937,37.979743,7165.566060000001,-176.682,-16.496,350.784
4.5089,128.18093,37.979781,7165.287472800001,-176.632,-16.721,350.77
4.5256,128.180923,37.97982,7164.993036,-176.583,-16.947,350.755
4.5424,128.180916,37.979858,7164.6830544,-176.537,-17.173,350.74
4.5591,128.18091,37.979897,7164.3575280000005,-176.493,-17.399,350.724
4.5758,128.180903,37.979935,7164.016456800001,-176.45,-17.625,350.708
4.5925,128.180896,37.979974,7163.659536,-176.408,-17.852,350.692
4.6091,128.180889,37.980012,7163.2873752,-176.368,-18.079,350.675
4.6259,128.180882,37.980051,7162.8996696,-176.329,-18.306,350.658
4.6426,128.180875,37.980089,7162.496114400001,-176.291,-18.533,350.64
4.6593,128.180868,37.980127,7162.077319200001,-176.254,-18.761,350.622
4.676,128.180861,37.980166,7161.642979200001,-176.218,-18.989,350.604
4.6927,128.180854,37.980204,7161.1927896,-176.183,-19.217,350.586
4.7093,128.180847,37.980242,7160.727360000001,-176.148,-19.446,350.567
4.7261,128.18084,37.98028,7160.2466904,-176.114,-19.675,350.548
4.7428,128.180833,37.980319,7159.7501712,-176.081,-19.903,350.529
4.7595,128.180826,37.980357,7159.238412,-176.049,-20.133,350.509
4.7762,128.180819,37.980395,7158.711108,-176.016,-20.362,350.489
4.7928,128.180812,37.980433,7158.168259200001,-175.985,-20.591,350.469
4.8096,128.180805,37.980471,7157.609865600001,-175.954,-20.821,350.449
4.8263,128.180798,37.980509,7157.036232,-175.923,-21.051,350.428
4.843,128.180791,37.980547,7156.4470536,-175.893,-21.281,350.408
4.8597,128.180784,37.980585,7155.8426352,-175.863,-21.512,350.387
4.8764,128.180777,37.980623,7155.222672,-175.833,-21.742,350.366
4.893,128.18077,37.980661,7154.5874688,-175.804,-21.973,350.344
4.9098,128.180763,37.980698,7153.9367208,-175.775,-22.204,350.323
4.9265,128.180756,37.980736,7153.270732800001,-175.746,-22.435,350.301
4.9432,128.180749,37.980774,7152.5892,-175.717,-22.666,350.279
4.9599,128.180742,37.980811,7151.8924272,-175.689,-22.898,350.257
4.9765,128.180735,37.980849,7151.180414400001,-175.661,-23.129,350.235
4.9932,128.180728,37.980887,7150.4528568000005,-175.633,-23.361,350.213
5.01,128.180721,37.980924,7149.710059200001,-175.605,-23.593,350.19
5.0267,128.180714,37.980962,7148.9520216,-175.577,-23.825,350.167
5.0434,128.180707,37.980999,7148.1784392,-175.55,-24.057,350.144
5.0601,128.1807,37.981037,7147.3899216,-175.523,-24.29,350.121
5.0767,128.180693,37.981074,7146.5858592,-175.495,-24.523,350.098
5.0935,128.180686,37.981111,7145.766556800001,-175.468,-24.755,350.074
5.1102,128.180679,37.981149,7144.9320144,-175.441,-24.988,350.051
5.1269,128.180672,37.981186,7144.082232000001,-175.414,-25.221,350.027
5.1436,128.180665,37.981223,7143.2172096,-175.387,-25.455,350.003
5.1602,128.180658,37.98126,7142.3369472,-175.36,-25.688,349.979
5.1769,128.180651,37.981297,7141.441749600001,-175.333,-25.922,349.954
5.1937,128.180644,37.981334,7140.5310072,-175.307,-26.156,349.93
5.2104,128.180637,37.981371,7139.6053296,-175.28,-26.389,349.905
5.2271,128.18063,37.981408,7138.664412,-175.253,-26.624,349.881
5.2438,128.180623,37.981445,7137.7082544,-175.226,-26.858,349.855
5.2604,128.180616,37.981482,7136.736856800001,-175.2,-27.092,349.83
5.2772,128.180608,37.981519,7135.750524000001,-175.173,-27.327,349.805
5.2939,128.180601,37.981556,7134.748951200001,-175.146,-27.561,349.779
5.3106,128.180594,37.981593,7133.732138400001,-175.12,-27.796,349.754
5.3273,128.180587,37.981629,7132.7003904,-175.093,-28.031,349.728
5.3439,128.18058,37.981666,7131.6537072,-175.066,-28.266,349.702
5.3606,128.180573,37.981702,7130.591784000001,-175.039,-28.501,349.676
5.3774,128.180566,37.981739,7129.5149255999995,-175.013,-28.737,349.649
5.3941,128.180559,37.981775,7128.4228272,-174.986,-28.972,349.623
5.4108,128.180552,37.981812,7127.3157936,-174.959,-29.208,349.596
5.4275,128.180545,37.981848,7126.193824800001,-174.932,-29.443,349.569
5.4441,128.180538,37.981884,7125.0569208,-174.905,-29.679,349.542
5.4609,128.18053,37.981921,7123.9050816,-174.877,-29.915,349.515
5.4776,128.180523,37.981957,7122.7380023999995,-174.85,-30.152,349.487
5.4943,128.180516,37.981993,7121.556292800001,-174.823,-30.388,349.459
5.511,128.180509,37.982029,7120.3593432,-174.796,-30.625,349.432
5.5277,128.180502,37.982065,7119.147763200001,-174.768,-30.861,349.404
5.5443,128.180495,37.982101,7117.9209432,-174.74,-31.098,349.375
5.5611,128.180488,37.982137,7116.679492800001,-174.713,-31.336,349.347
5.5778,128.180481,37.982173,7115.4231072,-174.685,-31.573,349.318
5.5945,128.180474,37.982209,7114.1520912000005,-174.657,-31.811,349.289
5.6112,128.180467,37.982244,7112.86614,-174.629,-32.049,349.26
5.6278,128.180459,37.98228,7111.5652536,-174.6,-32.287,349.231
5.6445,128.180452,37.982316,7110.2497368,-174.572,-32.525,349.201
5.6613,128.180445,37.982351,7108.9192848,-174.543,-32.763,349.172
5.678,128.180438,37.982387,7107.5742024,-174.515,-33.002,349.142
5.6947,128.180431,37.982422,7106.2144896,-174.486,-33.241,349.111
5.7114,128.180424,37.982458,7104.839841600001,-174.457,-33.48,349.081
5.728,128.180417,37.982493,7103.4505632,-174.427,-33.72,349.05
5.7448,128.18041,37.982528,7102.0466544,-174.398,-33.959,349.019
5.7615,128.180402,37.982563,7100.628115200001,-174.368,-34.199,348.988
5.7782,128.180395,37.982598,7099.1949456,-174.339,-34.439,348.957
5.7949,128.180388,37.982634,7097.7471456,-174.309,-34.679,348.925
5.8115,128.180381,37.982669,7096.2847152,-174.278,-34.92,348.893
5.8282,128.180374,37.982704,7094.8076544000005,-174.248,-35.16,348.861
5.845,128.180367,37.982738,7093.315963200001,-174.217,-35.401,348.829
5.8617,128.18036,37.982773,7091.809946400001,-174.186,-35.642,348.796
5.8784,128.180353,37.982808,7090.2892992,-174.155,-35.884,348.763
5.8951,128.180345,37.982843,7088.7540216,-174.124,-36.125,348.73
5.9117,128.180338,37.982877,7087.204418400001,-174.092,-36.367,348.697
5.9285,128.180331,37.982912,7085.6404896,-174.06,-36.609,348.663
5.9452,128.180324,37.982946,7084.0619304,-174.028,-36.851,348.629
5.9619,128.180317,37.982981,7082.469045600001,-173.996,-37.093,348.595
5.9786,128.18031,37.983015,7080.8615304,-173.963,-37.336,348.56
5.9952,128.180303,37.983049,7079.2399944,-173.93,-37.579,348.526
6.0119,128.180295,37.983083,7077.603828,-173.897,-37.822,348.49
6.0287,128.180288,37.983118,7075.9536408,-173.863,-38.065,348.455
6.0454,128.180281,37.983152,7074.2888232000005,-173.83,-38.308,348.419
6.0621,128.180274,37.983186,7072.6099848,-173.795,-38.552,348.383
6.0788,128.180267,37.983219,7070.9168208,-173.761,-38.796,348.347
6.0954,128.18026,37.983253,7069.209331200001,-173.726,-39.04,348.31
6.1121,128.180253,37.983287,7067.4878208,-173.691,-39.284,348.273
6.1289,128.180245,37.983321,7065.7519848,-173.656,-39.528,348.236
6.1456,128.180238,37.983354,7064.0018232,-173.62,-39.773,348.198
6.1623,128.180231,37.983388,7062.237945600001,-173.584,-40.018,348.16
6.179,128.180224,37.983421,7060.4594376000005,-173.547,-40.263,348.122
6.1956,128.180217,37.983455,7058.667213600001,-173.51,-40.508,348.083
6.2124,128.18021,37.983488,7056.860664000001,-173.473,-40.754,348.045
6.2291,128.180203,37.983521,7055.0403984,-173.435,-41.0,348.006
6.2458,128.180196,37.983555,7053.2058072,-173.397,-41.246,347.966
6.2625,128.180188,37.983588,7051.3575,-173.359,-41.492,347.926
6.2791,128.180181,37.983621,7049.4948672,-173.32,-41.738,347.886
6.2958,128.180174,37.983654,7047.6185184000005,-173.281,-41.985,347.846
6.3126,128.180167,37.983686,7045.7281488,-173.241,-42.231,347.805
6.3293,128.18016,37.983719,7043.824063200001,-173.201,-42.478,347.764
6.346,128.180153,37.983752,7041.905956800001,-173.161,-42.725,347.723
6.3627,128.180146,37.983784,7039.9738296,-173.12,-42.972,347.681
6.3793,128.180139,37.983817,7038.0279864,-173.079,-43.22,347.639
6.3961,128.180131,37.983849,7036.068427200001,-173.037,-43.467,347.597
6.4128,128.180124,37.983882,7034.095152000001,-172.995,-43.714,347.554
6.4295,128.180117,37.983914,7032.1081608,-172.953,-43.962,347.511
6.4462,128.18011,37.983946,7030.107453600001,-172.91,-44.209,347.467
6.4628,128.180103,37.983978,7028.0933352,-172.868,-44.456,347.423
6.4795,128.180096,37.98401,7026.0651960000005,-172.824,-44.703,347.379
6.4963,128.180089,37.984042,7024.0236456,-172.781,-44.95,347.335
6.513,128.180082,37.984074,7021.968684000001,-172.737,-45.196,347.29
6.5297,128.180075,37.984106,7019.900006400001,-172.692,-45.441,347.245
6.5464,128.180067,37.984138,7017.8179176,-172.647,-45.686,347.199
6.5631,128.18006,37.984169,7015.7224176,-172.602,-45.931,347.154
6.5798,128.180053,37.984201,7013.613506400001,-172.557,-46.174,347.108
6.5965,128.180046,37.984232,7011.491488799999,-172.511,-46.418,347.061
6.6132,128.180039,37.984264,7009.3557552,-172.465,-46.66,347.015
6.6299,128.180032,37.984295,7007.2069152,-172.418,-46.903,346.968
6.6466,128.180025,37.984326,7005.044664,-172.371,-47.144,346.92
6.6633,128.180018,37.984357,7002.869611200001,-172.324,-47.385,346.873
6.68,128.180011,37.984388,7000.680842400001,-172.276,-47.626,346.825
6.6967,128.180004,37.984419,6998.4792720000005,-172.227,-47.866,346.776
6.7134,128.179997,37.98445,6996.2645952,-172.179,-48.105,346.728
6.7301,128.17999,37.984481,6994.036812,-172.13,-48.344,346.678
6.7468,128.179982,37.984511,6991.795922400001,-172.08,-48.582,346.629
6.7635,128.179975,37.984542,6989.5422312,-172.03,-48.82,346.579
6.7802,128.179968,37.984572,6987.275433600001,-171.98,-49.058,346.529
6.7969,128.179961,37.984602,6984.9958344,-171.929,-49.295,346.478
6.8136,128.179954,37.984633,6982.703128800001,-171.877,-49.531,346.427
6.8303,128.179947,37.984663,6980.3979264,-171.825,-49.767,346.376
6.847,128.17994,37.984693,6978.0799224,-171.773,-50.003,346.324
6.8637,128.179933,37.984723,6975.748812,-171.72,-50.238,346.271
6.8804,128.179926,37.984753,6973.4055096,-171.667,-50.473,346.219
6.8971,128.179919,37.984783,6971.049405600001,-171.613,-50.707,346.165
6.9138,128.179912,37.984812,6968.6805,-171.559,-50.941,346.112
6.9305,128.179905,37.984842,6966.299097600001,-171.504,-51.174,346.057
6.9472,128.179898,37.984871,6963.9055032,-171.448,-51.408,346.003
6.9639,128.179891,37.984901,6961.4991072,-171.392,-51.64,345.947
6.9806,128.179884,37.98493,6959.080214400001,-171.336,-51.873,345.892
6.9973,128.179877,37.984959,6956.6491295999995,-171.279,-52.105,345.836
7.014,128.17987,37.984988,6954.2058528,-171.221,-52.337,345.779
7.0307,128.179863,37.985017,6951.750079200001,-171.163,-52.568,345.721
7.0474,128.179856,37.985046,6949.2818088,-171.104,-52.799,345.664
7.0641,128.179849,37.985075,6946.8016512,-171.045,-53.03,345.605
7.0808,128.179842,37.985104,6944.309301600001,-170.985,-53.261,345.546
7.0975,128.179835,37.985132,6941.804760000001,-170.924,-53.491,345.486
7.1142,128.179828,37.985161,6939.2883312,-170.863,-53.721,345.426
7.1309,128.179821,37.985189,6936.759710400001,-170.801,-53.95,345.365
7.1476,128.179814,37.985218,6934.218897600001,-170.738,-54.18,345.304
7.1643,128.179807,37.985246,6931.666502399999,-170.675,-54.409,345.242
7.181,128.1798,37.985274,6929.102220000001,-170.611,-54.638,345.179
7.1977,128.179793,37.985302,6926.5257456,-170.546,-54.866,345.115
7.2144,128.179786,37.98533,6923.9376888,-170.481,-55.095,345.051
7.2311,128.179779,37.985358,6921.3380496,-170.415,-55.323,344.986
7.2478,128.179772,37.985386,6918.726523200001,-170.348,-55.551,344.921
7.2645,128.179766,37.985413,6916.103109600001,-170.281,-55.778,344.854
7.2812,128.179759,37.985441,6913.468418400001,-170.213,-56.006,344.787
7.2979,128.179752,37.985468,6910.8221448,-170.144,-56.233,344.719
7.3146,128.179745,37.985495,6908.1642888,-170.074,-56.46,344.651
7.3313,128.179738,37.985523,6905.4948504,-170.003,-56.686,344.581
7.348,128.179731,37.98555,6902.8141344,-169.932,-56.913,344.511
7.3647,128.179724,37.985577,6900.121836,-169.86,-57.139,344.44
7.3814,128.179717,37.985604,6897.4185648,-169.787,-57.365,344.368
7.3981,128.17971,37.98563,6894.703711200001,-169.713,-57.591,344.295
7.4148,128.179703,37.985657,6891.97758,-169.638,-57.817,344.221
7.4315,128.179697,37.985684,6889.240476,-169.562,-58.042,344.146
7.4482,128.17969,37.98571,6886.4920944000005,-169.486,-58.267,344.071
7.4649,128.179683,37.985736,6883.73274,-169.408,-58.492,343.994
7.4816,128.179676,37.985763,6880.962108,-169.329,-58.717,343.917
7.4983,128.179669,37.985789,6878.180808,-169.25,-58.942,343.838
7.515,128.179662,37.985815,6875.3882304,-169.169,-59.166,343.759
7.5317,128.179656,37.985841,6872.5849848,-169.088,-59.39,343.678
7.5484,128.179649,37.985867,6869.7707664,-169.005,-59.615,343.597
7.5651,128.179642,37.985892,6866.94588,-168.922,-59.838,343.514
7.5818,128.179635,37.985918,6864.1100208,-168.837,-60.062,343.43
7.5985,128.179628,37.985943,6861.2634935999995,-168.751,-60.286,343.345
7.6152,128.179622,37.985969,6858.4066032,-168.664,-60.509,343.259
7.6319,128.179615,37.985994,6855.53874,-168.576,-60.732,343.172
7.6486,128.179608,37.986019,6852.660513600001,-168.487,-60.955,343.083
7.6653,128.179601,37.986044,6849.771619200001,-168.396,-61.178,342.993
7.682,128.179594,37.986069,6846.8723616,-168.304,-61.4,342.902
7.6987,128.179588,37.986094,6843.962740800001,-168.211,-61.623,342.81
7.7154,128.179581,37.986119,6841.0427568000005,-168.117,-61.845,342.716
7.7321,128.179574,37.986143,6838.1124096,-168.021,-62.067,342.621
7.7488,128.179567,37.986168,6835.1716992,-167.924,-62.289,342.525
7.7655,128.179561,37.986192,6832.2209304,-167.826,-62.511,342.427
7.7822,128.179554,37.986217,6829.2601032,-167.726,-62.732,342.327
7.7989,128.179547,37.986241,6826.2889128,-167.625,-62.954,342.227
7.8156,128.179541,37.986265,6823.307664000001,-167.522,-63.175,342.124
7.8323,128.179534,37.986289,6820.316356800001,-167.417,-63.396,342.02
7.849,128.179527,37.986313,6817.315296000001,-167.312,-63.617,341.915
7.8657,128.17952,37.986336,6814.3041768,-167.204,-63.837,341.807
7.8824,128.179514,37.98636,6811.2833040000005,-167.095,-64.058,341.698
7.8991,128.179507,37.986384,6808.252372800001,-166.984,-64.278,341.588
7.9158,128.179501,37.986407,6805.211688,-166.871,-64.498,341.475
7.9325,128.179494,37.98643,6802.161554400001,-166.757,-64.718,341.361
7.9492,128.179487,37.986453,6799.1013624,-166.64,-64.938,341.245
7.9659,128.179481,37.986477,6796.0320264,-166.522,-65.157,341.127
7.9826,128.179474,37.986499,6792.952632,-166.402,-65.376,341.007
7.9993,128.179467,37.986522,6789.8640936,-166.28,-65.596,340.885
8.016,128.179461,37.986545,6786.7658016000005,-166.156,-65.814,340.76
8.0327,128.179454,37.986568,6783.658365600001,-166.03,-66.033,340.634
8.0494,128.179448,37.98659,6780.541176,-165.902,-66.252,340.506
8.0661,128.179441,37.986612,6777.4151472,-165.771,-66.47,340.375
8.0828,128.179434,37.986635,6774.279364800001,-165.638,-66.688,340.242
8.0994,128.179428,37.986657,6771.1347432,-165.503,-66.906,340.106
8.1161,128.179421,37.986679,6767.9806728,-165.366,-67.124,339.969
8.1329,128.179415,37.986701,6764.817763200001,-165.226,-67.341,339.828
8.1496,128.179408,37.986723,6761.6454048000005,-165.083,-67.559,339.685
8.1663,128.179402,37.986744,6758.464512,-164.938,-67.776,339.54
8.183,128.179395,37.986766,6755.274170400001,-164.79,-67.993,339.391
8.1997,128.179389,37.986787,6752.0752944000005,-164.64,-68.209,339.24
8.2164,128.179382,37.986809,6748.8672744000005,-164.486,-68.426,339.086
8.2331,128.179376,37.98683,6745.650720000001,-164.33,-68.642,338.929
8.2498,128.179369,37.986851,6742.4250216,-164.171,-68.858,338.769
8.2665,128.179363,37.986872,6739.1907888,-164.008,-69.074,338.606
8.2831,128.179356,37.986893,6735.9480216,-163.843,-69.289,338.44
8.2998,128.17935,37.986913,6732.696720000001,-163.674,-69.504,338.27
8.3166,128.179343,37.986934,6729.436579200001,-163.502,-69.719,338.097
8.3333,128.179337,37.986955,6726.167904,-163.326,-69.934,337.92
8.35,128.179331,37.986975,6722.8909992,-163.147,-70.149,337.739
8.3667,128.179324,37.986995,6719.605560000001,-162.963,-70.363,337.555
8.3834,128.179318,37.987015,6716.3118912,-162.776,-70.577,337.367
8.4001,128.179311,37.987035,6713.009688000001,-162.586,-70.79,337.175
8.4168,128.179305,37.987055,6709.699560000001,-162.39,-71.004,336.979
8.4335,128.179299,37.987075,6706.380897600001,-162.191,-71.217,336.778
8.4502,128.179292,37.987095,6703.054310400001,-161.988,-71.43,336.573
8.4668,128.179286,37.987114,6699.7194936,-161.779,-71.642,336.363
8.4835,128.17928,37.987134,6696.376752000001,-161.567,-71.854,336.149
8.5003,128.179273,37.987153,6693.0260856,-161.349,-72.066,335.93
8.517,128.179267,37.987172,6689.6671896,-161.126,-72.277,335.706
8.5337,128.179261,37.987191,6686.300673600001,-160.898,-72.489,335.476
8.5504,128.179254,37.98721,6682.9262328,-160.665,-72.699,335.241
8.5671,128.179248,37.987229,6679.5438672,-160.427,-72.91,335.001
8.5838,128.179242,37.987248,6676.1538816,-160.182,-73.12,334.755
8.6005,128.179235,37.987266,6672.756276,-159.932,-73.33,334.502
8.6172,128.179229,37.987285,6669.3510504000005,-159.675,-73.539,334.244
8.6339,128.179223,37.987303,6665.9379,-159.412,-73.748,333.979
8.6505,128.179217,37.987321,6662.5177392,-159.142,-73.956,333.707
8.6672,128.17921,37.987339,6659.0896536,-158.866,-74.165,333.429
8.684,128.179204,37.987357,6655.6545576,-158.582,-74.372,333.143
8.7007,128.179198,37.987375,6652.2118416,-158.291,-74.579,332.85
8.7174,128.179192,37.987393,6648.7618104,-157.993,-74.786,332.549
8.7341,128.179186,37.987411,6645.304464000001,-157.686,-74.992,332.24
8.7508,128.17918,37.987428,6641.8401072,-157.371,-75.198,331.922
8.7675,128.179173,37.987445,6638.3684352,-157.047,-75.403,331.596
8.7842,128.179167,37.987463,6634.8897528,-156.715,-75.608,331.261
8.8009,128.179161,37.98748,6631.404060000001,-156.373,-75.812,330.916
8.8176,128.179155,37.987497,6627.911052,-156.021,-76.015,330.562
8.8342,128.179149,37.987514,6624.411338400001,-155.659,-76.218,330.198
8.8509,128.179143,37.98753,6620.9049192,-155.286,-76.421,329.822
8.8676,128.179137,37.987547,6617.3911848,-154.903,-76.622,329.436
8.8844,128.179131,37.987563,6613.8710496,-154.508,-76.823,329.038
8.9011,128.179125,37.98758,6610.343904,-154.101,-77.024,328.629
8.9178,128.179119,37.987596,6606.8103576,-153.682,-77.223,328.206
8.9345,128.179112,37.987612,6603.2701056000005,-153.25,-77.422,327.771
8.9512,128.179106,37.987628,6599.723148,-152.804,-77.62,327.322
8.9679,128.1791,37.987644,6596.1697896,-152.343,-77.817,326.858
8.9846,128.179094,37.98766,6592.6097256,-151.868,-78.013,326.38
9.0013,128.179088,37.987675,6589.043565600001,-151.378,-78.209,325.886
9.0179,128.179082,37.987691,6585.470700000001,-150.871,-78.403,325.376
9.0346,128.179076,37.987706,6581.891738400001,-150.347,-78.596,324.849
9.0513,128.179071,37.987721,6578.3066808,-149.806,-78.789,324.304
9.0681,128.179065,37.987737,6574.7152224,-149.246,-78.98,323.74
9.0848,128.179059,37.987752,6571.1173632,-148.667,-79.17,323.157
9.1015,128.179053,37.987766,6567.513712800001,-148.067,-79.359,322.554
9.1182,128.179047,37.987781,6563.9039664,-147.446,-79.547,321.929
9.1349,128.179041,37.987796,6560.288124000001,-146.802,-79.733,321.282
9.1516,128.179035,37.98781,6556.6664904,-146.136,-79.918,320.611
9.1683,128.179029,37.987825,6553.039065600001,-145.444,-80.101,319.916
9.185,128.179023,37.987839,6549.4055448,-144.727,-80.283,319.195
9.2016,128.179018,37.987853,6545.7665376,-143.983,-80.464,318.447
9.2183,128.179012,37.987867,6542.1214344,-143.211,-80.642,317.671
9.235,128.179006,37.987881,6538.4708448,-142.41,-80.819,316.865
9.2518,128.179,37.987894,6534.814768800001,-141.577,-80.994,316.028
9.2685,128.178994,37.987908,6531.1529016,-140.712,-81.167,315.159
9.2852,128.178989,37.987921,6527.485548,-139.814,-81.337,314.256
9.3019,128.178983,37.987935,6523.8130128,-138.879,-81.506,313.317
9.3186,128.178977,37.987948,6520.134686400001,-137.908,-81.672,312.341
9.3353,128.178971,37.987961,6516.451178400001,-136.897,-81.835,311.326
9.352,128.178966,37.987974,6512.7624888,-135.847,-81.996,310.27
9.3687,128.17896,37.987987,6509.0686176,-134.753,-82.154,309.173
9.3854,128.178954,37.988,6505.36926,-133.616,-82.308,308.031
9.402,128.178949,37.988012,6501.6650256,-132.433,-82.46,306.843
9.4187,128.178943,37.988025,6497.955609600001,-131.203,-82.608,305.608
9.4355,128.178937,37.988037,6494.2410119999995,-129.923,-82.753,304.323
9.4522,128.178932,37.988049,6490.521537600001,-128.592,-82.894,302.987
9.4689,128.178926,37.988061,6486.7974912,-127.209,-83.031,301.599
9.4856,128.17892,37.988073,6483.0682632,-125.772,-83.164,300.156
9.5023,128.178915,37.988085,6479.3341584,-124.279,-83.292,298.658
9.519,128.178909,37.988097,6475.5954816,-122.73,-83.415,297.104
9.5357,128.178904,37.988108,6471.851928000001,-121.123,-83.533,295.492
9.5524,128.178898,37.988119,6468.1038024,-119.459,-83.646,293.822
9.5691,128.178893,37.988131,6464.3511048,-117.737,-83.754,292.094
9.5857,128.178887,37.988142,6460.59414,-115.956,-83.855,290.308
9.6024,128.178882,37.988153,6456.8322984,-114.118,-83.95,288.465
9.6192,128.178876,37.988164,6453.0661896,-112.224,-84.039,286.565
9.6359,128.178871,37.988175,6449.295813600001,-110.275,-84.122,284.611
9.6526,128.178865,37.988185,6445.5208656,-108.275,-84.197,282.604
9.6693,128.17886,37.988196,6441.7419552,-106.224,-84.265,280.548
9.686,128.178854,37.988206,6437.9584728,-104.129,-84.325,278.447
9.7027,128.178849,37.988216,6434.171028000001,-101.992,-84.377,276.304
9.7194,128.178843,37.988226,6430.379620799999,-99.818,-84.422,274.124
9.7361,128.178838,37.988236,6426.583946400001,-97.613,-84.458,271.913
9.7528,128.178833,37.988246,6422.7846144000005,-95.384,-84.487,269.678
9.7694,128.178827,37.988256,6418.981015200001,-93.135,-84.506,267.423
9.7861,128.178822,37.988266,6415.1737584,-90.875,-84.517,265.157
9.8029,128.178817,37.988275,6411.3625392,-88.61,-84.52,262.885
9.8196,128.178811,37.988284,6407.5473576,-86.347,-84.514,260.616
9.8363,128.178806,37.988294,6403.7288232,-84.093,-84.499,258.356
9.853,128.178801,37.988303,6399.9063264,-81.855,-84.476,256.112
9.8697,128.178796,37.988312,6396.0804768,-79.64,-84.445,253.89
9.8864,128.17879,37.98832,6392.250969600001,-77.454,-84.406,251.697
9.9031,128.178785,37.988329,6388.4181096,-75.302,-84.358,249.539
9.9198,128.17878,37.988338,6384.5815920000005,-73.19,-84.303,247.421
9.9365,128.178775,37.988346,6380.7417216,-71.122,-84.24,245.346
9.9531,128.178769,37.988354,6376.8984984,-69.102,-84.169,243.319
9.9698,128.178764,37.988363,6373.052227200001,-67.133,-84.092,241.344
9.9865,128.178759,37.988371,6369.2026032,-65.218,-84.008,239.422
10.0033,128.178754,37.988378,6365.3496264000005,-63.359,-83.918,237.555
10.02,128.178749,37.988386,6361.493906400001,-61.556,-83.821,235.746
10.0367,128.178744,37.988394,6357.634833600001,-59.812,-83.718,233.995
10.0534,128.178739,37.988401,6353.7727128,-58.125,-83.61,232.302
10.0701,128.178734,37.988409,6349.9078488000005,-56.497,-83.496,230.666
10.0868,128.178729,37.988416,6346.040241600001,-54.927,-83.378,229.089
10.1035,128.178724,37.988423,6342.1695864,-53.413,-83.254,227.568
10.1202,128.178719,37.98843,6338.296188000001,-51.955,-83.126,226.104
10.1368,128.178714,37.988437,6334.4200464000005,-50.553,-82.994,224.693
10.1535,128.178709,37.988444,6330.5411616,-49.203,-82.858,223.337
10.1702,128.178704,37.98845,6326.659533600001,-47.905,-82.718,222.031
10.187,128.178699,37.988457,6322.775772,-46.657,-82.575,220.776
10.2037,128.178694,37.988463,6318.8892672,-45.457,-82.428,219.569
10.2204,128.178689,37.988469,6315.000324000001,-44.305,-82.278,218.409
10.2371,128.178684,37.988475,6311.108942400001,-43.196,-82.125,217.294
10.2538,128.178679,37.988481,6307.2151224,-42.131,-81.969,216.221
10.2705,128.178674,37.988487,6303.319168800001,-41.108,-81.81,215.19
10.2872,128.178669,37.988493,6299.4210816,-40.123,-81.65,214.198
10.3039,128.178664,37.988498,6295.520860800001,-39.177,-81.486,213.245
10.3205,128.17866,37.988504,6291.618201600001,-38.267,-81.321,212.327
10.3372,128.178655,37.988509,6287.7137136,-37.392,-81.153,211.444
10.3539,128.17865,37.988514,6283.807092000001,-36.549,-80.984,210.594
10.3707,128.178645,37.988519,6279.898641600001,-35.737,-80.813,209.775
10.3874,128.17864,37.988524,6275.9883624,-34.955,-80.64,208.985
10.4041,128.178636,37.988529,6272.0759496,-34.201,-80.466,208.224
10.4208,128.178631,37.988533,6268.1620128,-33.474,-80.29,207.49
10.4375,128.178626,37.988538,6264.246247200001,-32.773,-80.112,206.781
10.4542,128.178622,37.988542,6260.3289576,-32.095,-79.934,206.097
10.4709,128.178617,37.988546,6256.4098392,-31.441,-79.754,205.436
10.4876,128.178612,37.98855,6252.489196800001,-30.809,-79.573,204.797
10.5042,128.178608,37.988554,6248.5673352,-30.197,-79.391,204.179
10.5209,128.178603,37.988558,6244.6436448,-29.606,-79.208,203.581
10.5376,128.178598,37.988562,6240.7187352,-29.033,-79.024,203.002
10.5544,128.178594,37.988565,6236.7923016,-28.479,-78.839,202.441
10.5711,128.178589,37.988569,6232.8649536,-27.941,-78.653,201.897
10.5878,128.178585,37.988572,6228.9360816,-27.42,-78.467,201.37
10.6045,128.17858,37.988575,6225.0059904,-26.915,-78.28,200.859
10.6212,128.178576,37.988578,6221.0749848,-26.424,-78.092,200.362
10.6379,128.178571,37.988581,6217.142760000001,-25.947,-77.903,199.879
10.6546,128.178567,37.988584,6213.2096208,-25.484,-77.714,199.41
10.6713,128.178562,37.988587,6209.2755672,-25.033,-77.524,198.954
10.6879,128.178558,37.988589,6205.3405992,-24.594,-77.333,198.509
10.7046,128.178553,37.988591,6201.4047168,-24.167,-77.143,198.077
10.7213,128.178549,37.988594,6197.467920000001,-23.751,-76.951,197.655
10.7381,128.178545,37.988596,6193.530513600001,-23.346,-76.759,197.244
10.7548,128.17854,37.988598,6189.592497600001,-22.951,-76.567,196.844
10.7715,128.178536,37.9886,6185.653872,-22.566,-76.374,196.453
10.7882,128.178532,37.988601,6181.7146368,-22.191,-76.181,196.072
10.8049,128.178527,37.988603,6177.774792,-21.825,-75.988,195.7
10.8216,128.178523,37.988604,6173.834642400001,-21.468,-75.794,195.337
10.8383,128.178519,37.988606,6169.8938832,-21.12,-75.6,194.982
10.855,128.178514,37.988607,6165.953124000001,-20.78,-75.405,194.635
10.8717,128.17851,37.988608,6162.0117552,-20.448,-75.21,194.296
10.8883,128.178506,37.988609,6158.0700816,-20.124,-75.015,193.965
10.905,128.178502,37.98861,6154.1284080000005,-19.808,-74.819,193.641
10.9218,128.178498,37.98861,6150.1867344,-19.5,-74.624,193.324
10.9385,128.178494,37.988611,6146.244756000001,-19.199,-74.427,193.014
10.9552,128.178489,37.988611,6142.302777600001,-18.906,-74.231,192.712
10.9719,128.178485,37.988612,6138.3611040000005,-18.62,-74.034,192.416
10.9886,128.178481,37.988612,6134.4191255999995,-18.342,-73.837,192.127
11.0053,128.178477,37.988612,6130.477452000001,-18.071,-73.64,191.844
11.022,128.178473,37.988612,6126.536083200001,-17.807,-73.442,191.568
11.0387,128.178469,37.988611,6122.595019200001,-17.55,-73.244,191.298
11.0554,128.178465,37.988611,6118.6539552,-17.3,-73.046,191.035
11.072,128.178461,37.988611,6114.7135008000005,-17.057,-72.848,190.777
11.0887,128.178457,37.98861,6110.7733512,-16.821,-72.649,190.526
11.1054,128.178453,37.988609,6106.833506400001,-16.592,-72.45,190.28
11.1222,128.178449,37.988608,6102.894576,-16.37,-72.251,190.041
11.1389,128.178445,37.988607,6098.955950400001,-16.154,-72.051,189.807
11.1556,128.178441,37.988606,6095.0179344,-15.945,-71.851,189.58
11.1723,128.178437,37.988605,6091.080528,-15.743,-71.651,189.357
11.189,128.178433,37.988603,6087.144036000001,-15.547,-71.451,189.141
11.2057,128.17843,37.988602,6083.2081536000005,-15.358,-71.25,188.93
11.2224,128.178426,37.9886,6079.2731856,-15.174,-71.05,188.725
11.2391,128.178422,37.988599,6075.339132,-14.997,-70.848,188.525
11.2557,128.178418,37.988597,6071.405992800001,-14.827,-70.647,188.33
11.2724,128.178414,37.988595,6067.473768,-14.662,-70.446,188.14
11.2891,128.178411,37.988592,6063.5427624,-14.503,-70.244,187.956
11.3059,128.178407,37.98859,6059.6126712,-14.35,-70.042,187.777
11.3226,128.178403,37.988588,6055.684104,-14.203,-69.839,187.603
11.3393,128.1784,37.988585,6051.756451200001,-14.062,-69.637,187.434
11.356,128.178396,37.988582,6047.8300176,-13.926,-69.434,187.27
11.3727,128.178392,37.98858,6043.9048032,-13.796,-69.231,187.111
11.3894,128.178389,37.988577,6039.9811128,-13.671,-69.028,186.957
11.4061,128.178385,37.988574,6036.058641600001,-13.552,-68.825,186.808
11.4228,128.178382,37.98857,6032.1379992,-13.437,-68.621,186.663
11.4394,128.178378,37.988567,6028.218576,-13.328,-68.417,186.523
11.4561,128.178375,37.988564,6024.3006768000005,-13.224,-68.213,186.388
11.4728,128.178371,37.98856,6020.384606400001,-13.124,-68.009,186.257
11.4896,128.178368,37.988556,6016.470060000001,-13.028,-67.805,186.13
11.5063,128.178364,37.988552,6012.5573424,-12.937,-67.6,186.008
11.523,128.178361,37.988548,6008.6464536,-12.85,-67.395,185.889
11.5397,128.178357,37.988544,6004.7370888,-12.766,-67.191,185.774
11.5564,128.178354,37.98854,6000.8298576,-12.685,-66.986,185.663
11.5731,128.17835,37.988536,5996.9244552,-12.607,-66.781,185.555
11.5898,128.178347,37.988531,5993.0211864,-12.532,-66.575,185.451
11.6065,128.178344,37.988527,5989.1200512000005,-12.459,-66.37,185.349
11.6231,128.178341,37.988522,5985.2207448,-12.388,-66.165,185.25
11.6398,128.178337,37.988517,5981.323572,-12.318,-65.96,185.153
11.6565,128.178334,37.988512,5977.4288376,-12.249,-65.754,185.058
11.6733,128.178331,37.988507,5973.536236800001,-12.181,-65.549,184.965
11.69,128.178328,37.988502,5969.6460744000005,-12.112,-65.344,184.873
11.7067,128.178324,37.988497,5965.7580456000005,-12.044,-65.138,184.783
11.7234,128.178321,37.988491,5961.87276,-11.975,-64.933,184.694
11.7401,128.178318,37.988486,5957.989608,-11.906,-64.728,184.606
11.7568,128.178315,37.98848,5954.1091992,-11.836,-64.523,184.519
11.7735,128.178312,37.988474,5950.2312288,-11.765,-64.318,184.432
11.7902,128.178309,37.988468,5946.356001600001,-11.694,-64.113,184.346
11.8068,128.178306,37.988462,5942.483517600001,-11.621,-63.908,184.261
11.8235,128.178303,37.988456,5938.6137768,-11.547,-63.704,184.176
11.8402,128.1783,37.988449,5934.746779200001,-11.473,-63.499,184.091
11.857,128.178297,37.988443,5930.8828296,-11.398,-63.295,184.007
11.8737,128.178294,37.988436,5927.0216232,-11.323,-63.09,183.923
11.8904,128.178291,37.98843,5923.163464800001,-11.246,-62.886,183.84
11.9071,128.178288,37.988423,5919.3080496,-11.17,-62.682,183.757
11.9238,128.178285,37.988416,5915.455987200001,-11.093,-62.478,183.675
11.9405,128.178282,37.988409,5911.6069728,-11.017,-62.274,183.593
11.9572,128.178279,37.988402,5907.761311200001,-10.941,-62.07,183.513
11.9739,128.178276,37.988394,5903.918697600001,-10.865,-61.866,183.433
11.9905,128.178274,37.988387,5900.079436800001,-10.789,-61.662,183.354
12.0072,128.178271,37.988379,5896.243528800001,-10.714,-61.458,183.276
12.0239,128.178268,37.988371,5892.410973600001,-10.64,-61.254,183.199
12.0407,128.178265,37.988364,5888.5817712,-10.566,-61.05,183.122
12.0574,128.178263,37.988356,5884.7562264,-10.492,-60.846,183.047
12.0741,128.17826,37.988348,5880.9340344,-10.42,-60.642,182.972
12.0908,128.178257,37.988339,5877.1155,-10.348,-60.438,182.898
12.1075,128.178255,37.988331,5873.300928000001,-10.276,-60.234,182.825
12.1242,128.178252,37.988323,5869.4897088,-10.206,-60.03,182.753
12.1409,128.178249,37.988314,5865.682147200001,-10.135,-59.827,182.681
12.1576,128.178247,37.988305,5861.878548,-10.066,-59.623,182.611
12.1743,128.178244,37.988297,5858.078911200001,-9.997,-59.419,182.541
12.1909,128.178242,37.988288,5854.283236800001,-9.929,-59.215,182.472
12.2076,128.178239,37.988279,5850.491220000001,-9.862,-59.011,182.404
12.2243,128.178237,37.988269,5846.703470400001,-9.795,-58.808,182.337
12.2411,128.178234,37.98826,5842.919378400001,-9.729,-58.604,182.27
12.2578,128.178232,37.988251,5839.1398584,-9.663,-58.4,182.204
12.2745,128.178229,37.988241,5835.364300800001,-9.598,-58.196,182.139
12.2912,128.178227,37.988232,5831.592705600001,-9.534,-57.993,182.075
12.3079,128.178225,37.988222,5827.8256824,-9.47,-57.789,182.011
12.3246,128.178222,37.988212,5824.0629264,-9.407,-57.585,181.948
12.3413,128.17822,37.988202,5820.304437600001,-9.345,-57.382,181.886
12.358,128.178218,37.988192,5816.5505207999995,-9.283,-57.178,181.824
12.3746,128.178215,37.988181,5812.8008712,-9.222,-56.975,181.763
12.3913,128.178213,37.988171,5809.0554888,-9.162,-56.771,181.703
12.408,128.178211,37.988161,5805.314983200001,-9.102,-56.567,181.643
12.4248,128.178209,37.98815,5801.5790496,-9.043,-56.364,181.584
12.4415,128.178206,37.988139,5797.847688000001,-8.984,-56.16,181.526
12.4582,128.178204,37.988128,5794.1212032,-8.926,-55.957,181.468
12.4749,128.178202,37.988118,5790.399290400001,-8.868,-55.754,181.411
12.4916,128.1782,37.988106,5786.682254400001,-8.812,-55.55,181.354
12.5083,128.178198,37.988095,5782.9697904,-8.755,-55.347,181.298
12.525,128.178196,37.988084,5779.262508,-8.7,-55.143,181.243
12.5417,128.178194,37.988073,5775.5601024,-8.644,-54.94,181.188
12.5583,128.178192,37.988061,5771.8625736,-8.59,-54.737,181.134
12.575,128.17819,37.988049,5768.1702264000005,-8.536,-54.534,181.081
12.5917,128.178188,37.988038,5764.483060800001,-8.482,-54.33,181.028
12.6085,128.178186,37.988026,5760.8007720000005,-8.429,-54.127,180.975
12.6252,128.178184,37.988014,5757.1236648,-8.377,-53.924,180.923
12.6419,128.178182,37.988002,5753.452044,-8.325,-53.721,180.872
12.6586,128.17818,37.987989,5749.7853000000005,-8.274,-53.518,180.821
12.6753,128.178178,37.987977,5746.124347200001,-8.223,-53.315,180.77
12.692,128.178176,37.987964,5742.4682712,-8.173,-53.112,180.72
12.7087,128.178174,37.987952,5738.8179864,-8.123,-52.909,180.671
12.7254,128.178173,37.987939,5735.172883200001,-8.074,-52.706,180.622
12.742,128.178171,37.987926,5731.5335712,-8.025,-52.503,180.574
12.7587,128.178169,37.987913,5727.899745600001,-7.977,-52.301,180.526
12.7754,128.178167,37.9879,5724.271406400001,-7.929,-52.098,180.478
12.7922,128.178166,37.987887,5720.6485536,-7.882,-51.895,180.431
12.8089,128.178164,37.987874,5717.031796800001,-7.835,-51.692,180.385
12.8256,128.178162,37.987861,5713.4205264,-7.789,-51.49,180.339
12.8423,128.178161,37.987847,5709.815047200001,-7.743,-51.287,180.293
12.859,128.178159,37.987834,5706.2153592,-7.698,-51.085,180.248
12.8757,128.178157,37.98782,5702.6214624,-7.653,-50.882,180.203
12.8924,128.178156,37.987806,5699.0336615999995,-7.608,-50.68,180.158
12.9091,128.178154,37.987792,5695.4519568000005,-7.564,-50.477,180.114
12.9257,128.178153,37.987778,5691.8760432,-7.521,-50.275,180.071
12.9424,128.178151,37.987764,5688.3062256,-7.478,-50.073,180.028
12.9591,128.17815,37.98775,5684.742504,-7.436,-49.871,179.985
12.9759,128.178148,37.987735,5681.1851832,-7.394,-49.668,179.943
12.9926,128.178147,37.987721,5677.6336536,-7.352,-49.466,179.901
13.0093,128.178145,37.987706,5674.0885248,-7.311,-49.264,179.86
13.026,128.178144,37.987691,5670.549796800001,-7.27,-49.062,179.818
13.0427,128.178143,37.987677,5667.0171648000005,-7.229,-48.86,179.778
13.0594,128.178141,37.987662,5663.490933600001,-7.189,-48.658,179.737
13.0761,128.17814,37.987647,5659.971408,-7.15,-48.457,179.697
13.0928,128.178139,37.987632,5656.457978400001,-7.111,-48.255,179.658
13.1095,128.178137,37.987616,5652.9512544,-7.072,-48.053,179.618
13.1262,128.178136,37.987601,5649.4509312,-7.034,-47.851,179.58
13.1429,128.178135,37.987585,5645.9573136,-6.996,-47.65,179.541
13.1596,128.178133,37.98757,5642.470096800001,-6.958,-47.448,179.503
13.1763,128.178132,37.987554,5638.9898904,-6.921,-47.247,179.465
13.193,128.178131,37.987538,5635.5160848,-6.884,-47.045,179.427
13.2097,128.17813,37.987523,5632.0492896,-6.848,-46.844,179.39
13.2264,128.178129,37.987507,5628.5892,-6.812,-46.643,179.353
13.2431,128.178128,37.98749,5625.135816,-6.776,-46.441,179.317
13.2598,128.178127,37.987474,5621.689442400001,-6.741,-46.24,179.281
13.2765,128.178125,37.987458,5618.250079200001,-6.706,-46.039,179.245
13.2932,128.178124,37.987442,5614.8174216,-6.671,-45.838,179.209
13.3099,128.178123,37.987425,5611.392079200001,-6.637,-45.637,179.174
13.3266,128.178122,37.987408,5607.973747200001,-6.603,-45.436,179.139
13.3433,128.178121,37.987392,5604.5624256,-6.57,-45.235,179.104
13.36,128.17812,37.987375,5601.1581144,-6.537,-45.035,179.07
13.3767,128.178119,37.987358,5597.761118400001,-6.504,-44.834,179.036
13.3934,128.178119,37.987341,5594.371132800001,-6.471,-44.633,179.002
13.4101,128.178118,37.987324,5590.9884624,-6.439,-44.433,178.968
13.4268,128.178117,37.987307,5587.613412,-6.407,-44.232,178.935
13.4435,128.178116,37.987289,5584.245372,-6.375,-44.032,178.902
13.4602,128.178115,37.987272,5580.8846472000005,-6.344,-43.831,178.869
13.4769,128.178114,37.987254,5577.531542400001,-6.313,-43.631,178.837
13.4936,128.178113,37.987237,5574.1857528,-6.282,-43.431,178.805
13.5103,128.178113,37.987219,5570.8475832,-6.252,-43.231,178.773
13.527,128.178112,37.987201,5567.517033600001,-6.222,-43.03,178.741
13.5437,128.178111,37.987183,5564.1937992,-6.193,-42.83,178.71
13.5604,128.17811,37.987165,5560.8781848,-6.164,-42.63,178.679
13.5771,128.17811,37.987147,5557.570495200001,-6.135,-42.431,178.649
13.5938,128.178109,37.987129,5554.2701208,-6.106,-42.231,178.618
13.6105,128.178108,37.98711,5550.9776712,-6.078,-42.031,178.588
13.6272,128.178108,37.987092,5547.693146400001,-6.05,-41.831,178.558
13.6439,128.178107,37.987073,5544.416241600001,-6.022,-41.632,178.528
13.6606,128.178107,37.987055,5541.1472616,-5.995,-41.432,178.499
13.6773,128.178106,37.987036,5537.885901600001,-5.967,-41.233,178.47
13.694,128.178106,37.987017,5534.6327712,-5.94,-41.033,178.441
13.7107,128.178105,37.986998,5531.387260800001,-5.913,-40.834,178.412
13.7274,128.178104,37.986979,5528.14998,-5.886,-40.635,178.383
13.7441,128.178104,37.98696,5524.920928800001,-5.86,-40.436,178.355
13.7608,128.178104,37.986941,5521.6994976000005,-5.834,-40.237,178.327
13.7775,128.178103,37.986922,5518.486296,-5.808,-40.038,178.299
13.7942,128.178103,37.986902,5515.2813240000005,-5.782,-39.839,178.271
13.8109,128.178102,37.986883,5512.0845816,-5.757,-39.64,178.244
13.8276,128.178102,37.986863,5508.896068800001,-5.732,-39.441,178.217
13.8443,128.178102,37.986843,5505.7157856,-5.707,-39.242,178.19
13.861,128.178101,37.986824,5502.5434272,-5.683,-39.044,178.163
13.8777,128.178101,37.986804,5499.379908,-5.658,-38.845,178.137
13.8944,128.178101,37.986784,5496.224313600001,-5.634,-38.647,178.11
13.9111,128.1781,37.986764,5493.0772536,-5.61,-38.448,178.084
13.9278,128.1781,37.986744,5489.938728,-5.587,-38.251,178.059
13.9445,128.1781,37.986723,5486.808432000001,-5.564,-38.056,178.034
13.9612,128.1781,37.986703,5483.6866704,-5.541,-37.865,178.009
13.9779,128.178099,37.986683,5480.5734432,-5.519,-37.679,177.985
13.9946,128.178099,37.986662,5477.4687504,-5.498,-37.5,177.963
14.0113,128.178099,37.986641,5474.372287200001,-5.477,-37.327,177.941
14.028,128.178099,37.986621,5471.2843584,-5.457,-37.161,177.92
14.0447,128.178099,37.9866,5468.2052688,-5.437,-37.002,177.901
14.0614,128.178099,37.986579,5465.134104,-5.419,-36.851,177.882
14.0781,128.178099,37.986558,5462.071778400001,-5.4,-36.708,177.864
14.0948,128.178099,37.986537,5459.0176824,-5.383,-36.572,177.848
14.1115,128.178099,37.986516,5455.9721208,-5.366,-36.443,177.832
14.1282,128.178099,37.986495,5452.9347888,-5.349,-36.321,177.817
14.1449,128.178099,37.986474,5449.9056864,-5.333,-36.206,177.803
14.1616,128.178099,37.986452,5446.8851184000005,-5.318,-36.097,177.79
14.1783,128.178099,37.986431,5443.8724752,-5.303,-35.995,177.778
14.195,128.178099,37.986409,5440.8683664,-5.288,-35.898,177.766
14.2117,128.178099,37.986388,5437.8721824,-5.273,-35.806,177.755
14.2284,128.178099,37.986366,5434.8839232,-5.259,-35.72,177.745
14.2451,128.178099,37.986344,5431.9038936,-5.246,-35.638,177.735
14.2618,128.178099,37.986322,5428.9317888,-5.232,-35.56,177.726
14.2785,128.178099,37.9863,5425.967608800001,-5.219,-35.487,177.717
14.2952,128.1781,37.986278,5423.0113536,-5.206,-35.417,177.709
14.3119,128.1781,37.986256,5420.0627184,-5.193,-35.35,177.701
14.3286,128.1781,37.986234,5417.122008,-5.18,-35.287,177.693
14.3453,128.1781,37.986212,5414.1886128,-5.167,-35.227,177.686
14.362,128.1781,37.98619,5411.263142400001,-5.154,-35.17,177.68
14.3787,128.178101,37.986167,5408.3449872,-5.142,-35.116,177.673
14.3954,128.178101,37.986145,5405.434452,-5.129,-35.064,177.667
14.4121,128.178101,37.986122,5402.531232,-5.117,-35.015,177.661
14.4288,128.178102,37.9861,5399.635327200001,-5.104,-34.968,177.656
14.4455,128.178102,37.986077,5396.7467376,-5.092,-34.924,177.651
14.4622,128.178102,37.986054,5393.8654632,-5.079,-34.882,177.646
14.4789,128.178103,37.986032,5390.9911992,-5.067,-34.841,177.641
14.4956,128.178103,37.986009,5388.1239456,-5.054,-34.803,177.637
14.5123,128.178103,37.985986,5385.2640071999995,-5.042,-34.766,177.632
14.529,128.178104,37.985963,5382.411079200001,-5.03,-34.731,177.628
14.5457,128.178104,37.98594,5379.564856800001,-5.017,-34.698,177.624
14.5624,128.178105,37.985917,5376.7256448,-5.004,-34.666,177.621
14.5791,128.178105,37.985893,5373.892833600001,-4.992,-34.635,177.617
14.5958,128.178106,37.98587,5371.067032800001,-4.979,-34.605,177.614
14.6125,128.178106,37.985847,5368.247937600001,-4.966,-34.577,177.611
14.6292,128.178107,37.985823,5365.4352432,-4.953,-34.55,177.607
14.6459,128.178107,37.9858,5362.6292544,-4.94,-34.523,177.604
14.6626,128.178108,37.985776,5359.8293616,-4.927,-34.498,177.602
14.6793,128.178108,37.985753,5357.036174400001,-4.914,-34.474,177.599
14.696,128.178109,37.985729,5354.2490832,-4.901,-34.45,177.596
14.7127,128.178109,37.985705,5351.4683928,-4.887,-34.435,177.594
14.7294,128.17811,37.985682,5348.6934936,-4.875,-34.429,177.593
14.7461,128.17811,37.985658,5345.9246904,-4.861,-34.429,177.593
14.7628,128.178111,37.985634,5343.161678400001,-4.847,-34.435,177.594
14.7795,128.178112,37.98561,5340.4044576,-4.833,-34.446,177.596
14.7962,128.178112,37.985586,5337.652723200001,-4.818,-34.459,177.598
14.8129,128.178113,37.985562,5334.9070848,-4.802,-34.475,177.6
14.8296,128.178114,37.985538,5332.166628000001,-4.786,-34.491,177.602
14.8463,128.178114,37.985514,5329.4319624,-4.77,-34.508,177.604
14.863,128.178115,37.985489,5326.7027832,-4.754,-34.525,177.606
14.8797,128.178116,37.985465,5323.9787856,-4.738,-34.541,177.608
14.8964,128.178116,37.985441,5321.259969600001,-4.722,-34.566,177.611
14.9131,128.178117,37.985417,5318.5463352,-4.707,-34.599,177.614
14.9298,128.178118,37.985392,5315.8378824,-4.693,-34.639,177.618
14.9465,128.178119,37.985368,5313.134306400001,-4.68,-34.683,177.622
14.9632,128.178119,37.985343,5310.4356072,-4.667,-34.729,177.627
14.9799,128.17812,37.985319,5307.74148,-4.655,-34.777,177.631
14.9966,128.178121,37.985294,5305.0522296,-4.644,-34.824,177.635
15.0133,128.178122,37.985269,5302.367551200001,-4.633,-34.87,177.64
15.03,128.178122,37.985245,5299.68714,-4.623,-34.913,177.643
