Time,Longitude,Latitude,Altitude,Roll (deg),Pitch (deg),Yaw (deg)
0.0,128.181313,37.914631,4000.0467624000003,0.0,-0.003,0.0
0.0167,128.181313,37.914669,4000.05804,0.0,-0.013,0.0
0.0334,128.181313,37.914706,4000.0665744000003,0.084,-0.014,0.015
0.0501,128.181313,37.914744,4000.0729752,0.249,0.003,0.046
0.0668,128.181313,37.914781,4000.0769376,0.5,0.054,0.086
0.0834,128.181312,37.914819,4000.0775472,0.84,0.15,0.134
0.1002,128.181312,37.914856,4000.0751088,1.269,0.302,0.185
0.1169,128.181312,37.914894,4000.0696224000003,1.786,0.517,0.239
0.1336,128.181312,37.914932,4000.0607832,2.388,0.804,0.297
0.1503,128.181312,37.914969,4000.0492008000006,3.072,1.167,0.359
0.1669,128.181312,37.915007,4000.033656,3.834,1.595,0.428
0.1837,128.181312,37.915045,4000.0165872000002,4.67,2.078,0.504
0.2004,128.181313,37.915082,3999.9979944,5.576,2.606,0.588
0.2171,128.181313,37.91512,3999.9787920000003,6.55,3.166,0.681
0.2338,128.181313,37.915158,3999.9589800000003,7.587,3.744,0.784
0.2505,128.181313,37.915195,3999.9397776,8.685,4.327,0.897
0.2672,128.181313,37.915233,3999.9214896000003,9.841,4.902,1.018
0.2839,128.181313,37.915271,3999.9047256000003,11.052,5.456,1.148
0.3006,128.181313,37.915309,3999.8894856,12.315,5.98,1.283
0.3172,128.181313,37.915347,3999.8766840000003,13.627,6.474,1.425
0.3339,128.181313,37.915385,3999.8669304000005,14.987,6.943,1.574
0.3507,128.181313,37.915422,3999.8605296,16.391,7.388,1.73
0.3674,128.181313,37.91546,3999.8577864000004,17.839,7.812,1.894
0.3841,128.181313,37.915498,3999.8590056000003,19.328,8.217,2.066
0.4008,128.181313,37.915536,3999.8644920000006,20.858,8.604,2.246
0.4175,128.181314,37.915574,3999.8748552,22.426,8.973,2.435
0.4342,128.181314,37.915612,3999.8900952000004,24.031,9.326,2.632
0.4509,128.181314,37.91565,3999.9105168000006,25.672,9.662,2.837
0.4676,128.181314,37.915688,3999.9379488000004,27.329,9.984,3.049
0.4843,128.181315,37.915726,3999.9723912000004,28.984,10.292,3.265
0.501,128.181315,37.915764,4000.0150632,30.619,10.589,3.484
0.5176,128.181316,37.915802,4000.0662696,32.218,10.874,3.706
0.5344,128.181316,37.91584,4000.12662,33.768,11.149,3.93
0.5511,128.181317,37.915878,4000.196724,35.257,11.415,4.156
0.5678,128.181317,37.915916,4000.2771912000003,36.675,11.672,4.386
0.5845,128.181318,37.915954,4000.3686312,38.017,11.92,4.619
0.6012,128.181319,37.915992,4000.4710440000003,39.277,12.161,4.857
0.6179,128.18132,37.91603,4000.5850392,40.455,12.393,5.098
0.6345,128.181321,37.916068,4000.7112264,41.549,12.617,5.344
0.6513,128.181323,37.916106,4000.8499103999998,42.559,12.834,5.595
0.6679,128.181324,37.916144,4001.0010912000002,43.489,13.044,5.85
0.6847,128.181326,37.916182,4001.1647688000003,44.341,13.246,6.11
0.7014,128.181327,37.91622,4001.3394192000005,45.181,13.436,6.381
0.7181,128.181329,37.916258,4001.5247375999998,46.003,13.614,6.66
0.7348,128.181331,37.916295,4001.7198096,46.802,13.784,6.947
0.7514,128.181333,37.916333,4001.9246352000005,47.571,13.947,7.237
0.7682,128.181335,37.916371,4002.1404336,48.306,14.106,7.529
0.7848,128.181337,37.916409,4002.3669,49.002,14.262,7.823
0.8016,128.18134,37.916447,4002.6037296000004,49.655,14.415,8.119
0.8183,128.181342,37.916485,4002.851532,50.264,14.564,8.415
0.835,128.181345,37.916522,4003.1093928,50.829,14.709,8.712
0.8517,128.181348,37.91656,4003.3779216,51.35,14.851,9.01
0.8684,128.181351,37.916598,4003.6565088,51.83,14.99,9.309
0.8851,128.181354,37.916636,4003.9454592,52.269,15.125,9.608
0.9018,128.181358,37.916673,4004.2444680000003,52.67,15.256,9.908
0.9185,128.181361,37.916711,4004.5532304000003,53.037,15.386,10.209
0.9352,128.181365,37.916749,4004.8714416000003,53.373,15.513,10.509
0.9519,128.181368,37.916786,4005.1994064,53.681,15.638,10.809
0.9686,128.181372,37.916824,4005.5371248,53.962,15.761,11.109
0.9853,128.181377,37.916861,4005.8839872000003,54.219,15.881,11.41
1.002,128.181381,37.916899,4006.2399936,54.454,15.999,11.71
1.0187,128.181385,37.916936,4006.6051440000006,54.671,16.115,12.011
1.0353,128.18139,37.916974,4006.9794384,54.871,16.23,12.31
1.0521,128.181394,37.917011,4007.3628768,55.056,16.344,12.608
1.0688,128.181399,37.917049,4007.7548496,55.229,16.457,12.905
1.0855,128.181404,37.917086,4008.1559664,55.391,16.57,13.201
1.1022,128.181409,37.917124,4008.5659224,55.543,16.682,13.495
1.1189,128.181415,37.917161,4008.9844128,55.685,16.794,13.788
1.1356,128.18142,37.917198,4009.4117424,55.817,16.906,14.079
1.1522,128.181426,37.917236,4009.8476064,55.942,17.017,14.369
1.169,128.181431,37.917273,4010.2923096000004,56.058,17.129,14.657
1.1857,128.181437,37.91731,4010.745852,56.166,17.24,14.943
1.2024,128.181443,37.917347,4011.2079288,56.267,17.351,15.228
1.2191,128.18145,37.917384,4011.67854,56.361,17.461,15.512
1.2358,128.181456,37.917422,4012.1579904,56.447,17.572,15.794
1.2525,128.181462,37.917459,4012.6456704,56.526,17.681,16.075
1.2691,128.181469,37.917496,4013.1421896000006,56.597,17.79,16.355
1.2859,128.181476,37.917533,4013.6475480000004,56.663,17.899,16.634
1.3026,128.181483,37.91757,4014.161136,56.721,18.007,16.911
1.3193,128.18149,37.917607,4014.6832584,56.774,18.114,17.188
1.3359,128.181497,37.917643,4015.2142200000003,56.821,18.221,17.463
1.3527,128.181505,37.91768,4015.753716,56.863,18.328,17.738
1.3694,128.181512,37.917717,4016.3014416000005,56.9,18.434,18.011
1.386,128.18152,37.917754,4016.8580064000002,56.932,18.54,18.283
1.4028,128.181528,37.917791,4017.4228008000005,56.959,18.646,18.554
1.4195,128.181536,37.917827,4017.9964344000005,56.982,18.751,18.824
1.4362,128.181544,37.917864,4018.5786024000004,57.001,18.856,19.093
1.4528,128.181553,37.917901,4019.1690000000003,57.016,18.961,19.361
1.4696,128.181561,37.917937,4019.767932,57.028,19.066,19.627
1.4863,128.18157,37.917974,4020.3757032000003,57.036,19.171,19.893
1.5029,128.181579,37.91801,4020.991704,57.041,19.276,20.157
1.5197,128.181588,37.918047,4021.6162392000006,57.043,19.381,20.421
1.5364,128.181597,37.918083,4022.2490040000002,57.043,19.486,20.683
1.5531,128.181606,37.918119,4022.890608,57.041,19.591,20.945
1.5697,128.181615,37.918156,4023.5407464000004,57.036,19.696,21.205
1.5865,128.181625,37.918192,4024.1991144000003,57.029,19.801,21.465
1.6032,128.181635,37.918228,4024.8660168000006,57.02,19.907,21.723
1.6198,128.181645,37.918264,4025.5414536,57.009,20.012,21.981
1.6366,128.181655,37.9183,4026.2254248,56.997,20.118,22.237
1.6533,128.181665,37.918336,4026.9179304000004,56.984,20.223,22.493
1.67,128.181675,37.918372,4027.6186656,56.969,20.329,22.748
1.6867,128.181686,37.918408,4028.32824,56.953,20.435,23.001
1.7034,128.181696,37.918444,4029.0460440000006,56.935,20.541,23.254
1.7201,128.181707,37.91848,4029.7723824000004,56.918,20.648,23.506
1.7368,128.181718,37.918516,4030.5069504000003,56.899,20.755,23.757
1.7535,128.181729,37.918551,4031.2503576000004,56.879,20.862,24.008
1.7702,128.18174,37.918587,4032.0019944,56.859,20.969,24.257
1.7869,128.181752,37.918622,4032.7624704,56.839,21.076,24.506
1.8036,128.181763,37.918658,4033.5311760000004,56.818,21.184,24.753
1.8203,128.181775,37.918693,4034.3081112,56.797,21.292,25.0
1.837,128.181787,37.918729,4035.0938856,56.775,21.4,25.247
1.8537,128.181799,37.918764,4035.8878896000006,56.754,21.509,25.492
1.8704,128.181811,37.918799,4036.6907328000007,56.732,21.618,25.737
1.8871,128.181823,37.918835,4037.5018056000004,56.71,21.727,25.981
1.9038,128.181836,37.91887,4038.321108,56.689,21.836,26.225
1.9205,128.181849,37.918905,4039.1492496,56.668,21.946,26.467
1.9372,128.181861,37.91894,4039.9856208,56.647,22.056,26.71
1.9539,128.181874,37.918975,4040.8305264,56.626,22.166,26.951
1.9706,128.181887,37.91901,4041.6839664000004,56.606,22.276,27.192
1.9873,128.1819,37.919045,4042.5456360000003,56.586,22.387,27.432
2.004,128.181914,37.919079,4043.4161448,56.566,22.498,27.672
2.0207,128.181927,37.919114,4044.2948832,56.547,22.609,27.911
2.0374,128.181941,37.919149,4045.1818512,56.529,22.721,28.15
2.0541,128.181955,37.919183,4046.0776584,56.511,22.833,28.388
2.0707,128.181968,37.919218,4046.9816952,56.493,22.945,28.625
2.0875,128.181983,37.919252,4047.8942664,56.476,23.057,28.862
2.1042,128.181997,37.919287,4048.8150672,56.46,23.17,29.099
2.1208,128.182011,37.919321,4049.7444024,56.444,23.283,29.335
2.1376,128.182026,37.919355,4050.682272,56.429,23.396,29.571
2.1543,128.18204,37.919389,4051.6283712000004,56.415,23.509,29.806
2.171,128.182055,37.919423,4052.5830048000003,56.401,23.623,30.041
2.1877,128.18207,37.919457,4053.545868,56.388,23.737,30.275
2.2044,128.182085,37.919491,4054.5172656,56.376,23.851,30.509
2.2211,128.1821,37.919525,4055.4971976,56.365,23.965,30.743
2.2378,128.182115,37.919559,4056.4853592000004,56.354,24.08,30.976
2.2544,128.182131,37.919593,4057.4820552000006,56.344,24.194,31.209
2.2712,128.182146,37.919626,4058.4866760000004,56.334,24.309,31.442
2.2879,128.182162,37.91966,4059.500136,56.326,24.424,31.674
2.3045,128.182178,37.919693,4060.5218256000003,56.318,24.54,31.906
2.3213,128.182194,37.919727,4061.5517448,56.312,24.655,32.138
2.338,128.18221,37.91976,4062.5898936000003,56.306,24.771,32.37
2.3546,128.182226,37.919793,4063.6365768,56.3,24.887,32.601
2.3714,128.182243,37.919826,4064.6914896000003,56.295,25.003,32.832
2.3881,128.182259,37.919859,4065.7549368000005,56.292,25.119,33.063
2.4048,128.182276,37.919892,4066.8266136,56.288,25.236,33.293
2.4215,128.182293,37.919925,4067.9062152,56.286,25.353,33.524
2.4382,128.18231,37.919958,4068.9943512,56.284,25.469,33.754
2.4549,128.182327,37.919991,4070.0910215999997,56.284,25.586,33.984
2.4716,128.182344,37.920024,4071.1956168000006,56.283,25.703,34.214
2.4882,128.182362,37.920056,4072.3084416,56.284,25.821,34.443
2.505,128.182379,37.920089,4073.4298008000005,56.285,25.938,34.673
2.5217,128.182397,37.920121,4074.5590848,56.287,26.055,34.902
2.5383,128.182414,37.920153,4075.6965984000003,56.29,26.173,35.132
2.5551,128.182432,37.920186,4076.8423416000005,56.294,26.291,35.361
2.5718,128.18245,37.920218,4077.9963144000003,56.298,26.409,35.59
2.5884,128.182468,37.92025,4079.1585168000006,56.303,26.527,35.819
2.6052,128.182487,37.920282,4080.3289488000005,56.309,26.645,36.048
2.6219,128.182505,37.920314,4081.5073056000006,56.315,26.763,36.276
2.6386,128.182523,37.920346,4082.6941968,56.322,26.881,36.505
2.6553,128.182542,37.920377,4083.888708,56.33,26.999,36.734
2.6719,128.182561,37.920409,4085.0917536,56.339,27.118,36.962
2.6887,128.18258,37.920441,4086.302724,56.348,27.236,37.191
2.7054,128.182599,37.920472,4087.5216192000003,56.358,27.355,37.42
2.722,128.182618,37.920503,4088.7487440000004,56.369,27.473,37.648
2.7388,128.182637,37.920535,4089.9840984,56.38,27.592,37.877
2.7555,128.182656,37.920566,4091.2270728000003,56.392,27.711,38.105
2.7721,128.182676,37.920597,4092.4782768,56.405,27.83,38.334
2.7889,128.182695,37.920628,4093.7377104,56.418,27.949,38.562
2.8056,128.182715,37.920659,4095.0047640000003,56.432,28.067,38.791
2.8222,128.182735,37.92069,4096.2800472,56.447,28.186,39.019
2.839,128.182755,37.920721,4097.563255200001,56.462,28.305,39.248
2.8557,128.182775,37.920751,4098.854388,56.478,28.424,39.477
2.8724,128.182795,37.920782,4100.1534456,56.495,28.543,39.705
2.8891,128.182816,37.920812,4101.460428,56.513,28.662,39.934
2.9057,128.182836,37.920843,4102.775335200001,56.531,28.781,40.163
2.9225,128.182856,37.920873,4104.097862400001,56.549,28.9,40.392
2.9392,128.182877,37.920903,4105.428619200001,56.569,29.02,40.621
2.9558,128.182898,37.920933,4106.766996,56.589,29.139,40.85
2.9726,128.182919,37.920963,4108.1132976,56.609,29.258,41.079
2.9893,128.18294,37.920993,4109.467524,56.631,29.377,41.308
3.0059,128.182961,37.921023,4110.8293704,56.652,29.496,41.537
3.0227,128.182982,37.921052,4112.1991416,56.675,29.615,41.767
3.0394,128.183003,37.921082,4113.576532800001,56.698,29.734,41.996
3.056,128.183025,37.921111,4114.961544000001,56.722,29.853,42.226
3.0728,128.183046,37.921141,4116.35448,56.746,29.972,42.456
3.0895,128.183068,37.92117,4117.7550360000005,56.771,30.091,42.686
3.1062,128.18309,37.921199,4119.1635168,56.797,30.21,42.916
3.1229,128.183112,37.921228,4120.5793128,56.823,30.328,43.146
3.1395,128.183134,37.921257,4122.0030336,56.85,30.447,43.376
3.1563,128.183156,37.921286,4123.4343744,56.877,30.566,43.607
3.173,128.183178,37.921315,4124.8730304,56.905,30.685,43.837
3.1896,128.1832,37.921344,4126.3196112000005,56.934,30.803,44.068
3.2064,128.183223,37.921372,4127.7735072000005,56.963,30.922,44.299
3.2231,128.183245,37.921401,4129.235328000001,56.993,31.04,44.53
3.2397,128.183268,37.921429,4130.704464,57.023,31.159,44.761
3.2565,128.18329,37.921458,4132.1809152,57.054,31.277,44.993
3.2732,128.183313,37.921486,4133.6649864,57.085,31.396,45.224
3.2899,128.183336,37.921514,4135.1566776,57.117,31.514,45.456
3.3066,128.183359,37.921542,4136.655684,57.15,31.632,45.688
3.3233,128.183382,37.92157,4138.1623104,57.183,31.75,45.92
3.34,128.183405,37.921598,4139.676252,57.217,31.868,46.153
3.3567,128.183429,37.921625,4141.1975088,57.251,31.986,46.385
3.3734,128.183452,37.921653,4142.7263856,57.286,32.104,46.618
3.3901,128.183475,37.92168,4144.262272800001,57.322,32.222,46.851
3.4068,128.183499,37.921708,4145.805780000001,57.358,32.339,47.085
3.4235,128.183523,37.921735,4147.3566024,57.394,32.457,47.318
3.4402,128.183546,37.921762,4148.9144352,57.432,32.574,47.552
3.4569,128.18357,37.921789,4150.479888,57.469,32.692,47.786
3.4736,128.183594,37.921816,4152.0523512,57.508,32.809,48.02
3.4903,128.183618,37.921843,4153.632129600001,57.547,32.926,48.254
3.507,128.183642,37.921869,4155.2189184,57.586,33.043,48.489
3.5237,128.183667,37.921896,4156.8130224,57.627,33.16,48.724
3.5404,128.183691,37.921923,4158.414441600001,57.667,33.276,48.959
3.5571,128.183715,37.921949,4160.022871200001,57.709,33.393,49.194
3.5738,128.18374,37.921975,4161.638616,57.751,33.509,49.43
3.5905,128.183764,37.922001,4163.2610664,57.793,33.626,49.666
3.6072,128.183789,37.922027,4164.890832,57.836,33.742,49.902
3.6239,128.183814,37.922053,4166.5279128,57.88,33.858,50.138
3.6406,128.183839,37.922079,4168.1716992,57.924,33.974,50.375
3.6573,128.183864,37.922105,4169.822496000001,57.969,34.089,50.612
3.674,128.183889,37.922131,4171.480303200001,58.014,34.205,50.849
3.6907,128.183914,37.922156,4173.1451208,58.06,34.32,51.087
3.7074,128.183939,37.922181,4174.8169488,58.107,34.436,51.325
3.7241,128.183964,37.922207,4176.4957872,58.154,34.551,51.563
3.7408,128.18399,37.922232,4178.1813312,58.201,34.666,51.801
3.7575,128.184015,37.922257,4179.8738856,58.25,34.781,52.04
3.7742,128.18404,37.922282,4181.5731456,58.298,34.895,52.279
3.7909,128.184066,37.922307,4183.279416,58.348,35.01,52.518
3.8076,128.184092,37.922331,4184.992392,58.398,35.124,52.758
3.8243,128.184117,37.922356,4186.712073600001,58.448,35.238,52.997
3.841,128.184143,37.922381,4188.4387656,58.5,35.352,53.238
3.8577,128.184169,37.922405,4190.1718584,58.551,35.466,53.478
3.8744,128.184195,37.922429,4191.911961600001,58.604,35.579,53.719
3.8911,128.184221,37.922453,4193.6584656,58.656,35.693,53.96
3.9078,128.184247,37.922477,4195.411980000001,58.71,35.806,54.201
3.9245,128.184273,37.922501,4197.1718952,58.764,35.919,54.443
3.9412,128.1843,37.922525,4198.938516,58.819,36.032,54.685
3.9579,128.184326,37.922549,4200.7118424,58.874,36.144,54.928
3.9746,128.184352,37.922573,4202.4915696,58.93,36.257,55.17
3.9913,128.184379,37.922596,4204.2780024,58.986,36.369,55.413
4.008,128.184405,37.922619,4206.070836,59.043,36.481,55.657
4.0247,128.184432,37.922643,4207.8703752,59.101,36.593,55.901
4.0414,128.184459,37.922666,4209.6763152,59.159,36.704,56.145
4.058,128.184486,37.922689,4211.488656,59.218,36.816,56.389
4.0748,128.184512,37.922712,4213.3073976000005,59.277,36.927,56.634
4.0915,128.184539,37.922734,4215.13254,59.338,37.038,56.879
4.1082,128.184566,37.922757,4216.9640832,59.398,37.148,57.125
4.1249,128.184593,37.92278,4218.8020272,59.459,37.259,57.371
4.1415,128.18462,37.922802,4220.6460672,59.521,37.369,57.617
4.1583,128.184648,37.922824,4222.4968128,59.584,37.479,57.863
4.175,128.184675,37.922847,4224.3536544,59.647,37.589,58.11
4.1917,128.184702,37.922869,4226.216592000001,59.71,37.698,58.358
4.2084,128.184729,37.922891,4228.0859304000005,59.775,37.808,58.605
4.2251,128.184757,37.922913,4229.9616696,59.84,37.917,58.853
4.2417,128.184784,37.922934,4231.8435048,59.905,38.025,59.102
4.2585,128.184812,37.922956,4233.731436,59.971,38.134,59.351
4.2752,128.184839,37.922977,4235.6254632,60.038,38.242,59.6
4.2919,128.184867,37.922999,4237.5255864,60.105,38.35,59.849
4.3086,128.184895,37.92302,4239.4318056,60.173,38.458,60.099
4.3252,128.184922,37.923041,4241.3441208,60.242,38.566,60.35
4.342,128.18495,37.923062,4243.262532000001,60.311,38.673,60.601
4.3587,128.184978,37.923083,4245.1867344,60.381,38.78,60.852
4.3754,128.185006,37.923104,4247.117032800001,60.451,38.887,61.103
4.3921,128.185034,37.923125,4249.0534272,60.522,38.993,61.355
4.4088,128.185062,37.923145,4250.9956128,60.594,39.1,61.607
4.4254,128.18509,37.923165,4252.9438944,60.666,39.206,61.86
4.4422,128.185118,37.923186,4254.8979672,60.739,39.311,62.113
4.4589,128.185146,37.923206,4256.8578312,60.813,39.417,62.367
4.4756,128.185175,37.923226,4258.823486400001,60.887,39.522,62.621
4.4923,128.185203,37.923246,4260.7952376,60.961,39.627,62.875
4.5089,128.185231,37.923266,4262.7724752,61.037,39.731,63.13
4.5256,128.18526,37.923286,4264.755504,61.113,39.836,63.385
4.5424,128.185288,37.923305,4266.744324,61.189,39.94,63.641
4.5591,128.185317,37.923325,4268.738935200001,61.267,40.043,63.897
4.5758,128.185345,37.923344,4270.7390328,61.345,40.147,64.153
4.5925,128.185374,37.923363,4272.7449215999995,61.423,40.25,64.41
4.6091,128.185402,37.923382,4274.7566016,61.502,40.353,64.668
4.6259,128.185431,37.923401,4276.7734632,61.582,40.455,64.925
4.6426,128.18546,37.92342,4278.7964208,61.662,40.558,65.183
4.6593,128.185489,37.923439,4280.82456,61.744,40.659,65.442
4.676,128.185517,37.923457,4282.8581856,61.825,40.761,65.701
4.6927,128.185546,37.923476,4284.8976024,61.908,40.862,65.961
4.7093,128.185575,37.923494,4286.9422008,61.991,40.963,66.221
4.7261,128.185604,37.923513,4288.9922856,62.074,41.064,66.481
4.7428,128.185633,37.923531,4291.0478568,62.159,41.164,66.742
4.7595,128.185662,37.923549,4293.108914400001,62.243,41.264,67.003
4.7762,128.185691,37.923567,4295.1754584,62.329,41.364,67.265
4.7928,128.18572,37.923584,4297.2468792,62.415,41.463,67.527
4.8096,128.185749,37.923602,4299.3240912,62.502,41.562,67.789
4.8263,128.185778,37.92362,4301.40618,62.589,41.661,68.052
4.843,128.185808,37.923637,4303.4937552,62.678,41.76,68.316
4.8597,128.185837,37.923654,4305.586512000001,62.766,41.858,68.58
4.8764,128.185866,37.923671,4307.6847552,62.856,41.955,68.844
4.893,128.185895,37.923688,4309.787875200001,62.946,42.053,69.109
4.9098,128.185925,37.923705,4311.8961768,63.037,42.15,69.374
4.9265,128.185954,37.923722,4314.009660000001,63.128,42.246,69.64
4.9432,128.185983,37.923739,4316.12802,63.22,42.343,69.906
4.9599,128.186013,37.923755,4318.2518664,63.312,42.439,70.173
4.9765,128.186042,37.923772,4320.3805896,63.406,42.534,70.44
4.9932,128.186072,37.923788,4322.5141896000005,63.5,42.63,70.708
5.01,128.186101,37.923804,4324.6529712,63.594,42.725,70.976
5.0267,128.186131,37.92382,4326.7966296,63.689,42.819,71.245
5.0434,128.18616,37.923836,4328.9451648,63.785,42.913,71.514
5.0601,128.18619,37.923852,4331.0985768,63.882,43.007,71.783
5.0767,128.18622,37.923868,4333.2571704,63.979,43.101,72.053
5.0935,128.186249,37.923883,4335.420336,64.077,43.194,72.324
5.1102,128.186279,37.923899,4337.588378400001,64.175,43.287,72.595
5.1269,128.186309,37.923914,4339.7612976,64.274,43.379,72.866
5.1436,128.186338,37.923929,4341.9387888,64.374,43.471,73.138
5.1602,128.186368,37.923944,4344.121461600001,64.474,43.563,73.411
5.1769,128.186398,37.923959,4346.3084016,64.576,43.654,73.684
5.1937,128.186428,37.923974,4348.5002184,64.677,43.745,73.957
5.2104,128.186458,37.923989,4350.6966072000005,64.78,43.835,74.231
5.2271,128.186487,37.924004,4352.8978728,64.883,43.925,74.506
5.2438,128.186517,37.924018,4355.103405600001,64.986,44.015,74.78
5.2604,128.186547,37.924032,4357.3138152,65.091,44.104,75.056
5.2772,128.186577,37.924047,4359.528492,65.196,44.193,75.332
5.2939,128.186607,37.924061,4361.7477408,65.301,44.282,75.608
5.3106,128.186637,37.924075,4363.9718664,65.407,44.37,75.885
5.3273,128.186667,37.924089,4366.1999544,65.514,44.458,76.162
5.3439,128.186697,37.924102,4368.432614400001,65.622,44.545,76.44
5.3606,128.186727,37.924116,4370.6698464,65.73,44.632,76.719
5.3774,128.186757,37.924129,4372.9113456000005,65.839,44.719,76.997
5.3941,128.186787,37.924143,4375.157416800001,65.948,44.805,77.277
5.4108,128.186817,37.924156,4377.4074504,66.058,44.89,77.557
5.4275,128.186847,37.924169,4379.662056,66.169,44.976,77.837
5.4441,128.186877,37.924182,4381.920624,66.28,45.06,78.118
5.4609,128.186907,37.924195,4384.183764,66.392,45.145,78.399
5.4776,128.186937,37.924208,4386.4508664,66.505,45.229,78.681
5.4943,128.186967,37.92422,4388.7225408,66.619,45.312,78.964
5.511,128.186997,37.924233,4390.997872800001,66.733,45.395,79.246
5.5277,128.187027,37.924245,4393.2777768000005,66.847,45.478,79.53
5.5443,128.187057,37.924257,4395.5613384,66.963,45.56,79.814
5.5611,128.187088,37.92427,4397.8491672,67.079,45.642,80.098
5.5778,128.187118,37.924282,4400.1412632,67.196,45.723,80.383
5.5945,128.187148,37.924293,4402.4370168000005,67.314,45.804,80.669
5.6112,128.187178,37.924305,4404.7370376,67.432,45.884,80.955
5.6278,128.187208,37.924317,4407.0410208,67.551,45.964,81.241
5.6445,128.187238,37.924328,4409.3486616,67.67,46.043,81.528
5.6613,128.187268,37.92434,4411.6602648,67.791,46.122,81.815
5.678,128.187299,37.924351,4413.975830400001,67.911,46.201,82.103
5.6947,128.187329,37.924362,4416.2953584,68.033,46.279,82.392
5.7114,128.187359,37.924373,4418.618544000001,68.155,46.356,82.681
5.728,128.187389,37.924384,4420.945692,68.278,46.433,82.97
5.7448,128.187419,37.924395,4423.2764976,68.402,46.51,83.26
5.7615,128.18745,37.924406,4425.6109608,68.526,46.586,83.551
5.7782,128.18748,37.924416,4427.9490816,68.651,46.661,83.842
5.7949,128.18751,37.924427,4430.2911648,68.777,46.737,84.133
5.8115,128.18754,37.924437,4432.6366008,68.904,46.811,84.425
5.8282,128.18757,37.924447,4434.9856944,69.031,46.885,84.717
5.845,128.1876,37.924457,4437.3384456,69.159,46.959,85.01
5.8617,128.187631,37.924467,4439.694854400001,69.287,47.032,85.304
5.8784,128.187661,37.924477,4442.054616,69.416,47.105,85.598
5.8951,128.187691,37.924486,4444.4180352,69.546,47.177,85.892
5.9117,128.187721,37.924496,4446.784807200001,69.676,47.248,86.187
5.9285,128.187751,37.924506,4449.1552368,69.808,47.32,86.482
5.9452,128.187781,37.924515,4451.5287144,69.939,47.39,86.778
5.9619,128.187811,37.924524,4453.9058496,70.072,47.46,87.074
5.9786,128.187842,37.924533,4456.2863376,70.205,47.53,87.371
5.9952,128.187872,37.924542,4458.670178400001,70.339,47.599,87.669
6.0119,128.187902,37.924551,4461.057372,70.473,47.668,87.966
6.0287,128.187932,37.92456,4463.4476136,70.608,47.736,88.265
6.0454,128.187962,37.924568,4465.8415128,70.744,47.803,88.563
6.0621,128.187992,37.924577,4468.2384600000005,70.88,47.87,88.863
6.0788,128.188022,37.924585,4470.6384552,71.017,47.936,89.162
6.0954,128.188052,37.924593,4473.041803200001,71.154,48.002,89.463
6.1121,128.188082,37.924601,4475.4481992,71.293,48.068,89.763
6.1289,128.188112,37.924609,4477.8576432,71.431,48.132,90.065
6.1456,128.188142,37.924617,4480.27044,71.57,48.196,90.366
6.1623,128.188172,37.924625,4482.68598,71.71,48.26,90.668
6.179,128.188202,37.924633,4485.1048728000005,71.851,48.323,90.971
6.1956,128.188232,37.92464,4487.526508800001,71.992,48.385,91.274
6.2124,128.188262,37.924648,4489.9511928,72.133,48.447,91.578
6.2291,128.188292,37.924655,4492.3789248,72.276,48.508,91.882
6.2458,128.188322,37.924662,4494.8094,72.418,48.568,92.187
6.2625,128.188352,37.924669,4497.2429232,72.562,48.628,92.492
6.2791,128.188382,37.924676,4499.6791896,72.706,48.688,92.798
6.2958,128.188412,37.924683,4502.1181992,72.851,48.746,93.104
6.3126,128.188442,37.924689,4504.5602568,72.996,48.804,93.41
6.3293,128.188472,37.924696,4507.0050576,73.142,48.862,93.717
6.346,128.188502,37.924702,4509.4522968,73.289,48.919,94.024
6.3627,128.188531,37.924709,4511.902584,73.436,48.975,94.332
6.3793,128.188561,37.924715,4514.3553096000005,73.583,49.031,94.641
6.3961,128.188591,37.924721,4516.8110832,73.732,49.086,94.949
6.4128,128.188621,37.924727,4519.2689904,73.881,49.141,95.258
6.4295,128.18865,37.924733,4521.7299456,74.03,49.195,95.568
6.4462,128.18868,37.924738,4524.1930344,74.181,49.248,95.878
6.4628,128.18871,37.924744,4526.659171200001,74.331,49.301,96.188
6.4795,128.188739,37.92475,4529.127441600001,74.483,49.353,96.499
6.4963,128.188769,37.924755,4531.5981504,74.635,49.404,96.81
6.513,128.188799,37.92476,4534.0716024,74.787,49.455,97.122
6.5297,128.188828,37.924765,4536.5474928,74.94,49.505,97.434
6.5464,128.188858,37.92477,4539.0255168,75.094,49.554,97.746
6.5631,128.188887,37.924775,4541.5059792,75.248,49.603,98.059
6.5798,128.188917,37.92478,4543.988880000001,75.403,49.651,98.372
6.5965,128.188946,37.924785,4546.4742192,75.559,49.699,98.686
6.6132,128.188976,37.924789,4548.961692000001,75.715,49.746,99.0
6.6299,128.189005,37.924794,4551.4512984,75.872,49.792,99.314
6.6466,128.189035,37.924798,4553.9433432000005,76.029,49.838,99.629
6.6633,128.189064,37.924802,4556.4375216,76.187,49.883,99.944
6.68,128.189093,37.924806,4558.9338336,76.345,49.927,100.259
6.6967,128.189123,37.92481,4561.4322792,76.504,49.971,100.575
6.7134,128.189152,37.924814,4563.9328584,76.663,50.014,100.891
6.7301,128.189181,37.924818,4566.435571200001,76.823,50.057,101.207
6.7468,128.18921,37.924821,4568.9404176,76.984,50.099,101.524
6.7635,128.18924,37.924825,4571.4473976,77.145,50.14,101.841
6.7802,128.189269,37.924828,4573.9562064,77.307,50.18,102.158
6.7969,128.189298,37.924831,4576.4668440000005,77.469,50.22,102.476
6.8136,128.189327,37.924835,4578.9796152,77.631,50.26,102.793
6.8303,128.189356,37.924838,4581.4942152,77.794,50.298,103.112
6.847,128.189385,37.924841,4584.010644000001,77.958,50.336,103.43
6.8637,128.189414,37.924843,4586.5292064000005,78.122,50.373,103.749
6.8804,128.189443,37.924846,4589.0492928,78.287,50.41,104.068
6.8971,128.189472,37.924849,4591.5715128,78.452,50.446,104.387
6.9138,128.189501,37.924851,4594.0952568,78.617,50.481,104.707
6.9305,128.189529,37.924853,4596.6208296,78.783,50.516,105.026
6.9472,128.189558,37.924856,4599.1482312,78.95,50.55,105.346
6.9639,128.189587,37.924858,4601.6771568,79.116,50.584,105.667
6.9806,128.189616,37.92486,4604.2079112,79.284,50.616,105.987
6.9973,128.189644,37.924862,4606.7401896,79.451,50.648,106.308
7.014,128.189673,37.924864,4609.273992,79.619,50.68,106.629
7.0307,128.189702,37.924865,4611.809623200001,79.788,50.711,106.95
7.0474,128.18973,37.924867,4614.3464736000005,79.957,50.741,107.272
7.0641,128.189759,37.924868,4616.8851528000005,80.126,50.77,107.593
7.0808,128.189787,37.92487,4619.425356,80.296,50.799,107.915
7.0975,128.189816,37.924871,4621.9667784,80.466,50.827,108.237
7.1142,128.189844,37.924872,4624.5097248,80.637,50.854,108.559
7.1309,128.189872,37.924873,4627.0541952,80.807,50.881,108.882
7.1476,128.189901,37.924874,4629.599884800001,80.979,50.907,109.204
7.1643,128.189929,37.924875,4632.147098400001,81.15,50.933,109.527
7.181,128.189957,37.924875,4634.6955312,81.322,50.957,109.85
7.1977,128.189985,37.924876,4637.2454880000005,81.494,50.982,110.173
7.2144,128.190014,37.924876,4639.796359200001,81.667,51.005,110.496
7.2311,128.190042,37.924877,4642.3487544,81.839,51.028,110.819
7.2478,128.19007,37.924877,4644.902368800001,82.012,51.05,111.143
7.2645,128.190098,37.924877,4647.4568976,82.186,51.071,111.466
7.2812,128.190126,37.924877,4650.012950400001,82.359,51.092,111.79
7.2979,128.190154,37.924877,4652.5699176,82.533,51.112,112.113
7.3146,128.190181,37.924877,4655.128104,82.707,51.132,112.437
7.3313,128.190209,37.924876,4657.6875096,82.882,51.15,112.761
7.348,128.190237,37.924876,4660.2475248,83.056,51.168,113.085
7.3647,128.190265,37.924875,4662.809064,83.231,51.186,113.409
7.3814,128.190292,37.924875,4665.3712128,83.406,51.203,113.733
7.3981,128.19032,37.924874,4667.9345808,83.582,51.219,114.057
7.4148,128.190348,37.924873,4670.4988632,83.757,51.234,114.382
7.4315,128.190375,37.924872,4673.064060000001,83.933,51.249,114.706
7.4482,128.190403,37.924871,4675.6301712,84.109,51.263,115.03
7.4649,128.19043,37.92487,4678.196892000001,84.285,51.276,115.355
7.4816,128.190457,37.924868,4680.764832,84.461,51.289,115.679
7.4983,128.190485,37.924867,4683.3333816,84.637,51.301,116.003
7.515,128.190512,37.924866,4685.902845600001,84.813,51.313,116.328
7.5317,128.190539,37.924864,4688.4729192,84.99,51.324,116.652
7.5484,128.190566,37.924862,4691.0436024,85.167,51.334,116.976
7.5651,128.190593,37.92486,4693.6152,85.343,51.343,117.301
7.5818,128.19062,37.924858,4696.1874072,85.52,51.352,117.625
7.5985,128.190647,37.924856,4698.7605288,85.697,51.36,117.949
7.6152,128.190674,37.924854,4701.333955200001,85.874,51.367,118.273
7.6319,128.190701,37.924852,4703.907991200001,86.051,51.374,118.598
7.6486,128.190728,37.92485,4706.4826368,86.229,51.38,118.922
7.6653,128.190755,37.924847,4709.057892000001,86.406,51.386,119.246
7.682,128.190782,37.924845,4711.6337568,86.583,51.39,119.57
7.6987,128.190808,37.924842,4714.2099264,86.76,51.394,119.894
7.7154,128.190835,37.924839,4716.7867056000005,86.938,51.398,120.217
7.7321,128.190861,37.924836,4719.3637896,87.115,51.401,120.541
7.7488,128.190888,37.924833,4721.9414832,87.292,51.403,120.865
7.7655,128.190914,37.92483,4724.5194816,87.469,51.404,121.188
7.7822,128.190941,37.924827,4727.0977848,87.647,51.405,121.511
7.7989,128.190967,37.924824,4729.6763928,87.824,51.405,121.835
7.8156,128.190993,37.92482,4732.255305600001,88.001,51.405,122.158
7.8323,128.19102,37.924817,4734.8345232,88.178,51.403,122.481
7.849,128.191046,37.924813,4737.4140456000005,88.355,51.401,122.803
7.8657,128.191072,37.924809,4739.993568,88.532,51.399,123.126
7.8824,128.191098,37.924806,4742.5737,88.709,51.396,123.448
7.8991,128.191124,37.924802,4745.153832,88.886,51.392,123.771
7.9158,128.19115,37.924798,4747.733964,89.063,51.388,124.093
7.9325,128.191176,37.924794,4750.314400800001,89.239,51.382,124.415
7.9492,128.191201,37.924789,4752.8948376,89.416,51.377,124.736
7.9659,128.191227,37.924785,4755.4752744,89.592,51.37,125.058
7.9826,128.191253,37.924781,4758.056016,89.768,51.363,125.379
7.9993,128.191278,37.924776,4760.6367576,89.944,51.355,125.7
8.016,128.191304,37.924772,4763.2171944,90.12,51.347,126.021
8.0327,128.191329,37.924767,4765.797936,90.296,51.338,126.342
8.0494,128.191355,37.924762,4768.3783728,90.472,51.328,126.662
8.0661,128.19138,37.924757,4770.958809600001,90.647,51.318,126.982
8.0828,128.191405,37.924752,4773.539246400001,90.822,51.307,127.302
8.0994,128.191431,37.924747,4776.119378400001,90.998,51.296,127.622
8.1161,128.191456,37.924742,4778.6995104,91.172,51.283,127.941
8.1329,128.191481,37.924737,4781.2796424,91.347,51.271,128.26
8.1496,128.191506,37.924731,4783.8591648,91.522,51.257,128.579
8.1663,128.191531,37.924726,4786.4386872000005,91.696,51.243,128.898
8.183,128.191556,37.92472,4789.0179048,91.87,51.228,129.216
8.1997,128.19158,37.924714,4791.5968176,92.044,51.213,129.534
8.2164,128.191605,37.924709,4794.1754256,92.217,51.197,129.852
8.2331,128.19163,37.924703,4796.7537288,92.39,51.18,130.169
8.2498,128.191655,37.924697,4799.3317272,92.563,51.163,130.486
8.2665,128.191679,37.924691,4801.909420800001,92.736,51.145,130.803
8.2831,128.191704,37.924684,4804.4865048,92.909,51.127,131.12
8.2998,128.191728,37.924678,4807.063284,93.081,51.107,131.436
8.3166,128.191752,37.924672,4809.6394536,93.253,51.088,131.752
8.3333,128.191777,37.924665,4812.2153184,93.424,51.067,132.067
8.35,128.191801,37.924659,4814.7905736,93.595,51.046,132.382
8.3667,128.191825,37.924652,4817.365524,93.766,51.025,132.697
8.3834,128.191849,37.924645,4819.939560000001,93.937,51.002,133.011
8.4001,128.191873,37.924638,4822.5132912,94.107,50.98,133.325
8.4168,128.191897,37.924632,4825.0864128,94.277,50.956,133.639
8.4335,128.191921,37.924625,4827.6589248,94.447,50.932,133.952
8.4502,128.191945,37.924617,4830.2305224,94.616,50.907,134.265
8.4668,128.191968,37.92461,4832.8018152,94.785,50.882,134.578
8.4835,128.191992,37.924603,4835.3721936,94.953,50.856,134.89
8.5003,128.192016,37.924595,4837.9419624,95.121,50.83,135.201
8.517,128.192039,37.924588,4840.510816800001,95.289,50.803,135.513
8.5337,128.192062,37.92458,4843.0790616,95.456,50.775,135.823
8.5504,128.192086,37.924573,4845.646392000001,95.623,50.747,136.134
8.5671,128.192109,37.924565,4848.2131128,95.789,50.718,136.444
8.5838,128.192132,37.924557,4850.778919200001,95.955,50.689,136.753
8.6005,128.192155,37.924549,4853.3438112,96.121,50.659,137.062
8.6172,128.192179,37.924541,4855.9077888,96.286,50.628,137.371
8.6339,128.192202,37.924533,4858.470852,96.451,50.597,137.679
8.6505,128.192224,37.924525,4861.0330008,96.615,50.565,137.987
8.6672,128.192247,37.924516,4863.5942352,96.779,50.533,138.294
8.684,128.19227,37.924508,4866.154555200001,96.942,50.5,138.601
8.7007,128.192293,37.9245,4868.7139608,97.105,50.466,138.907
8.7174,128.192315,37.924491,4871.2721472,97.268,50.432,139.213
8.7341,128.192338,37.924482,4873.8291144,97.43,50.398,139.518
8.7508,128.19236,37.924474,4876.385472,97.591,50.362,139.823
8.7675,128.192383,37.924465,4878.9403056,97.752,50.327,140.127
8.7842,128.192405,37.924456,4881.4942248,97.912,50.29,140.431
8.8009,128.192427,37.924447,4884.0472296,98.072,50.254,140.734
8.8176,128.192449,37.924438,4886.5987104,98.232,50.216,141.037
8.8342,128.192472,37.924428,4889.148972,98.39,50.178,141.339
8.8509,128.192494,37.924419,4891.698319200001,98.549,50.14,141.641
8.8676,128.192515,37.92441,4894.2464472,98.707,50.1,141.942
8.8844,128.192537,37.9244,4896.7930512,98.864,50.061,142.243
8.9011,128.192559,37.924391,4899.338436,99.021,50.021,142.543
8.9178,128.192581,37.924381,4901.8829064,99.177,49.98,142.843
8.9345,128.192602,37.924371,4904.425548,99.332,49.939,143.142
8.9512,128.192624,37.924362,4906.967275200001,99.487,49.897,143.441
8.9679,128.192645,37.924352,4909.507478400001,99.642,49.855,143.739
8.9846,128.192667,37.924342,4912.046157600001,99.796,49.812,144.036
9.0013,128.192688,37.924332,4914.5836176,99.949,49.768,144.333
9.0179,128.192709,37.924322,4917.1195536,100.102,49.724,144.629
9.0346,128.19273,37.924311,4919.6539656,100.254,49.68,144.925
9.0513,128.192752,37.924301,4922.1871584,100.406,49.635,145.22
9.0681,128.192772,37.924291,4924.7185224,100.557,49.59,145.515
9.0848,128.192793,37.92428,4927.2486672,100.708,49.544,145.809
9.1015,128.192814,37.92427,4929.7769832,100.858,49.497,146.102
9.1182,128.192835,37.924259,4932.304080000001,101.007,49.45,146.395
9.1349,128.192856,37.924248,4934.829348,101.156,49.402,146.687
9.1516,128.192876,37.924237,4937.353092,101.304,49.354,146.979
9.1683,128.192897,37.924227,4939.875312,101.451,49.306,147.27
9.185,128.192917,37.924216,4942.396008,101.598,49.257,147.561
9.2016,128.192937,37.924205,4944.9148752,101.744,49.207,147.851
9.2183,128.192958,37.924193,4947.4319136,101.89,49.157,148.14
9.235,128.192978,37.924182,4949.947428,102.035,49.107,148.429
9.2518,128.192998,37.924171,4952.4611136,102.179,49.056,148.717
9.2685,128.193018,37.92416,4954.9732752,102.323,49.004,149.005
9.2852,128.193038,37.924148,4957.483608,102.466,48.952,149.292
9.3019,128.193058,37.924137,4959.9918072,102.609,48.9,149.578
9.3186,128.193077,37.924125,4962.4984824,102.751,48.847,149.864
9.3353,128.193097,37.924113,4965.0033288,102.892,48.794,150.149
9.352,128.193117,37.924102,4967.5063464,103.032,48.74,150.433
9.3687,128.193136,37.92409,4970.0075352,103.172,48.685,150.717
9.3854,128.193156,37.924078,4972.5068952,103.312,48.631,151.001
9.402,128.193175,37.924066,4975.0041216,103.45,48.575,151.283
9.4187,128.193194,37.924054,4977.499519200001,103.588,48.52,151.565
9.4355,128.193213,37.924042,4979.993088,103.725,48.463,151.847
9.4522,128.193232,37.924029,4982.484523200001,103.862,48.407,152.128
9.4689,128.193251,37.924017,4984.9738248,103.998,48.35,152.408
9.4856,128.19327,37.924005,4987.4612976,104.133,48.292,152.687
9.5023,128.193289,37.923992,4989.9469416,104.268,48.234,152.966
9.519,128.193308,37.92398,4992.4304520000005,104.402,48.176,153.245
9.5357,128.193326,37.923967,4994.911524000001,104.536,48.117,153.522
9.5524,128.193345,37.923954,4997.391072,104.668,48.057,153.799
9.5691,128.193363,37.923942,4999.8681816,104.8,47.998,154.076
9.5857,128.193382,37.923929,5002.3431576,104.932,47.938,154.352
9.6024,128.1934,37.923916,5004.816,105.062,47.877,154.627
9.6192,128.193418,37.923903,5007.2867088,105.192,47.816,154.901
9.6359,128.193436,37.92389,5009.755284000001,105.321,47.754,155.175
9.6526,128.193455,37.923877,5012.221725599999,105.45,47.693,155.449
9.6693,128.193472,37.923864,5014.685728800001,105.578,47.63,155.721
9.686,128.19349,37.92385,5017.1475984,105.705,47.568,155.993
9.7027,128.193508,37.923837,5019.6073344,105.832,47.504,156.265
9.7194,128.193526,37.923824,5022.0646320000005,105.958,47.441,156.535
9.7361,128.193543,37.92381,5024.5197960000005,106.083,47.377,156.806
9.7528,128.193561,37.923797,5026.9725216,106.207,47.313,157.075
9.7694,128.193578,37.923783,5029.4231136,106.331,47.248,157.344
9.7861,128.193596,37.923769,5031.8709624,106.454,47.183,157.612
9.8029,128.193613,37.923755,5034.316677600001,106.576,47.117,157.88
9.8196,128.19363,37.923742,5036.7602592,106.698,47.051,158.147
9.8363,128.193647,37.923728,5039.201097600001,106.819,46.985,158.413
9.853,128.193664,37.923714,5041.639497600001,106.939,46.918,158.679
9.8697,128.193681,37.9237,5044.0754592,107.059,46.851,158.944
9.8864,128.193698,37.923686,5046.5092872000005,107.178,46.784,159.208
9.9031,128.193714,37.923671,5048.940372,107.296,46.716,159.472
9.9198,128.193731,37.923657,5051.369018400001,107.414,46.648,159.735
9.9365,128.193748,37.923643,5053.7949216,107.53,46.579,159.998
9.9531,128.193764,37.923628,5056.218691200001,107.646,46.51,160.26
9.9698,128.19378,37.923614,5058.6397176,107.762,46.441,160.521
9.9865,128.193797,37.923599,5061.058000800001,107.876,46.371,160.782
10.0033,128.193813,37.923585,5063.4741504,107.99,46.301,161.042
10.02,128.193829,37.92357,5065.887252,108.104,46.231,161.301
10.0367,128.193845,37.923555,5068.297915200001,108.216,46.16,161.56
10.0534,128.193861,37.923541,5070.7058352,108.328,46.089,161.818
10.0701,128.193877,37.923526,5073.1113168,108.439,46.017,162.075
10.0868,128.193892,37.923511,5075.5140552,108.55,45.945,162.332
10.1035,128.193908,37.923496,5077.914050400001,108.659,45.873,162.589
10.1202,128.193923,37.923481,5080.3113023999995,108.768,45.801,162.844
10.1368,128.193939,37.923466,5082.706115999999,108.877,45.728,163.099
10.1535,128.193954,37.92345,5085.097881600001,108.984,45.655,163.354
10.1702,128.19397,37.923435,5087.486904,109.091,45.581,163.608
10.187,128.193985,37.92342,5089.8731832,109.197,45.507,163.861
10.2037,128.194,37.923405,5092.256719200001,109.303,45.433,164.113
10.2204,128.194015,37.923389,5094.637512,109.407,45.359,164.365
10.2371,128.19403,37.923374,5097.0155616,109.511,45.284,164.616
10.2538,128.194044,37.923358,5099.3905632000005,109.615,45.209,164.867
10.2705,128.194059,37.923342,5101.7628216,109.717,45.133,165.117
10.2872,128.194074,37.923327,5104.132032,109.819,45.057,165.367
10.3039,128.194088,37.923311,5106.4984992,109.92,44.981,165.616
10.3205,128.194103,37.923295,5108.862223200001,110.021,44.905,165.864
10.3372,128.194117,37.923279,5111.2228992,110.12,44.828,166.112
10.3539,128.194131,37.923263,5113.580527200001,110.22,44.751,166.359
10.3707,128.194145,37.923247,5115.935412,110.318,44.673,166.605
10.3874,128.194159,37.923231,5118.2869439999995,110.415,44.596,166.851
10.4041,128.194173,37.923215,5120.6357328,110.512,44.518,167.096
10.4208,128.194187,37.923199,5122.981778400001,110.609,44.44,167.341
10.4375,128.194201,37.923183,5125.3244712,110.704,44.361,167.585
10.4542,128.194215,37.923166,5127.6644208,110.799,44.282,167.828
10.4709,128.194228,37.92315,5130.0010176000005,110.893,44.203,168.071
10.4876,128.194242,37.923134,5132.3345664,110.986,44.123,168.313
10.5042,128.194255,37.923117,5134.665372,111.079,44.044,168.555
10.5209,128.194268,37.923101,5136.992824800001,111.171,43.964,168.796
10.5376,128.194282,37.923084,5139.317229599999,111.263,43.883,169.037
10.5544,128.194295,37.923067,5141.6385864,111.353,43.803,169.277
10.5711,128.194308,37.923051,5143.9565904,111.444,43.722,169.516
10.5878,128.194321,37.923034,5146.2715464,111.533,43.641,169.755
10.6045,128.194334,37.923017,5148.5834544,111.622,43.559,169.994
10.6212,128.194346,37.923,5150.8920096,111.711,43.477,170.232
10.6379,128.194359,37.922983,5153.1975168,111.798,43.395,170.469
10.6546,128.194371,37.922966,5155.4996712,111.885,43.313,170.706
10.6713,128.194384,37.922949,5157.7987776,111.972,43.231,170.943
10.6879,128.194396,37.922932,5160.0945312,112.058,43.148,171.179
10.7046,128.194409,37.922915,5162.386932,112.143,43.065,171.414
10.7213,128.194421,37.922898,5164.6762848,112.228,42.981,171.649
10.7381,128.194433,37.922881,5166.9622848,112.312,42.898,171.884
10.7548,128.194445,37.922863,5169.2449320000005,112.396,42.814,172.118
10.7715,128.194457,37.922846,5171.5242264,112.479,42.729,172.351
10.7882,128.194468,37.922828,5173.8004728000005,112.561,42.645,172.584
10.8049,128.19448,37.922811,5176.0730616,112.643,42.56,172.816
10.8216,128.194492,37.922793,5178.342297600001,112.724,42.475,173.048
10.8383,128.194503,37.922776,5180.6084856,112.804,42.39,173.28
10.855,128.194515,37.922758,5182.871016,112.884,42.304,173.511
10.8717,128.194526,37.922741,5185.1301936,112.964,42.219,173.741
10.8883,128.194537,37.922723,5187.3860184000005,113.042,42.133,173.971
10.905,128.194548,37.922705,5189.6381856,113.121,42.046,174.201
10.9218,128.194559,37.922687,5191.887000000001,113.198,41.96,174.43
10.9385,128.19457,37.922669,5194.1324616,113.275,41.873,174.658
10.9552,128.194581,37.922651,5196.374570400001,113.351,41.786,174.886
10.9719,128.194592,37.922633,5198.6130216,113.427,41.699,175.114
10.9886,128.194602,37.922615,5200.848120000001,113.502,41.612,175.341
11.0053,128.194613,37.922597,5203.079560800001,113.576,41.524,175.567
11.022,128.194623,37.922579,5205.3076488,113.65,41.436,175.793
11.0387,128.194634,37.922561,5207.532079200001,113.723,41.348,176.019
11.0554,128.194644,37.922543,5209.7528520000005,113.796,41.26,176.244
11.072,128.194654,37.922524,5211.9702720000005,113.868,41.171,176.468
11.0887,128.194664,37.922506,5214.1840344,113.939,41.082,176.692
11.1054,128.194674,37.922488,5216.3941392,114.01,40.993,176.916
11.1222,128.194684,37.922469,5218.6005864,114.08,40.904,177.139
11.1389,128.194693,37.922451,5220.8036808,114.15,40.815,177.362
11.1556,128.194703,37.922432,5223.0031176,114.218,40.725,177.584
11.1723,128.194713,37.922414,5225.198592000001,114.287,40.635,177.806
11.189,128.194722,37.922395,5227.390713600001,114.354,40.545,178.027
11.2057,128.194732,37.922376,5229.579177600001,114.421,40.455,178.248
11.2224,128.194741,37.922358,5231.7636792,114.487,40.364,178.468
11.2391,128.19475,37.922339,5233.944828000001,114.553,40.274,178.688
11.2557,128.194759,37.92232,5236.122014400001,114.618,40.183,178.907
11.2724,128.194768,37.922301,5238.2955432,114.683,40.092,179.126
11.2891,128.194777,37.922282,5240.465414400001,114.747,40.001,179.344
11.3059,128.194786,37.922263,5242.631628,114.81,39.909,179.562
11.3226,128.194794,37.922244,5244.7938792,114.872,39.818,179.779
11.3393,128.194803,37.922225,5246.952472800001,114.934,39.726,179.996
11.356,128.194811,37.922206,5249.107104,114.996,39.634,180.213
11.3727,128.19482,37.922187,5251.2583824,115.056,39.542,180.429
11.3894,128.194828,37.922168,5253.4053936,115.116,39.449,180.645
11.4061,128.194836,37.922149,5255.5487472,115.176,39.357,180.86
11.4228,128.194844,37.92213,5257.6884432,115.234,39.264,181.075
11.4394,128.194852,37.92211,5259.8241768,115.293,39.171,181.289
11.4561,128.19486,37.922091,5261.955948,115.35,39.078,181.503
11.4728,128.194868,37.922072,5264.0840616,115.407,38.985,181.716
11.4896,128.194876,37.922052,5266.207908,115.463,38.892,181.929
11.5063,128.194883,37.922033,5268.328401600001,115.519,38.798,182.141
11.523,128.194891,37.922013,5270.444628,115.574,38.705,182.353
11.5397,128.194898,37.921994,5272.5568920000005,115.628,38.611,182.565
11.5564,128.194905,37.921974,5274.6654984,115.682,38.517,182.776
11.5731,128.194913,37.921955,5276.770142400001,115.735,38.423,182.987
11.5898,128.19492,37.921935,5278.8708240000005,115.787,38.328,183.197
11.6065,128.194927,37.921915,5280.9672384000005,115.839,38.234,183.407
11.6231,128.194934,37.921896,5283.0599952,115.89,38.139,183.616
11.6398,128.19494,37.921876,5285.1487896,115.941,38.044,183.825
11.6565,128.194947,37.921856,5287.2336216,115.991,37.949,184.034
11.6733,128.194954,37.921836,5289.3141864,116.04,37.854,184.242
11.69,128.19496,37.921816,5291.390788799999,116.089,37.759,184.45
11.7067,128.194967,37.921796,5293.4637336000005,116.137,37.664,184.657
11.7234,128.194973,37.921776,5295.532411200001,116.185,37.568,184.864
11.7401,128.194979,37.921756,5297.5968216,116.232,37.473,185.071
11.7568,128.194985,37.921736,5299.657574400001,116.278,37.377,185.277
11.7735,128.194991,37.921716,5301.71406,116.324,37.281,185.483
11.7902,128.194997,37.921696,5303.7662784,116.369,37.185,185.688
11.8068,128.195003,37.921676,5305.8145343999995,116.413,37.089,185.893
11.8235,128.195009,37.921656,5307.858828,116.457,36.993,186.097
11.8402,128.195014,37.921636,5309.8991592,116.5,36.896,186.302
11.857,128.19502,37.921615,5311.9349184,116.543,36.8,186.505
11.8737,128.195025,37.921595,5313.967020000001,116.585,36.703,186.709
11.8904,128.195031,37.921575,5315.9945496,116.626,36.607,186.912
11.9071,128.195036,37.921555,5318.0181168,116.667,36.51,187.114
11.9238,128.195041,37.921534,5320.0377216,116.707,36.413,187.316
11.9405,128.195046,37.921514,5322.052754400001,116.746,36.316,187.518
11.9572,128.195051,37.921493,5324.064129599999,116.785,36.219,187.719
11.9739,128.195056,37.921473,5326.0709328,116.823,36.121,187.92
11.9905,128.19506,37.921452,5328.0734688,116.861,36.024,188.121
12.0072,128.195065,37.921432,5330.072042400001,116.898,35.926,188.321
12.0239,128.195069,37.921411,5332.0663488,116.935,35.829,188.521
12.0407,128.195074,37.921391,5334.056388000001,116.971,35.731,188.721
12.0574,128.195078,37.92137,5336.042160000001,117.006,35.633,188.92
12.0741,128.195082,37.921349,5338.023664800001,117.041,35.535,189.119
12.0908,128.195087,37.921329,5340.0012072,117.075,35.437,189.317
12.1075,128.195091,37.921308,5341.9741776,117.108,35.339,189.515
12.1242,128.195094,37.921287,5343.9428808,117.141,35.241,189.713
12.1409,128.195098,37.921266,5345.9073167999995,117.174,35.143,189.91
12.1576,128.195102,37.921245,5347.8674856,117.205,35.044,190.108
12.1743,128.195106,37.921225,5349.8233872,117.236,34.946,190.304
12.1909,128.195109,37.921204,5351.7750216,117.267,34.847,190.501
12.2076,128.195113,37.921183,5353.7223888,117.297,34.749,190.697
12.2243,128.195116,37.921162,5355.665184,117.326,34.65,190.892
12.2411,128.195119,37.921141,5357.603712,117.355,34.551,191.087
12.2578,128.195122,37.92112,5359.537972800001,117.384,34.452,191.282
12.2745,128.195125,37.921099,5361.4679664,117.411,34.353,191.477
12.2912,128.195128,37.921078,5363.393388,117.438,34.254,191.671
12.3079,128.195131,37.921057,5365.3148472,117.465,34.155,191.865
12.3246,128.195134,37.921036,5367.2314295999995,117.491,34.056,192.059
12.3413,128.195136,37.921015,5369.1437448,117.516,33.957,192.252
12.358,128.195139,37.920993,5371.051792800001,117.541,33.857,192.445
12.3746,128.195141,37.920972,5372.9555736,117.565,33.758,192.638
12.3913,128.195144,37.920951,5374.854782400001,117.589,33.658,192.83
12.408,128.195146,37.92093,5376.7494192,117.612,33.559,193.022
12.4248,128.195148,37.920909,5378.6397888,117.635,33.459,193.214
12.4415,128.19515,37.920887,5380.5255864,117.657,33.36,193.405
12.4582,128.195152,37.920866,5382.4071168,117.678,33.26,193.596
12.4749,128.195154,37.920845,5384.2840752,117.699,33.16,193.787
12.4916,128.195155,37.920823,5386.1567663999995,117.719,33.06,193.978
12.5083,128.195157,37.920802,5388.0245808,117.739,32.961,194.168
12.525,128.195159,37.92078,5389.8884328,117.758,32.861,194.358
12.5417,128.19516,37.920759,5391.747408,117.777,32.761,194.547
12.5583,128.195161,37.920738,5393.602116,117.795,32.661,194.737
12.575,128.195163,37.920716,5395.452252000001,117.813,32.561,194.926
12.5917,128.195164,37.920695,5397.297815999999,117.83,32.461,195.114
12.6085,128.195165,37.920673,5399.138808,117.846,32.36,195.303
12.6252,128.195166,37.920652,5400.9755328,117.862,32.26,195.491
12.6419,128.195166,37.92063,5402.8073808,117.877,32.16,195.679
12.6586,128.195167,37.920608,5404.6349616,117.892,32.06,195.866
12.6753,128.195168,37.920587,5406.457970400001,117.906,31.959,196.053
12.692,128.195168,37.920565,5408.2764072,117.92,31.859,196.24
12.7087,128.195169,37.920544,5410.090272,117.933,31.759,196.427
12.7254,128.195169,37.920522,5411.899564800001,117.946,31.658,196.614
12.742,128.195169,37.9205,5413.7042856,117.958,31.558,196.8
12.7587,128.195169,37.920478,5415.5044344,117.97,31.457,196.986
12.7754,128.19517,37.920457,5417.300011200001,117.981,31.357,197.171
12.7922,128.195169,37.920435,5419.091015999999,117.991,31.256,197.357
12.8089,128.195169,37.920413,5420.8774488,118.001,31.156,197.542
12.8256,128.195169,37.920391,5422.659004800001,118.011,31.055,197.727
12.8423,128.195169,37.92037,5424.4362936,118.02,30.954,197.911
12.859,128.195168,37.920348,5426.208705600001,118.028,30.854,198.095
12.8757,128.195168,37.920326,5427.9768504,118.036,30.753,198.28
12.8924,128.195167,37.920304,5429.7401184,118.043,30.652,198.463
12.9091,128.195166,37.920282,5431.498814400001,118.05,30.552,198.647
12.9257,128.195165,37.92026,5433.252633600001,118.056,30.451,198.83
12.9424,128.195164,37.920238,5435.0021856,118.062,30.35,199.013
12.9591,128.195163,37.920217,5436.746860800001,118.067,30.25,199.196
12.9759,128.195162,37.920195,5438.486964000001,118.072,30.149,199.379
12.9926,128.195161,37.920173,5440.2221904,118.076,30.048,199.561
13.0093,128.19516,37.920151,5441.9528448,118.08,29.947,199.743
13.026,128.195158,37.920129,5443.6789272000005,118.083,29.847,199.925
13.0427,128.195157,37.920107,5445.4004376,118.086,29.746,200.107
13.0594,128.195155,37.920085,5447.1170712,118.088,29.645,200.288
13.0761,128.195153,37.920063,5448.828828000001,118.09,29.544,200.47
13.0928,128.195151,37.920041,5450.5363176,118.091,29.444,200.651
13.1095,128.195149,37.920019,5452.2389304,118.092,29.343,200.831
13.1262,128.195147,37.919997,5453.9366664,118.092,29.242,201.012
13.1429,128.195145,37.919974,5455.6298304,118.092,29.141,201.192
13.1596,128.195143,37.919952,5457.3181176,118.091,29.041,201.372
13.1763,128.19514,37.91993,5459.001832800001,118.089,28.94,201.552
13.193,128.195138,37.919908,5460.6806712,118.087,28.839,201.732
13.2097,128.195135,37.919886,5462.354937600001,118.085,28.739,201.911
13.2264,128.195133,37.919864,5464.024632000001,118.082,28.638,202.09
13.2431,128.19513,37.919842,5465.6891448,118.079,28.537,202.269
13.2598,128.195127,37.91982,5467.3490856,118.075,28.437,202.448
13.2765,128.195124,37.919797,5469.0044544,118.07,28.336,202.627
13.2932,128.195121,37.919775,5470.654946400001,118.065,28.235,202.805
13.3099,128.195118,37.919753,5472.3005616,118.06,28.135,202.984
13.3266,128.195115,37.919731,5473.9413,118.054,28.034,203.162
13.3433,128.195112,37.919709,5475.5774664,118.048,27.934,203.339
13.36,128.195108,37.919686,5477.208756000001,118.041,27.833,203.517
13.3767,128.195105,37.919664,5478.8354736,118.033,27.732,203.695
13.3934,128.195101,37.919642,5480.4573144000005,118.025,27.632,203.872
13.4101,128.195097,37.91962,5482.0742784,118.017,27.531,204.049
13.4268,128.195093,37.919597,5483.6863656000005,118.008,27.431,204.226
13.4435,128.195089,37.919575,5485.2938808,117.999,27.331,204.402
13.4602,128.195085,37.919553,5486.896214400001,117.989,27.23,204.579
13.4769,128.195081,37.91953,5488.493976,117.978,27.13,204.755
13.4936,128.195077,37.919508,5490.087165600001,117.968,27.03,204.931
13.5103,128.195073,37.919486,5491.675173600001,117.956,26.929,205.107
13.527,128.195068,37.919464,5493.2586096,117.944,26.829,205.283
13.5437,128.195064,37.919441,5494.836864000001,117.932,26.729,205.459
13.5604,128.195059,37.919419,5496.4105464,117.919,26.629,205.634
13.5771,128.195055,37.919397,5497.979352000001,117.906,26.529,205.809
13.5938,128.19505,37.919374,5499.5432808,117.892,26.429,205.985
13.6105,128.195045,37.919352,5501.102637600001,117.878,26.329,206.159
13.6272,128.19504,37.91933,5502.6568128,117.863,26.229,206.334
13.6439,128.195035,37.919307,5504.206111200001,117.848,26.129,206.509
13.6606,128.19503,37.919285,5505.7508376000005,117.832,26.029,206.683
13.6773,128.195024,37.919262,5507.2903824,117.816,25.929,206.858
13.694,128.195019,37.91924,5508.825355200001,117.799,25.829,207.032
13.7107,128.195013,37.919218,5510.355451200001,117.782,25.729,207.206
13.7274,128.195008,37.919195,5511.880670400001,117.765,25.63,207.38
13.7441,128.195002,37.919173,5513.400708,117.747,25.53,207.553
13.7608,128.194996,37.919151,5514.916173600001,117.728,25.431,207.727
13.7775,128.19499,37.919128,5516.4267624,117.709,25.331,207.9
13.7942,128.194984,37.919106,5517.9324744000005,117.69,25.232,208.073
13.8109,128.194978,37.919083,5519.4330048,117.67,25.132,208.246
13.8276,128.194972,37.919061,5520.9289632,117.649,25.033,208.419
13.8443,128.194966,37.919039,5522.4200448,117.628,24.934,208.592
13.861,128.19496,37.919016,5523.906249600001,117.607,24.835,208.765
13.8777,128.194953,37.918994,5525.387272800001,117.585,24.735,208.937
13.8944,128.194947,37.918972,5526.863724000001,117.563,24.636,209.11
13.9111,128.19494,37.918949,5528.3349935999995,117.54,24.537,209.282
13.9278,128.194933,37.918927,5529.8016912,117.517,24.438,209.454
13.9445,128.194926,37.918904,5531.2632072,117.493,24.34,209.626
13.9612,128.194919,37.918882,5532.7198464,117.469,24.241,209.798
13.9779,128.194912,37.91886,5534.1716088,117.444,24.142,209.97
13.9946,128.194905,37.918837,5535.6184944,117.419,24.044,210.141
14.0113,128.194898,37.918815,5537.0605032,117.393,23.945,210.313
14.028,128.194891,37.918792,5538.4976352,117.367,23.847,210.484
14.0447,128.194883,37.91877,5539.9298904,117.341,23.748,210.655
14.0614,128.194876,37.918748,5541.3569640000005,117.314,23.65,210.826
14.0781,128.194868,37.918725,5542.779465600001,117.286,23.552,210.997
14.0948,128.19486,37.918703,5544.1967856,117.258,23.454,211.168
14.1115,128.194853,37.91868,5545.609228800001,117.23,23.355,211.339
14.1282,128.194845,37.918658,5547.0167952,117.201,23.258,211.509
14.1449,128.194837,37.918636,5548.4194848,117.172,23.16,211.68
14.1616,128.194829,37.918613,5549.8172976000005,117.142,23.062,211.85
14.1783,128.19482,37.918591,5551.209928800001,117.112,22.964,212.021
14.195,128.194812,37.918569,5552.597683200001,117.082,22.867,212.191
14.2117,128.194804,37.918546,5553.980560800001,117.051,22.769,212.361
14.2284,128.194795,37.918524,5555.3585616,117.019,22.672,212.531
14.2451,128.194787,37.918501,5556.7316856,116.987,22.574,212.701
14.2618,128.194778,37.918479,5558.099932800001,116.955,22.477,212.87
14.2785,128.194769,37.918457,5559.4629984,116.922,22.38,213.04
14.2952,128.194761,37.918434,5560.8211872,116.888,22.283,213.21
14.3119,128.194752,37.918412,5562.1744992,116.855,22.186,213.379
14.3286,128.194743,37.91839,5563.5229344,116.821,22.089,213.548
14.3453,128.194733,37.918367,5564.866188000001,116.786,21.993,213.718
14.362,128.194724,37.918345,5566.204869600001,116.751,21.896,213.887
14.3787,128.194715,37.918323,5567.538369600001,116.715,21.8,214.056
14.3954,128.194705,37.918301,5568.866992800001,116.679,21.703,214.225
14.4121,128.194696,37.918278,5570.1904343999995,116.643,21.607,214.394
14.4288,128.194686,37.918256,5571.509304,116.606,21.511,214.563
14.4455,128.194677,37.918234,5572.822992,116.569,21.415,214.731
14.4622,128.194667,37.918211,5574.1318032,116.531,21.319,214.9
14.4789,128.194657,37.918189,5575.435737600001,116.493,21.223,215.068
14.4956,128.194647,37.918167,5576.7344904,116.454,21.127,215.237
14.5123,128.194637,37.918145,5578.0283664,116.415,21.032,215.405
14.529,128.194627,37.918122,5579.317365600001,116.375,20.936,215.574
14.5457,128.194616,37.9181,5580.601488,116.335,20.841,215.742
14.5624,128.194606,37.918078,5581.880733600001,116.295,20.746,215.91
14.5791,128.194596,37.918056,5583.154797600001,116.254,20.651,216.078
14.5958,128.194585,37.918034,5584.4239848,116.213,20.556,216.246
14.6125,128.194574,37.918011,5585.6882952000005,116.171,20.461,216.414
14.6292,128.194564,37.917989,5586.947728800001,116.129,20.366,216.582
14.6459,128.194553,37.917967,5588.2019808000005,116.086,20.271,216.749
14.6626,128.194542,37.917945,5589.4513560000005,116.043,20.177,216.917
14.6793,128.194531,37.917923,5590.6958544,116.0,20.083,217.085
14.696,128.19452,37.917901,5591.935476,115.956,19.988,217.252
14.7127,128.194509,37.917878,5593.1702208,115.912,19.894,217.42
14.7294,128.194497,37.917856,5594.399784000001,115.867,19.8,217.587
14.7461,128.194486,37.917834,5595.624470400001,115.822,19.706,217.754
14.7628,128.194475,37.917812,5596.84428,115.776,19.613,217.922
14.7795,128.194463,37.91779,5598.058908,115.73,19.519,218.089
14.7962,128.194451,37.917768,5599.268964000001,115.684,19.426,218.256
14.8129,128.19444,37.917746,5600.473838400001,115.637,19.333,218.423
14.8296,128.194428,37.917724,5601.673836,115.59,19.24,218.59
14.8463,128.194416,37.917702,5602.868956800001,115.542,19.147,218.757
14.863,128.194404,37.91768,5604.0588960000005,115.494,19.054,218.924
14.8797,128.194392,37.917658,5605.2439584,115.445,18.961,219.091
14.8964,128.19438,37.917636,5606.4244488,115.396,18.869,219.258
14.9131,128.194367,37.917614,5607.5994528,115.347,18.776,219.425
14.9298,128.194355,37.917592,5608.7698848,115.297,18.684,219.591
14.9465,128.194342,37.91757,5609.93544,115.247,18.592,219.758
14.9632,128.19433,37.917548,5611.0958136,115.196,18.5,219.925
14.9799,128.194317,37.917526,5612.251310400001,115.145,18.408,220.091
14.9966,128.194304,37.917504,5613.4019304,115.093,18.316,220.258
15.0133,128.194292,37.917483,5614.5476736,115.042,18.225,220.424
15.03,128.194279,37.917461,5615.68854,114.989,18.134,220.591
15.0467,128.194266,37.917439,5616.824224800001,114.936,18.043,220.757
15.0634,128.194252,37.917417,5617.9553376,114.883,17.952,220.923
15.0801,128.194239,37.917395,5619.0812688000005,114.83,17.861,221.09
15.0968,128.194226,37.917373,5620.2023232,114.776,17.77,221.256
15.1135,128.194213,37.917352,5621.3185008,114.721,17.68,221.422
15.1302,128.194199,37.91733,5622.4298016,114.666,17.589,221.588
15.1469,128.194186,37.917308,5623.5362256,114.611,17.499,221.754
15.1636,128.194172,37.917287,5624.637468,114.556,17.409,221.921
15.1803,128.194158,37.917265,5625.734138400001,114.499,17.319,222.087
15.197,128.194144,37.917243,5626.8256272,114.443,17.229,222.253
15.2137,128.19413,37.917222,5627.9122392,114.386,17.14,222.419
15.2304,128.194116,37.9172,5628.994279200001,114.329,17.051,222.585
15.2471,128.194102,37.917178,5630.071137600001,114.271,16.961,222.75
15.2638,128.194088,37.917157,5631.143119200001,114.213,16.872,222.916
15.2805,128.194074,37.917135,5632.210224,114.155,16.784,223.082
15.2972,128.194059,37.917114,5633.272452000001,114.096,16.695,223.248
15.3139,128.194045,37.917092,5634.3298032,114.036,16.606,223.414
15.3306,128.19403,37.917071,5635.382277600001,113.977,16.518,223.58
15.3473,128.194016,37.917049,5636.429570400001,113.917,16.43,223.745
15.364,128.194001,37.917028,5637.472291200001,113.856,16.342,223.911
15.3807,128.193986,37.917006,5638.5101352,113.795,16.254,224.077
15.3974,128.193971,37.916985,5639.5431024,113.734,16.167,224.242
15.4141,128.193956,37.916963,5640.571192800001,113.672,16.079,224.408
15.4308,128.193941,37.916942,5641.594101600001,113.61,15.992,224.574
15.4475,128.193926,37.916921,5642.6124384,113.548,15.905,224.739
15.4642,128.193911,37.916899,5643.6258984,113.485,15.818,224.905
15.4809,128.193896,37.916878,5644.6344816,113.421,15.732,225.07
15.4976,128.19388,37.916857,5645.638188000001,113.358,15.645,225.236
15.5143,128.193865,37.916835,5646.6370176,113.294,15.559,225.401
15.531,128.193849,37.916814,5647.631275199999,113.229,15.473,225.567
