Time,Longitude,Latitude,Altitude,Roll (deg),Pitch (deg),Yaw (deg)
0.0,128.181881,37.923466,7000.0816056,0.0,-0.003,179.999
0.0167,128.181881,37.923421,7000.0630128,0.0,-0.012,180.0
0.0334,128.181881,37.923376,7000.042896000001,0.087,-0.013,180.011
0.0501,128.181881,37.923331,7000.02156,0.258,0.007,180.034
0.0668,128.181881,37.923286,6999.9987,0.516,0.062,180.064
0.0834,128.181881,37.923241,6999.976449600001,0.69,0.164,180.076
0.1002,128.181881,37.923196,6999.9551136,0.783,0.326,180.067
0.1169,128.181881,37.923151,6999.935606400001,0.789,0.554,180.045
0.1336,128.181881,37.923106,6999.9188424,0.702,0.856,180.017
0.1503,128.181881,37.923061,6999.905736000001,0.518,1.234,179.985
0.1669,128.181881,37.923016,6999.896896800001,0.238,1.675,179.951
0.1837,128.181881,37.922971,6999.8932392,-0.134,2.167,179.916
0.2004,128.181881,37.922926,6999.893544,-0.424,2.696,179.904
0.2171,128.181881,37.922882,6999.8987256,-0.633,3.246,179.912
0.2338,128.181881,37.922837,6999.908784000001,-0.751,3.799,179.933
0.2505,128.181881,37.922792,6999.9234144,-0.772,4.338,179.962
0.2672,128.181881,37.922747,6999.9432264,-0.694,4.846,179.994
0.2839,128.181881,37.922702,6999.967915200001,-0.518,5.321,180.027
0.3006,128.181881,37.922656,6999.9999192000005,-0.417,5.764,180.038
0.3172,128.181881,37.922611,7000.039238400001,-0.39,6.178,180.028
0.3339,128.181881,37.922566,7000.086482400001,-0.444,6.564,180.003
0.3507,128.181881,37.922521,7000.142870400001,-0.584,6.927,179.97
0.3674,128.181881,37.922476,7000.2084024,-0.812,7.267,179.932
0.3841,128.181881,37.922431,7000.283992800001,-1.128,7.588,179.891
0.4008,128.181881,37.922386,7000.370251200001,-1.529,7.89,179.85
0.4175,128.181881,37.922341,7000.4677872,-2.012,8.176,179.807
0.4342,128.181881,37.922296,7000.577210400001,-2.574,8.448,179.762
0.4509,128.181881,37.922251,7000.6985208,-3.212,8.706,179.716
0.4676,128.181881,37.922206,7000.8326328,-3.924,8.954,179.668
0.4843,128.181881,37.922162,7000.978632,-4.705,9.191,179.617
0.501,128.181881,37.922117,7001.1374328,-5.555,9.418,179.564
0.5176,128.181881,37.922072,7001.3087304,-6.469,9.638,179.508
0.5344,128.181881,37.922027,7001.492524800001,-7.447,9.85,179.448
0.5511,128.181881,37.921982,7001.688816,-8.486,10.055,179.384
0.5678,128.181881,37.921937,7001.897908800001,-9.584,10.254,179.317
0.5845,128.181881,37.921892,7002.1198032,-10.74,10.447,179.245
0.6012,128.181881,37.921847,7002.3541944,-11.952,10.635,179.168
0.6179,128.181882,37.921802,7002.6010824,-13.219,10.818,179.087
0.6345,128.181882,37.921758,7002.8604672,-14.54,10.996,179.0
0.6513,128.181882,37.921713,7003.1326536,-15.913,11.17,178.908
0.6679,128.181883,37.921668,7003.417032,-17.337,11.339,178.811
0.6847,128.181883,37.921623,7003.7136024,-18.812,11.505,178.707
0.7014,128.181883,37.921579,7004.022669600001,-20.336,11.666,178.598
0.7181,128.181884,37.921534,7004.343624000001,-21.909,11.823,178.482
0.7348,128.181884,37.921489,7004.676770400001,-23.531,11.976,178.359
0.7514,128.181885,37.921444,7005.02028,-25.186,12.126,178.231
0.7682,128.181886,37.9214,7005.3747624,-26.845,12.273,178.098
0.7848,128.181886,37.921355,7005.7389984,-28.48,12.417,177.962
0.8016,128.181887,37.92131,7006.112988000001,-30.067,12.56,177.824
0.8183,128.181888,37.921266,7006.4961216,-31.587,12.701,177.683
0.835,128.181889,37.921221,7006.8877896,-33.026,12.84,177.539
0.8517,128.18189,37.921177,7007.287687200001,-34.374,12.978,177.393
0.8684,128.181891,37.921132,7007.6952048,-35.624,13.112,177.242
0.8851,128.181892,37.921087,7008.1103424,-36.776,13.244,177.088
0.9018,128.181894,37.921043,7008.5321856,-37.83,13.372,176.929
0.9185,128.181895,37.920998,7008.9607344,-38.79,13.496,176.767
0.9352,128.181896,37.920954,7009.395684000001,-39.663,13.616,176.6
0.9519,128.181898,37.920909,7009.8367296,-40.456,13.732,176.431
0.9686,128.181899,37.920865,7010.2832616,-41.175,13.843,176.259
0.9853,128.181901,37.92082,7010.73528,-41.829,13.95,176.085
1.002,128.181902,37.920776,7011.1930896,-42.426,14.052,175.908
1.0187,128.181904,37.920731,7011.6566904,-42.972,14.149,175.731
1.0353,128.181906,37.920686,7012.126387200001,-43.476,14.242,175.554
1.0521,128.181908,37.920642,7012.6018752,-43.945,14.332,175.378
1.0688,128.181909,37.920597,7013.0834592,-44.385,14.42,175.204
1.0855,128.181911,37.920553,7013.5711392,-44.799,14.505,175.032
1.1022,128.181914,37.920508,7014.0649152000005,-45.191,14.588,174.862
1.1189,128.181916,37.920464,7014.565092000001,-45.564,14.668,174.694
1.1356,128.181918,37.92042,7015.07106,-45.92,14.747,174.528
1.1522,128.18192,37.920375,7015.583124000001,-46.261,14.823,174.364
1.169,128.181923,37.920331,7016.1015888,-46.587,14.897,174.201
1.1857,128.181925,37.920286,7016.626149600001,-46.901,14.969,174.04
1.2024,128.181928,37.920242,7017.157111200001,-47.202,15.039,173.88
1.2191,128.181931,37.920197,7017.693864000001,-47.493,15.107,173.72
1.2358,128.181933,37.920153,7018.2370176,-47.774,15.173,173.562
1.2525,128.181936,37.920109,7018.7859624,-48.045,15.237,173.404
1.2691,128.181939,37.920064,7019.341308,-48.308,15.3,173.247
1.2859,128.181942,37.92002,7019.9027496,-48.564,15.361,173.09
1.3026,128.181945,37.919976,7020.470287200001,-48.813,15.42,172.934
1.3193,128.181949,37.919931,7021.0439208,-49.055,15.478,172.779
1.3359,128.181952,37.919887,7021.6233456,-49.291,15.535,172.624
1.3527,128.181956,37.919843,7022.2091712,-49.522,15.59,172.47
1.3694,128.181959,37.919799,7022.8007880000005,-49.748,15.645,172.316
1.386,128.181963,37.919754,7023.398196,-49.968,15.699,172.163
1.4028,128.181966,37.91971,7024.001700000001,-50.185,15.751,172.01
1.4195,128.18197,37.919666,7024.6113000000005,-50.397,15.803,171.857
1.4362,128.181974,37.919622,7025.2266912000005,-50.605,15.854,171.705
1.4528,128.181978,37.919578,7025.847873600001,-50.809,15.904,171.554
1.4696,128.181982,37.919533,7026.474847200001,-51.01,15.954,171.403
1.4863,128.181987,37.919489,7027.1079168,-51.207,16.003,171.252
1.5029,128.181991,37.919445,7027.7464728,-51.401,16.051,171.101
1.5197,128.181995,37.919401,7028.3908200000005,-51.592,16.098,170.951
1.5364,128.182,37.919357,7029.041263200001,-51.779,16.146,170.801
1.5531,128.182005,37.919313,7029.697192800001,-51.964,16.192,170.651
1.5697,128.182009,37.919269,7030.3586088,-52.146,16.238,170.501
1.5865,128.182014,37.919225,7031.025815999999,-52.325,16.284,170.352
1.6032,128.182019,37.919181,7031.698814400001,-52.502,16.329,170.203
1.6198,128.182024,37.919137,7032.3772992,-52.676,16.374,170.055
1.6366,128.182029,37.919093,7033.061575199999,-52.848,16.419,169.906
1.6533,128.182035,37.919049,7033.751032800001,-53.017,16.463,169.758
1.67,128.18204,37.919005,7034.4462816000005,-53.184,16.506,169.609
1.6867,128.182045,37.918961,7035.1470168,-53.349,16.55,169.461
1.7034,128.182051,37.918917,7035.853238400001,-53.511,16.593,169.314
1.7201,128.182057,37.918873,7036.564946400001,-53.672,16.636,169.166
1.7368,128.182062,37.918829,7037.2821408,-53.83,16.678,169.018
1.7535,128.182068,37.918786,7038.0045168,-53.986,16.721,168.871
1.7702,128.182074,37.918742,7038.732379200001,-54.141,16.763,168.724
1.7869,128.18208,37.918698,7039.465728,-54.293,16.804,168.577
1.8036,128.182086,37.918654,7040.2042584,-54.444,16.846,168.43
1.8203,128.182093,37.918611,7040.948275199999,-54.593,16.887,168.283
1.837,128.182099,37.918567,7041.6974736,-54.74,16.928,168.136
1.8537,128.182106,37.918523,7042.4518536000005,-54.886,16.969,167.989
1.8704,128.182112,37.91848,7043.2114152,-55.03,17.01,167.843
1.8871,128.182119,37.918436,7043.976463200001,-55.172,17.05,167.696
1.9038,128.182126,37.918392,7044.7463880000005,-55.313,17.091,167.55
1.9205,128.182133,37.918349,7045.5217992,-55.452,17.131,167.404
1.9372,128.18214,37.918305,7046.302087200001,-55.59,17.171,167.257
1.9539,128.182147,37.918262,7047.0878616,-55.727,17.211,167.111
1.9706,128.182154,37.918218,7047.8785128,-55.862,17.25,166.965
1.9873,128.182162,37.918175,7048.6740408000005,-55.996,17.29,166.819
2.004,128.182169,37.918131,7049.4750552000005,-56.128,17.329,166.673
2.0207,128.182177,37.918088,7050.2806416,-56.259,17.368,166.527
2.0374,128.182184,37.918044,7051.091409600001,-56.389,17.407,166.381
2.0541,128.182192,37.918001,7051.9073592,-56.518,17.446,166.235
2.0707,128.1822,37.917957,7052.7281856,-56.645,17.485,166.09
2.0875,128.182208,37.917914,7053.5538888,-56.771,17.524,165.944
2.1042,128.182216,37.917871,7054.384468800001,-56.896,17.562,165.798
2.1208,128.182224,37.917828,7055.2199256,-57.02,17.601,165.652
2.1376,128.182233,37.917784,7056.060564,-57.143,17.639,165.507
2.1543,128.182241,37.917741,7056.905774400001,-57.265,17.677,165.361
2.171,128.18225,37.917698,7057.7558616,-57.386,17.715,165.216
2.1877,128.182258,37.917655,7058.6108256,-57.506,17.753,165.07
2.2044,128.182267,37.917611,7059.4706664,-57.625,17.791,164.924
2.2211,128.182276,37.917568,7060.335079200001,-57.743,17.829,164.779
2.2378,128.182285,37.917525,7061.2043688,-57.86,17.867,164.633
2.2544,128.182294,37.917482,7062.0782304,-57.976,17.904,164.488
2.2712,128.182303,37.917439,7062.9569688,-58.092,17.942,164.342
2.2879,128.182313,37.917396,7063.8405840000005,-58.206,17.979,164.197
2.3045,128.182322,37.917353,7064.7284664,-58.32,18.016,164.051
2.3213,128.182332,37.91731,7065.6212256,-58.433,18.053,163.906
2.338,128.182341,37.917267,7066.518556800001,-58.545,18.091,163.76
2.3546,128.182351,37.917224,7067.42046,-58.656,18.128,163.615
2.3714,128.182361,37.917182,7068.3269352,-58.767,18.164,163.469
2.3881,128.182371,37.917139,7069.238287200001,-58.877,18.201,163.323
2.4048,128.182381,37.917096,7070.153906400001,-58.986,18.238,163.178
2.4215,128.182391,37.917053,7071.074097600001,-59.094,18.275,163.032
2.4382,128.182402,37.91701,7071.9985560000005,-59.202,18.311,162.887
2.4549,128.182412,37.916968,7072.9278912,-59.309,18.348,162.741
2.4716,128.182423,37.916925,7073.8614936,-59.415,18.384,162.595
2.4882,128.182433,37.916882,7074.799668000001,-59.521,18.42,162.45
2.505,128.182444,37.91684,7075.742109600001,-59.626,18.456,162.304
2.5217,128.182455,37.916797,7076.689123200001,-59.731,18.493,162.158
2.5383,128.182466,37.916755,7077.640404000001,-59.835,18.529,162.012
2.5551,128.182477,37.916712,7078.596256800001,-59.938,18.564,161.867
2.5718,128.182488,37.91667,7079.5563768,-60.041,18.6,161.721
2.5884,128.1825,37.916627,7080.520764000001,-60.143,18.636,161.575
2.6052,128.182511,37.916585,7081.4894184,-60.244,18.672,161.429
2.6219,128.182523,37.916542,7082.46234,-60.345,18.707,161.283
2.6386,128.182534,37.9165,7083.4398336,-60.446,18.743,161.137
2.6553,128.182546,37.916458,7084.4212896,-60.546,18.778,160.991
2.6719,128.182558,37.916415,7085.4073176,-60.645,18.814,160.845
2.6887,128.18257,37.916373,7086.3973080000005,-60.744,18.849,160.699
2.7054,128.182582,37.916331,7087.391565600001,-60.843,18.884,160.553
2.722,128.182594,37.916289,7088.3900904,-60.941,18.919,160.407
2.7388,128.182607,37.916247,7089.392577600001,-61.038,18.954,160.26
2.7555,128.182619,37.916205,7090.399332,-61.136,18.989,160.114
2.7721,128.182632,37.916162,7091.4103536,-61.232,19.024,159.968
2.7889,128.182644,37.91612,7092.425337600001,-61.328,19.059,159.821
2.8056,128.182657,37.916078,7093.444284000001,-61.424,19.093,159.675
2.8222,128.18267,37.916036,7094.467497600001,-61.52,19.128,159.529
2.839,128.182683,37.915995,7095.494978400001,-61.615,19.162,159.382
2.8557,128.182696,37.915953,7096.5261168,-61.709,19.197,159.235
2.8724,128.182709,37.915911,7097.5615224,-61.804,19.231,159.089
2.8891,128.182723,37.915869,7098.6008904,-61.897,19.265,158.942
2.9057,128.182736,37.915827,7099.6442208,-61.991,19.299,158.795
2.9225,128.18275,37.915785,7100.691513600001,-62.084,19.333,158.648
2.9392,128.182763,37.915744,7101.742768800001,-62.177,19.367,158.501
2.9558,128.182777,37.915702,7102.797986400001,-62.269,19.401,158.354
2.9726,128.182791,37.91566,7103.8571664,-62.361,19.435,158.207
2.9893,128.182805,37.915619,7104.9203088,-62.453,19.469,158.06
3.0059,128.182819,37.915577,7105.9871088,-62.544,19.502,157.913
3.0227,128.182834,37.915536,7107.0581760000005,-62.635,19.536,157.766
3.0394,128.182848,37.915494,7108.132596,-62.726,19.569,157.619
3.056,128.182862,37.915453,7109.2112832,-62.816,19.602,157.471
3.0728,128.182877,37.915411,7110.293628,-62.906,19.636,157.324
3.0895,128.182892,37.91537,7111.3796304,-62.996,19.669,157.176
3.1062,128.182907,37.915329,7112.4695952,-63.085,19.702,157.029
3.1229,128.182922,37.915288,7113.5632176,-63.174,19.735,156.881
3.1395,128.182937,37.915246,7114.6608024,-63.263,19.767,156.733
3.1563,128.182952,37.915205,7115.7620448,-63.352,19.8,156.586
3.173,128.182967,37.915164,7116.8669448,-63.44,19.833,156.438
3.1896,128.182982,37.915123,7117.9755024,-63.528,19.865,156.29
3.2064,128.182998,37.915082,7119.0877176,-63.616,19.898,156.142
3.2231,128.183013,37.915041,7120.2038952,-63.703,19.93,155.994
3.2397,128.183029,37.915,7121.3234256,-63.79,19.962,155.846
3.2565,128.183045,37.914959,7122.4466136,-63.877,19.994,155.697
3.2732,128.183061,37.914918,7123.573764000001,-63.964,20.026,155.549
3.2899,128.183077,37.914877,7124.7042672,-64.05,20.058,155.401
3.3066,128.183093,37.914836,7125.8381232,-64.136,20.09,155.252
3.3233,128.183109,37.914796,7126.975941600001,-64.222,20.122,155.104
3.34,128.183126,37.914755,7128.1171128000005,-64.308,20.153,154.955
3.3567,128.183142,37.914714,7129.261941600001,-64.393,20.185,154.806
3.3734,128.183159,37.914673,7130.4101232,-64.479,20.216,154.657
3.3901,128.183176,37.914633,7131.5619624,-64.564,20.248,154.509
3.4068,128.183193,37.914592,7132.7174592,-64.648,20.279,154.36
3.4235,128.183209,37.914552,7133.876004000001,-64.733,20.31,154.211
3.4402,128.183227,37.914511,7135.038511200001,-64.817,20.341,154.061
3.4569,128.183244,37.914471,7136.2040664,-64.901,20.372,153.912
3.4736,128.183261,37.914431,7137.373279200001,-64.985,20.402,153.763
3.4903,128.183278,37.91439,7138.5458448,-65.069,20.433,153.614
3.507,128.183296,37.91435,7139.7217632,-65.153,20.463,153.464
3.5237,128.183314,37.91431,7140.9010344,-65.236,20.494,153.315
3.5404,128.183331,37.91427,7142.0836584,-65.319,20.524,153.165
3.5571,128.183349,37.914229,7143.2696352,-65.403,20.554,153.015
3.5738,128.183367,37.914189,7144.459269600001,-65.485,20.584,152.866
3.5905,128.183385,37.914149,7145.651952000001,-65.568,20.614,152.716
3.6072,128.183403,37.914109,7146.847987200001,-65.651,20.644,152.566
3.6239,128.183422,37.914069,7148.047070400001,-65.733,20.674,152.416
3.6406,128.18344,37.914029,7149.249811200001,-65.815,20.703,152.266
3.6573,128.183459,37.913989,7150.4556,-65.897,20.733,152.115
3.674,128.183477,37.91395,7151.6647416000005,-65.979,20.762,151.965
3.6907,128.183496,37.91391,7152.8769312,-66.061,20.792,151.815
3.7074,128.183515,37.91387,7154.092473600001,-66.142,20.821,151.664
3.7241,128.183534,37.91383,7155.3113688,-66.224,20.85,151.514
3.7408,128.183553,37.913791,7156.533312,-66.305,20.879,151.363
3.7575,128.183572,37.913751,7157.7583032,-66.386,20.907,151.212
3.7742,128.183591,37.913712,7158.9863424000005,-66.467,20.936,151.061
3.7909,128.183611,37.913672,7160.2177344,-66.548,20.965,150.91
3.8076,128.18363,37.913633,7161.452479200001,-66.629,20.993,150.759
3.8243,128.18365,37.913594,7162.6899672,-66.709,21.021,150.608
3.841,128.18367,37.913554,7163.930808,-66.789,21.049,150.457
3.8577,128.18369,37.913515,7165.174392000001,-66.87,21.077,150.306
3.8744,128.18371,37.913476,7166.421328800001,-66.95,21.105,150.154
3.8911,128.18373,37.913437,7167.671313600001,-67.03,21.133,150.003
3.9078,128.18375,37.913397,7168.9240416,-67.11,21.161,149.851
3.9245,128.18377,37.913358,7170.1801224,-67.189,21.188,149.7
3.9412,128.183791,37.913319,7171.4389464000005,-67.269,21.216,149.548
3.9579,128.183811,37.91328,7172.700818400001,-67.348,21.243,149.396
3.9746,128.183832,37.913241,7173.965738400001,-67.428,21.27,149.244
3.9913,128.183853,37.913203,7175.233706400001,-67.507,21.297,149.092
4.008,128.183873,37.913164,7176.5044176,-67.586,21.324,148.94
4.0247,128.183894,37.913125,7177.7781768,-67.665,21.351,148.788
4.0414,128.183915,37.913086,7179.054984000001,-67.744,21.377,148.636
4.058,128.183937,37.913048,7180.3345344,-67.823,21.404,148.483
4.0748,128.183958,37.913009,7181.616828,-67.902,21.43,148.331
4.0915,128.183979,37.91297,7182.902169600001,-67.98,21.457,148.178
4.1082,128.184001,37.912932,7184.1902544,-68.059,21.483,148.026
4.1249,128.184023,37.912893,7185.4813872,-68.137,21.509,147.873
4.1415,128.184044,37.912855,7186.7752632,-68.215,21.534,147.72
4.1583,128.184066,37.912817,7188.0718824000005,-68.293,21.56,147.567
4.175,128.184088,37.912778,7189.371244800001,-68.371,21.586,147.414
4.1917,128.18411,37.91274,7190.6733504,-68.449,21.611,147.261
4.2084,128.184132,37.912702,7191.978504000001,-68.527,21.636,147.108
4.2251,128.184155,37.912664,7193.286096000001,-68.605,21.662,146.955
4.2417,128.184177,37.912626,7194.596736,-68.683,21.687,146.801
4.2585,128.1842,37.912588,7195.909814400001,-68.76,21.712,146.648
4.2752,128.184222,37.91255,7197.225636,-68.838,21.736,146.494
4.2919,128.184245,37.912512,7198.544505600001,-68.915,21.761,146.341
4.3086,128.184268,37.912474,7199.8658136,-68.993,21.785,146.187
4.3252,128.184291,37.912436,7201.189560000001,-69.07,21.81,146.033
4.342,128.184314,37.912399,7202.516354400001,-69.147,21.834,145.879
4.3587,128.184337,37.912361,7203.8455872,-69.224,21.858,145.725
4.3754,128.18436,37.912323,7205.1772584,-69.301,21.882,145.571
4.3921,128.184383,37.912286,7206.5119776,-69.378,21.906,145.417
4.4088,128.184407,37.912248,7207.8488304,-69.455,21.929,145.263
4.4254,128.184431,37.912211,7209.1887312,-69.531,21.953,145.108
4.4422,128.184454,37.912174,7210.5307656,-69.608,21.976,144.954
4.4589,128.184478,37.912136,7211.8755432,-69.685,21.999,144.799
4.4756,128.184502,37.912099,7213.223064000001,-69.761,22.022,144.645
4.4923,128.184526,37.912062,7214.572718400001,-69.838,22.045,144.49
4.5089,128.18455,37.912025,7215.925115999999,-69.914,22.068,144.335
4.5256,128.184574,37.911988,7217.279952000001,-69.99,22.091,144.18
4.5424,128.184599,37.91195,7218.6372264,-70.067,22.113,144.025
4.5591,128.184623,37.911914,7219.997244,-70.143,22.136,143.87
4.5758,128.184648,37.911877,7221.3593952,-70.219,22.158,143.715
4.5925,128.184672,37.91184,7222.7239848,-70.295,22.18,143.56
4.6091,128.184697,37.911803,7224.0913176,-70.371,22.202,143.405
4.6259,128.184722,37.911766,7225.460784000001,-70.447,22.223,143.249
4.6426,128.184747,37.91173,7226.8326888,-70.522,22.245,143.094
4.6593,128.184772,37.911693,7228.207032,-70.598,22.267,142.938
4.676,128.184797,37.911656,7229.5838136,-70.674,22.288,142.782
4.6927,128.184823,37.91162,7230.962728800001,-70.749,22.309,142.627
4.7093,128.184848,37.911583,7232.344082400001,-70.825,22.33,142.471
4.7261,128.184874,37.911547,7233.7278744000005,-70.9,22.351,142.315
4.7428,128.184899,37.911511,7235.1138,-70.976,22.372,142.159
4.7595,128.184925,37.911475,7236.502164,-71.051,22.392,142.003
4.7762,128.184951,37.911438,7237.8926616,-71.126,22.413,141.847
4.7928,128.184977,37.911402,7239.285597600001,-71.202,22.433,141.69
4.8096,128.185003,37.911366,7240.6806672,-71.277,22.453,141.534
4.8263,128.185029,37.91133,7242.0781752,-71.352,22.473,141.377
4.843,128.185055,37.911294,7243.4778168,-71.427,22.493,141.221
4.8597,128.185082,37.911258,7244.879592,-71.502,22.513,141.064
4.8764,128.185108,37.911223,7246.2835008,-71.577,22.532,140.908
4.893,128.185135,37.911187,7247.689848,-71.652,22.551,140.751
4.9098,128.185161,37.911151,7249.098328800001,-71.726,22.571,140.594
4.9265,128.185188,37.911116,7250.508638400001,-71.801,22.59,140.437
4.9432,128.185215,37.91108,7251.9213864,-71.876,22.609,140.28
4.9599,128.185242,37.911045,7253.336268,-71.95,22.627,140.123
4.9765,128.185269,37.911009,7254.753283200001,-72.025,22.646,139.965
4.9932,128.185296,37.910974,7256.172432,-72.099,22.664,139.808
5.01,128.185324,37.910938,7257.5934096,-72.174,22.683,139.651
5.0267,128.185351,37.910903,7259.0165208,-72.248,22.701,139.493
5.0434,128.185379,37.910868,7260.442070400001,-72.323,22.719,139.336
5.0601,128.185406,37.910833,7261.869144,-72.397,22.737,139.178
5.0767,128.185434,37.910798,7263.298656000001,-72.471,22.754,139.02
5.0935,128.185462,37.910763,7264.729996800001,-72.546,22.772,138.862
5.1102,128.18549,37.910728,7266.1634712,-72.62,22.789,138.705
5.1269,128.185518,37.910693,7267.5987744,-72.694,22.806,138.547
5.1436,128.185546,37.910658,7269.036211200001,-72.768,22.823,138.388
5.1602,128.185574,37.910624,7270.4754768,-72.842,22.84,138.23
5.1769,128.185602,37.910589,7271.916876,-72.916,22.857,138.072
5.1937,128.185631,37.910555,7273.360104,-72.99,22.874,137.914
5.2104,128.185659,37.91052,7274.8051608000005,-73.064,22.89,137.755
5.2271,128.185688,37.910486,7276.252046400001,-73.137,22.906,137.596
5.2438,128.185717,37.910451,7277.701065600001,-73.211,22.923,137.438
5.2604,128.185746,37.910417,7279.151913600001,-73.285,22.939,137.279
5.2772,128.185775,37.910383,7280.6045904,-73.358,22.954,137.12
5.2939,128.185804,37.910349,7282.059096000001,-73.432,22.97,136.961
5.3106,128.185833,37.910315,7283.5154304,-73.506,22.986,136.802
5.3273,128.185862,37.91028,7284.9735936,-73.579,23.001,136.643
5.3439,128.185891,37.910247,7286.4335856,-73.653,23.016,136.484
5.3606,128.185921,37.910213,7287.895406400001,-73.726,23.031,136.325
5.3774,128.18595,37.910179,7289.359056000001,-73.799,23.046,136.165
5.3941,128.18598,37.910145,7290.8242296,-73.873,23.061,136.006
5.4108,128.18601,37.910111,7292.2915368,-73.946,23.075,135.846
5.4275,128.18604,37.910078,7293.7600632,-74.019,23.09,135.687
5.4441,128.18607,37.910044,7295.2307232,-74.092,23.104,135.527
5.4609,128.1861,37.910011,7296.7029072,-74.166,23.118,135.367
5.4776,128.18613,37.909977,7298.176920000001,-74.239,23.132,135.207
5.4943,128.18616,37.909944,7299.6527616,-74.312,23.146,135.047
5.511,128.186191,37.909911,7301.1298224,-74.385,23.159,134.887
5.5277,128.186221,37.909878,7302.6090168,-74.458,23.173,134.727
5.5443,128.186252,37.909845,7304.0894304,-74.531,23.186,134.567
5.5611,128.186282,37.909812,7305.571672800001,-74.604,23.199,134.406
5.5778,128.186313,37.909779,7307.055744,-74.677,23.212,134.246
5.5945,128.186344,37.909746,7308.5410344,-74.749,23.225,134.085
5.6112,128.186375,37.909713,7310.0281536,-74.822,23.238,133.925
5.6278,128.186406,37.90968,7311.5167968000005,-74.895,23.25,133.764
5.6445,128.186437,37.909647,7313.006964,-74.967,23.262,133.603
5.6613,128.186468,37.909615,7314.498655200001,-75.04,23.274,133.442
5.678,128.1865,37.909582,7315.991870400001,-75.113,23.286,133.281
5.6947,128.186531,37.90955,7317.4866096000005,-75.185,23.298,133.12
5.7114,128.186562,37.909518,7318.9828728,-75.258,23.31,132.959
5.728,128.186594,37.909485,7320.48066,-75.33,23.322,132.798
5.7448,128.186626,37.909453,7321.9799712,-75.403,23.333,132.637
5.7615,128.186658,37.909421,7323.480806400001,-75.475,23.344,132.475
5.7782,128.18669,37.909389,7324.982860800001,-75.547,23.355,132.314
5.7949,128.186722,37.909357,7326.4864392,-75.619,23.366,132.152
5.8115,128.186754,37.909325,7327.9915416,-75.692,23.377,131.991
5.8282,128.186786,37.909293,7329.4978632,-75.764,23.387,131.829
5.845,128.186818,37.909261,7331.0057088,-75.836,23.398,131.667
5.8617,128.186851,37.909229,7332.515078400001,-75.908,23.408,131.505
5.8784,128.186883,37.909198,7334.0253624,-75.98,23.418,131.343
5.8951,128.186916,37.909166,7335.5374752,-76.052,23.428,131.181
5.9117,128.186948,37.909135,7337.0508072,-76.124,23.437,131.019
5.9285,128.186981,37.909103,7338.5653584,-76.196,23.447,130.857
5.9452,128.187014,37.909072,7340.0811288,-76.267,23.456,130.695
5.9619,128.187047,37.909041,7341.5984232,-76.339,23.466,130.532
5.9786,128.18708,37.90901,7343.1169368,-76.411,23.475,130.37
5.9952,128.187113,37.908979,7344.6366696000005,-76.483,23.483,130.208
6.0119,128.187146,37.908948,7346.1576216,-76.554,23.492,130.045
6.0287,128.18718,37.908917,7347.6797928000005,-76.626,23.501,129.882
6.0454,128.187213,37.908886,7349.203488000001,-76.697,23.509,129.72
6.0621,128.187247,37.908855,7350.728097600001,-76.769,23.517,129.557
6.0788,128.18728,37.908824,7352.2539264,-76.84,23.525,129.394
6.0954,128.187314,37.908794,7353.780974400001,-76.912,23.533,129.231
6.1121,128.187348,37.908763,7355.309241600001,-76.983,23.541,129.068
6.1289,128.187382,37.908733,7356.838728000001,-77.054,23.549,128.905
6.1456,128.187416,37.908702,7358.369433600001,-77.126,23.556,128.741
6.1623,128.18745,37.908672,7359.9010536000005,-77.197,23.563,128.578
6.179,128.187484,37.908642,7361.433892800001,-77.268,23.57,128.415
6.1956,128.187518,37.908611,7362.9679512,-77.339,23.577,128.251
6.2124,128.187553,37.908581,7364.502924,-77.41,23.584,128.088
6.2291,128.187587,37.908551,7366.039116,-77.481,23.591,127.924
6.2458,128.187622,37.908521,7367.5762224,-77.552,23.597,127.761
6.2625,128.187656,37.908492,7369.114548,-77.623,23.603,127.597
6.2791,128.187691,37.908462,7370.6537880000005,-77.694,23.609,127.433
6.2958,128.187726,37.908432,7372.194247200001,-77.765,23.615,127.269
6.3126,128.187761,37.908403,7373.7356208,-77.835,23.621,127.105
6.3293,128.187796,37.908373,7375.277908800001,-77.906,23.626,126.941
6.346,128.187831,37.908344,7376.821111200001,-77.977,23.632,126.777
6.3627,128.187866,37.908314,7378.3655328,-78.047,23.637,126.612
6.3793,128.187901,37.908285,7379.910868800001,-78.118,23.642,126.448
6.3961,128.187937,37.908256,7381.4571192,-78.189,23.647,126.283
6.4128,128.187972,37.908227,7383.004284000001,-78.259,23.652,126.119
6.4295,128.188008,37.908198,7384.5523632,-78.329,23.657,125.954
6.4462,128.188043,37.908169,7386.101356800001,-78.4,23.661,125.789
6.4628,128.188079,37.90814,7387.651264800001,-78.47,23.666,125.623
6.4795,128.188115,37.908111,7389.2017824,-78.54,23.67,125.458
6.4963,128.18815,37.908082,7390.7535192000005,-78.61,23.674,125.293
6.513,128.188186,37.908054,7392.306170400001,-78.68,23.678,125.127
6.5297,128.188222,37.908025,7393.8594312000005,-78.75,23.681,124.962
6.5464,128.188259,37.907997,7395.4136064,-78.82,23.685,124.796
6.5631,128.188295,37.907968,7396.9683912,-78.89,23.688,124.63
6.5798,128.188331,37.90794,7398.5243952,-78.959,23.692,124.464
6.5965,128.188368,37.907912,7400.080704,-79.029,23.695,124.298
6.6132,128.188404,37.907884,7401.638232,-79.098,23.698,124.131
6.6299,128.188441,37.907856,7403.196369600001,-79.168,23.7,123.965
6.6466,128.188477,37.907828,7404.7551168,-79.237,23.703,123.798
6.6633,128.188514,37.9078,7406.3147784,-79.306,23.706,123.632
6.68,128.188551,37.907772,7407.8750496,-79.375,23.708,123.465
6.6967,128.188588,37.907745,7409.4359304,-79.444,23.71,123.298
6.7134,128.188625,37.907717,7410.9977256,-79.513,23.712,123.131
6.7301,128.188662,37.907689,7412.5601304,-79.582,23.714,122.964
6.7468,128.188699,37.907662,7414.1231448,-79.65,23.716,122.797
6.7635,128.188736,37.907635,7415.687073600001,-79.719,23.717,122.629
6.7802,128.188774,37.907607,7417.2513072,-79.787,23.718,122.462
6.7969,128.188811,37.90758,7418.816455200001,-79.856,23.72,122.294
6.8136,128.188848,37.907553,7420.381908,-79.924,23.721,122.127
6.8303,128.188886,37.907526,7421.948275199999,-79.992,23.722,121.959
6.847,128.188924,37.907499,7423.515252000001,-80.06,23.722,121.791
6.8637,128.188961,37.907472,7425.082533600001,-80.128,23.723,121.623
6.8804,128.188999,37.907446,7426.650424800001,-80.196,23.723,121.455
6.8971,128.189037,37.907419,7428.2189256,-80.264,23.723,121.287
6.9138,128.189075,37.907392,7429.788036,-80.332,23.724,121.118
6.9305,128.189113,37.907366,7431.357756,-80.399,23.723,120.95
6.9472,128.189151,37.907339,7432.9277808,-80.467,23.723,120.781
6.9639,128.18919,37.907313,7434.4987200000005,-80.534,23.723,120.613
6.9806,128.189228,37.907287,7436.0696592,-80.601,23.722,120.444
6.9973,128.189266,37.907261,7437.641208,-80.669,23.722,120.275
7.014,128.189305,37.907235,7439.2133664,-80.736,23.721,120.106
7.0307,128.189343,37.907209,7440.7861344,-80.803,23.72,119.937
7.0474,128.189382,37.907183,7442.3589024,-80.87,23.719,119.768
7.0641,128.189421,37.907157,7443.93228,-80.936,23.717,119.599
7.0808,128.189459,37.907132,7445.5062672,-81.003,23.716,119.43
7.0975,128.189498,37.907106,7447.080559200001,-81.07,23.714,119.26
7.1142,128.189537,37.90708,7448.655156000001,-81.136,23.712,119.091
7.1309,128.189576,37.907055,7450.2300576,-81.203,23.71,118.921
7.1476,128.189615,37.90703,7451.8055688,-81.269,23.708,118.752
7.1643,128.189655,37.907004,7453.38108,-81.335,23.706,118.582
7.181,128.189694,37.906979,7454.9572008000005,-81.402,23.703,118.412
7.1977,128.189733,37.906954,7456.5336264,-81.468,23.701,118.242
7.2144,128.189773,37.906929,7458.110356800001,-81.534,23.698,118.072
7.2311,128.189812,37.906904,7459.687392000001,-81.6,23.695,117.902
7.2478,128.189852,37.90688,7461.264732000001,-81.666,23.692,117.731
7.2645,128.189891,37.906855,7462.8423768,-81.731,23.689,117.561
7.2812,128.189931,37.90683,7464.4203264,-81.797,23.685,117.39
7.2979,128.189971,37.906806,7465.998276,-81.863,23.682,117.22
7.3146,128.190011,37.906781,7467.5768352000005,-81.928,23.678,117.049
7.3313,128.190051,37.906757,7469.1553944,-81.993,23.674,116.879
7.348,128.190091,37.906733,7470.7342584,-82.059,23.67,116.708
7.3647,128.190131,37.906709,7472.3131224,-82.124,23.666,116.537
7.3814,128.190171,37.906685,7473.892291200001,-82.189,23.661,116.366
7.3981,128.190211,37.906661,7475.4717648000005,-82.254,23.657,116.195
7.4148,128.190252,37.906637,7477.051238400001,-82.319,23.652,116.023
7.4315,128.190292,37.906613,7478.6310168,-82.384,23.647,115.852
7.4482,128.190333,37.906589,7480.210795200001,-82.449,23.642,115.681
7.4649,128.190373,37.906566,7481.790878400001,-82.514,23.637,115.509
7.4816,128.190414,37.906542,7483.3709616,-82.578,23.632,115.337
7.4983,128.190454,37.906519,7484.9510448,-82.643,23.626,115.166
7.515,128.190495,37.906496,7486.5314328,-82.707,23.621,114.994
7.5317,128.190536,37.906473,7488.1118208,-82.772,23.615,114.822
7.5484,128.190577,37.906449,7489.6922088,-82.836,23.609,114.65
7.5651,128.190618,37.906426,7491.2725968,-82.9,23.603,114.478
7.5818,128.190659,37.906403,7492.8532896,-82.964,23.597,114.306
7.5985,128.1907,37.906381,7494.433982400001,-83.029,23.59,114.134
7.6152,128.190741,37.906358,7496.014370400001,-83.092,23.584,113.961
7.6319,128.190783,37.906335,7497.5950632,-83.156,23.577,113.789
7.6486,128.190824,37.906313,7499.175756000001,-83.22,23.57,113.616
7.6653,128.190865,37.90629,7500.756144,-83.284,23.563,113.444
7.682,128.190907,37.906268,7502.3368368,-83.348,23.556,113.271
7.6987,128.190948,37.906246,7503.9172248,-83.411,23.548,113.098
7.7154,128.19099,37.906224,7505.497917600001,-83.475,23.541,112.925
7.7321,128.191032,37.906201,7507.078305600001,-83.538,23.533,112.752
7.7488,128.191073,37.90618,7508.6583888,-83.601,23.525,112.579
7.7655,128.191115,37.906158,7510.2387768,-83.665,23.517,112.406
7.7822,128.191157,37.906136,7511.81886,-83.728,23.509,112.233
7.7989,128.191199,37.906114,7513.3989432,-83.791,23.501,112.06
7.8156,128.191241,37.906093,7514.9787216,-83.854,23.492,111.886
7.8323,128.191283,37.906071,7516.5585,-83.917,23.484,111.713
7.849,128.191325,37.90605,7518.137973600001,-83.98,23.475,111.539
7.8657,128.191368,37.906029,7519.717447200001,-84.042,23.466,111.365
7.8824,128.19141,37.906007,7521.296616,-84.105,23.457,111.192
7.8991,128.191452,37.905986,7522.8757848,-84.168,23.447,111.018
7.9158,128.191495,37.905965,7524.4546488000005,-84.23,23.438,110.844
7.9325,128.191537,37.905944,7526.033208,-84.292,23.428,110.67
7.9492,128.19158,37.905924,7527.6117672,-84.355,23.419,110.496
7.9659,128.191622,37.905903,7529.1900216,-84.417,23.409,110.321
7.9826,128.191665,37.905882,7530.7676664,-84.479,23.399,110.147
7.9993,128.191708,37.905862,7532.345616,-84.541,23.388,109.973
8.016,128.191751,37.905841,7533.922956,-84.603,23.378,109.798
8.0327,128.191794,37.905821,7535.4999912,-84.665,23.367,109.623
8.0494,128.191837,37.905801,7537.0767216,-84.727,23.357,109.449
8.0661,128.19188,37.905781,7538.6534520000005,-84.789,23.346,109.274
8.0828,128.191923,37.905761,7540.229572800001,-84.85,23.335,109.099
8.0994,128.191966,37.905741,7541.8053887999995,-84.912,23.324,108.924
8.1161,128.192009,37.905721,7543.3809,-84.973,23.312,108.749
8.1329,128.192052,37.905701,7544.956106400001,-85.034,23.301,108.574
8.1496,128.192096,37.905682,7546.531008,-85.096,23.289,108.399
8.1663,128.192139,37.905662,7548.1053,-85.157,23.277,108.224
8.183,128.192182,37.905643,7549.6792872000005,-85.218,23.265,108.048
8.1997,128.192226,37.905624,7551.252969600001,-85.279,23.253,107.873
8.2164,128.19227,37.905604,7552.826042400001,-85.34,23.241,107.697
8.2331,128.192313,37.905585,7554.398810400001,-85.401,23.228,107.522
8.2498,128.192357,37.905566,7555.971273600001,-85.461,23.216,107.346
8.2665,128.192401,37.905548,7557.5431272000005,-85.522,23.203,107.17
8.2831,128.192444,37.905529,7559.1143712,-85.583,23.19,106.994
8.2998,128.192488,37.90551,7560.685310400001,-85.643,23.177,106.818
8.3166,128.192532,37.905491,7562.2559448,-85.703,23.164,106.642
8.3333,128.192576,37.905473,7563.825664800001,-85.764,23.15,106.466
8.35,128.19262,37.905455,7565.39508,-85.824,23.137,106.29
8.3667,128.192664,37.905436,7566.9641904,-85.884,23.123,106.113
8.3834,128.192709,37.905418,7568.5323864,-85.944,23.109,105.937
8.4001,128.192753,37.9054,7570.1002776000005,-86.004,23.095,105.76
8.4168,128.192797,37.905382,7571.6675592,-86.064,23.081,105.584
8.4335,128.192841,37.905364,7573.2342312,-86.123,23.066,105.407
8.4502,128.192886,37.905346,7574.8002936,-86.183,23.052,105.23
8.4668,128.19293,37.905329,7576.365746400001,-86.242,23.037,105.054
8.4835,128.192975,37.905311,7577.9305896,-86.302,23.022,104.877
8.5003,128.193019,37.905294,7579.494823200001,-86.361,23.007,104.7
8.517,128.193064,37.905276,7581.058447200001,-86.42,22.992,104.524
8.5337,128.193109,37.905259,7582.6214616,-86.479,22.977,104.347
8.5504,128.193153,37.905242,7584.1838664,-86.537,22.962,104.171
8.5671,128.193198,37.905225,7585.7456616,-86.596,22.946,103.994
8.5838,128.193243,37.905208,7587.306542400001,-86.654,22.93,103.818
8.6005,128.193288,37.905191,7588.866813600001,-86.712,22.915,103.641
8.6172,128.193333,37.905175,7590.4264752,-86.77,22.899,103.465
8.6339,128.193378,37.905158,7591.9855272,-86.828,22.882,103.289
8.6505,128.193423,37.905141,7593.5436648,-86.886,22.866,103.112
8.6672,128.193468,37.905125,7595.100888000001,-86.943,22.85,102.936
8.684,128.193513,37.905109,7596.6578064000005,-87.001,22.833,102.76
8.7007,128.193558,37.905093,7598.213505600001,-87.058,22.816,102.584
8.7174,128.193603,37.905076,7599.7689,-87.115,22.799,102.407
8.7341,128.193649,37.90506,7601.3230752,-87.172,22.782,102.231
8.7508,128.193694,37.905045,7602.8766408,-87.228,22.765,102.055
8.7675,128.193739,37.905029,7604.429596800001,-87.285,22.748,101.879
8.7842,128.193785,37.905013,7605.981333600001,-87.341,22.73,101.703
8.8009,128.19383,37.904998,7607.532460800001,-87.398,22.713,101.527
8.8176,128.193876,37.904982,7609.082978400001,-87.454,22.695,101.35
8.8342,128.193921,37.904967,7610.6322768,-87.509,22.677,101.174
8.8509,128.193967,37.904952,7612.1809656000005,-87.565,22.659,100.998
8.8676,128.194013,37.904936,7613.7284352,-87.621,22.641,100.822
8.8844,128.194059,37.904921,7615.2752952,-87.676,22.623,100.646
8.9011,128.194104,37.904906,7616.8212408,-87.731,22.604,100.47
8.9178,128.19415,37.904892,7618.366272,-87.787,22.586,100.294
8.9345,128.194196,37.904877,7619.9103888,-87.841,22.567,100.118
8.9512,128.194242,37.904862,7621.4535912,-87.896,22.548,99.942
8.9679,128.194288,37.904848,7622.995574400001,-87.951,22.529,99.765
8.9846,128.194334,37.904833,7624.536948,-88.006,22.51,99.589
9.0013,128.19438,37.904819,7626.0771024,-88.06,22.491,99.413
9.0179,128.194426,37.904805,7627.6166472,-88.114,22.471,99.237
9.0346,128.194472,37.904791,7629.154668,-88.168,22.452,99.061
9.0513,128.194518,37.904777,7630.692079200001,-88.222,22.432,98.885
9.0681,128.194565,37.904763,7632.228576,-88.276,22.412,98.709
9.0848,128.194611,37.904749,7633.7638536,-88.33,22.392,98.532
9.1015,128.194657,37.904736,7635.297912,-88.384,22.372,98.356
9.1182,128.194704,37.904722,7636.831056000001,-88.437,22.352,98.18
9.1349,128.19475,37.904709,7638.3632856,-88.49,22.331,98.004
9.1516,128.194797,37.904696,7639.894296,-88.544,22.311,97.827
9.1683,128.194843,37.904682,7641.424392000001,-88.597,22.29,97.651
9.185,128.19489,37.904669,7642.953268800001,-88.65,22.269,97.475
9.2016,128.194936,37.904656,7644.4812312,-88.703,22.248,97.299
9.2183,128.194983,37.904643,7646.0079744,-88.755,22.227,97.122
9.235,128.195029,37.904631,7647.5334984,-88.808,22.206,96.946
9.2518,128.195076,37.904618,7649.0578032,-88.861,22.185,96.769
9.2685,128.195123,37.904605,7650.5811936,-88.913,22.163,96.593
9.2852,128.19517,37.904593,7652.1033648,-88.965,22.141,96.417
9.3019,128.195216,37.904581,7653.6243168,-89.018,22.12,96.24
9.3186,128.195263,37.904568,7655.1440496000005,-89.07,22.098,96.064
9.3353,128.19531,37.904556,7656.6625632000005,-89.122,22.076,95.887
9.352,128.195357,37.904544,7658.1801624,-89.173,22.054,95.711
9.3687,128.195404,37.904532,7659.696237600001,-89.225,22.031,95.534
9.3854,128.195451,37.904521,7661.2113984,-89.277,22.009,95.358
9.402,128.195498,37.904509,7662.7250352,-89.328,21.986,95.181
9.4187,128.195545,37.904497,7664.2374528,-89.379,21.963,95.005
9.4355,128.195592,37.904486,7665.748956,-89.43,21.941,94.828
9.4522,128.195639,37.904475,7667.2589352,-89.482,21.918,94.651
9.4689,128.195687,37.904463,7668.7673904,-89.532,21.895,94.475
9.4856,128.195734,37.904452,7670.2749312000005,-89.583,21.871,94.298
9.5023,128.195781,37.904441,7671.780948,-89.634,21.848,94.121
9.519,128.195828,37.90443,7673.286050400001,-89.685,21.824,93.945
9.5357,128.195876,37.90442,7674.789324,-89.735,21.801,93.768
9.5524,128.195923,37.904409,7676.291683200001,-89.785,21.777,93.591
9.5691,128.19597,37.904398,7677.7925184000005,-89.836,21.753,93.414
9.5857,128.196018,37.904388,7679.2918296,-89.886,21.729,93.238
9.6024,128.196065,37.904378,7680.7899216000005,-89.936,21.705,93.061
9.6192,128.196113,37.904367,7682.2867944,-89.986,21.68,92.884
9.6359,128.19616,37.904357,7683.7821432,-90.035,21.656,92.707
9.6526,128.196208,37.904347,7685.275968,-90.085,21.631,92.53
9.6693,128.196255,37.904337,7686.7685736,-90.134,21.606,92.353
9.686,128.196303,37.904328,7688.25996,-90.184,21.582,92.176
9.7027,128.196351,37.904318,7689.7495176,-90.233,21.557,91.999
9.7194,128.196398,37.904308,7691.237856000001,-90.282,21.531,91.822
9.7361,128.196446,37.904299,7692.724670400001,-90.331,21.506,91.645
9.7528,128.196494,37.90429,7694.209960800001,-90.38,21.481,91.468
9.7694,128.196542,37.90428,7695.694032,-90.429,21.455,91.291
9.7861,128.196589,37.904271,7697.176579200001,-90.477,21.429,91.114
9.8029,128.196637,37.904262,7698.657297600001,-90.526,21.404,90.937
9.8196,128.196685,37.904253,7700.1367968,-90.574,21.378,90.76
9.8363,128.196733,37.904245,7701.614772,-90.623,21.352,90.583
9.853,128.196781,37.904236,7703.0912232,-90.671,21.325,90.406
9.8697,128.196829,37.904227,7704.566150400001,-90.719,21.299,90.229
9.8864,128.196877,37.904219,7706.0395536000005,-90.766,21.273,90.051
9.9031,128.196925,37.904211,7707.511128000001,-90.814,21.246,89.874
9.9198,128.196973,37.904202,7708.981483200001,-90.862,21.219,89.697
9.9365,128.197021,37.904194,7710.450314400001,-90.909,21.192,89.52
9.9531,128.197069,37.904186,7711.9173168,-90.957,21.165,89.342
9.9698,128.197117,37.904178,7713.3827952,-91.004,21.138,89.165
9.9865,128.197165,37.904171,7714.8467496,-91.051,21.111,88.988
10.0033,128.197213,37.904163,7716.3088752,-91.098,21.084,88.81
10.02,128.197261,37.904155,7717.7694768,-91.144,21.056,88.633
10.0367,128.197309,37.904148,7719.228554400001,-91.191,21.028,88.456
10.0534,128.197357,37.904141,7720.6858032,-91.238,21.001,88.278
10.0701,128.197406,37.904133,7722.141528000001,-91.284,20.973,88.101
10.0868,128.197454,37.904126,7723.595728800001,-91.33,20.945,87.923
10.1035,128.197502,37.904119,7725.048100800001,-91.376,20.917,87.746
10.1202,128.19755,37.904112,7726.498644,-91.422,20.888,87.568
10.1368,128.197599,37.904106,7727.9476632000005,-91.468,20.86,87.391
10.1535,128.197647,37.904099,7729.395158400001,-91.514,20.831,87.213
10.1702,128.197695,37.904092,7730.840520000001,-91.559,20.803,87.036
10.187,128.197744,37.904086,7732.2843576000005,-91.605,20.774,86.858
10.2037,128.197792,37.90408,7733.7266712,-91.65,20.745,86.681
10.2204,128.19784,37.904074,7735.166851200001,-91.695,20.716,86.503
10.2371,128.197889,37.904068,7736.6055072,-91.74,20.686,86.325
10.2538,128.197937,37.904062,7738.0423344,-91.785,20.657,86.148
10.2705,128.197986,37.904056,7739.477637600001,-91.83,20.628,85.97
10.2872,128.198034,37.90405,7740.9108072,-91.874,20.598,85.792
10.3039,128.198083,37.904044,7742.342148,-91.919,20.568,85.615
10.3205,128.198131,37.904039,7743.771964800001,-91.963,20.539,85.437
10.3372,128.19818,37.904033,7745.1999528,-92.007,20.509,85.259
10.3539,128.198228,37.904028,7746.6258072,-92.051,20.479,85.081
10.3707,128.198277,37.904023,7748.050137600001,-92.095,20.448,84.904
10.3874,128.198325,37.904018,7749.4723344,-92.139,20.418,84.726
10.4041,128.198374,37.904013,7750.8930072,-92.182,20.388,84.548
10.4208,128.198422,37.904008,7752.3115464,-92.225,20.357,84.37
10.4375,128.198471,37.904003,7753.728256800001,-92.269,20.326,84.192
10.4542,128.198519,37.903999,7755.143138400001,-92.312,20.295,84.014
10.4709,128.198568,37.903994,7756.5561912,-92.355,20.264,83.837
10.4876,128.198617,37.90399,7757.967415200001,-92.398,20.233,83.659
10.5042,128.198665,37.903986,7759.3765056,-92.44,20.202,83.481
10.5209,128.198714,37.903982,7760.7837672000005,-92.483,20.171,83.303
10.5376,128.198763,37.903978,7762.1888952,-92.525,20.139,83.125
10.5544,128.198811,37.903974,7763.5924992,-92.567,20.108,82.947
10.5711,128.19886,37.90397,7764.9936648,-92.609,20.076,82.769
10.5878,128.198909,37.903966,7766.393306400001,-92.651,20.044,82.591
10.6045,128.198957,37.903963,7767.7908144,-92.693,20.012,82.413
10.6212,128.199006,37.903959,7769.1861888,-92.734,19.98,82.235
10.6379,128.199055,37.903956,7770.5797344,-92.776,19.948,82.057
10.6546,128.199103,37.903953,7771.9711464,-92.817,19.916,81.879
10.6713,128.199152,37.903949,7773.3607296,-92.858,19.883,81.7
10.6879,128.199201,37.903946,7774.748179200001,-92.899,19.851,81.522
10.7046,128.19925,37.903944,7776.1338000000005,-92.94,19.818,81.344
10.7213,128.199298,37.903941,7777.5169824,-92.981,19.785,81.166
10.7381,128.199347,37.903938,7778.898336,-93.021,19.752,80.988
10.7548,128.199396,37.903936,7780.277860800001,-93.061,19.719,80.81
10.7715,128.199445,37.903933,7781.654947200001,-93.102,19.686,80.631
10.7882,128.199493,37.903931,7783.0302048,-93.142,19.653,80.453
10.8049,128.199542,37.903929,7784.403328800001,-93.181,19.62,80.275
10.8216,128.199591,37.903927,7785.774319200001,-93.221,19.586,80.097
10.8383,128.19964,37.903925,7787.1431760000005,-93.261,19.553,79.918
10.855,128.199689,37.903923,7788.5098992,-93.3,19.519,79.74
10.8717,128.199737,37.903921,7789.8744888,-93.339,19.485,79.562
10.8883,128.199786,37.903919,7791.2369448,-93.378,19.451,79.384
10.905,128.199835,37.903918,7792.597572000001,-93.417,19.417,79.205
10.9218,128.199884,37.903916,7793.9557608000005,-93.456,19.383,79.027
10.9385,128.199932,37.903915,7795.311815999999,-93.494,19.349,78.848
10.9552,128.199981,37.903914,7796.6657376,-93.533,19.314,78.67
10.9719,128.20003,37.903913,7798.0172208,-93.571,19.28,78.492
10.9886,128.200079,37.903912,7799.3668752,-93.609,19.245,78.313
11.0053,128.200128,37.903911,7800.7140912,-93.647,19.21,78.135
11.022,128.200176,37.90391,7802.0594784,-93.685,19.175,77.956
11.0387,128.200225,37.90391,7803.402122400001,-93.722,19.14,77.778
11.0554,128.200274,37.903909,7804.742937600001,-93.76,19.105,77.599
11.072,128.200323,37.903909,7806.0813144,-93.797,19.07,77.421
11.0887,128.200372,37.903909,7807.4175576,-93.834,19.035,77.242
11.1054,128.20042,37.903909,7808.7516672,-93.871,19.0,77.064
11.1222,128.200469,37.903909,7810.083338400001,-93.908,18.964,76.885
11.1389,128.200518,37.903909,7811.412876,-93.944,18.928,76.707
11.1556,128.200567,37.903909,7812.7399752,-93.981,18.893,76.528
11.1723,128.200615,37.903909,7814.0649408,-94.017,18.857,76.349
11.189,128.200664,37.90391,7815.387468,-94.053,18.821,76.171
11.2057,128.200713,37.90391,7816.7078616,-94.089,18.785,75.992
11.2224,128.200762,37.903911,7818.0258168,-94.125,18.749,75.814
11.2391,128.200811,37.903912,7819.341333600001,-94.16,18.712,75.635
11.2557,128.200859,37.903913,7820.6547168,-94.196,18.676,75.456
11.2724,128.200908,37.903914,7821.9656616,-94.231,18.639,75.278
11.2891,128.200957,37.903915,7823.274472800001,-94.266,18.603,75.099
11.3059,128.201005,37.903916,7824.580540800001,-94.301,18.566,74.92
11.3226,128.201054,37.903917,7825.8844751999995,-94.336,18.529,74.741
11.3393,128.201103,37.903919,7827.1859712,-94.37,18.492,74.563
11.356,128.201152,37.90392,7828.485333600001,-94.405,18.455,74.384
11.3727,128.2012,37.903922,7829.7819528,-94.439,18.418,74.205
11.3894,128.201249,37.903924,7831.076438400001,-94.473,18.381,74.026
11.4061,128.201298,37.903926,7832.3684856,-94.507,18.344,73.847
11.4228,128.201346,37.903928,7833.6580944,-94.54,18.306,73.668
11.4394,128.201395,37.90393,7834.945264800001,-94.574,18.269,73.49
11.4561,128.201443,37.903932,7836.229996800001,-94.607,18.231,73.311
11.4728,128.201492,37.903935,7837.5122904,-94.64,18.193,73.132
11.4896,128.201541,37.903937,7838.7918408000005,-94.673,18.156,72.953
11.5063,128.201589,37.90394,7840.0692576,-94.706,18.118,72.774
11.523,128.201638,37.903942,7841.344236,-94.739,18.08,72.595
11.5397,128.201686,37.903945,7842.616776,-94.771,18.042,72.416
11.5564,128.201735,37.903948,7843.8865728,-94.803,18.003,72.237
11.5731,128.201783,37.903951,7845.154236,-94.836,17.965,72.058
11.5898,128.201832,37.903955,7846.419156000001,-94.868,17.927,71.879
11.6065,128.201881,37.903958,7847.681637600001,-94.899,17.888,71.7
11.6231,128.201929,37.903961,7848.941376,-94.931,17.849,71.521
11.6398,128.201977,37.903965,7850.1989808,-94.962,17.811,71.342
11.6565,128.202026,37.903968,7851.453842400001,-94.993,17.772,71.163
11.6733,128.202074,37.903972,7852.706265600001,-95.024,17.733,70.984
11.69,128.202123,37.903976,7853.955945600001,-95.055,17.694,70.805
11.7067,128.202171,37.90398,7855.203187200001,-95.086,17.655,70.626
11.7234,128.20222,37.903984,7856.4479904,-95.117,17.616,70.447
11.7401,128.202268,37.903988,7857.6900504000005,-95.147,17.576,70.267
11.7568,128.202316,37.903993,7858.929672,-95.177,17.537,70.088
11.7735,128.202365,37.903997,7860.1665504,-95.207,17.498,69.909
11.7902,128.202413,37.904002,7861.4009904,-95.237,17.458,69.73
11.8068,128.202461,37.904006,7862.632687200001,-95.266,17.418,69.551
11.8235,128.20251,37.904011,7863.861945600001,-95.296,17.379,69.371
11.8402,128.202558,37.904016,7865.088460800001,-95.325,17.339,69.192
11.857,128.202606,37.904021,7866.312232800001,-95.354,17.299,69.013
11.8737,128.202654,37.904026,7867.5335664,-95.383,17.259,68.834
11.8904,128.202702,37.904031,7868.752156800001,-95.412,17.219,68.654
11.9071,128.202751,37.904037,7869.968004,-95.44,17.179,68.475
11.9238,128.202799,37.904042,7871.1814128000005,-95.468,17.138,68.296
11.9405,128.202847,37.904048,7872.392078400001,-95.497,17.098,68.116
11.9572,128.202895,37.904053,7873.600305600001,-95.525,17.057,67.937
11.9739,128.202943,37.904059,7874.8054848,-95.552,17.017,67.757
11.9905,128.202991,37.904065,7876.0082256,-95.58,16.976,67.578
12.0072,128.203039,37.904071,7877.2079184,-95.607,16.936,67.399
12.0239,128.203087,37.904077,7878.4051728,-95.635,16.895,67.219
12.0407,128.203135,37.904084,7879.599684000001,-95.662,16.854,67.04
12.0574,128.203183,37.90409,7880.791756800001,-95.689,16.813,66.86
12.0741,128.203231,37.904097,7881.9807816,-95.715,16.772,66.681
12.0908,128.203279,37.904103,7883.1670632000005,-95.742,16.731,66.501
12.1075,128.203327,37.90411,7884.350601600001,-95.768,16.689,66.322
12.1242,128.203374,37.904117,7885.531701600001,-95.794,16.648,66.142
12.1409,128.203422,37.904124,7886.7097536,-95.82,16.607,65.963
12.1576,128.20347,37.904131,7887.8850624,-95.846,16.565,65.783
12.1743,128.203518,37.904138,7889.0576280000005,-95.871,16.524,65.603
12.1909,128.203565,37.904145,7890.227450400001,-95.897,16.482,65.424
12.2076,128.203613,37.904153,7891.3945296,-95.922,16.44,65.244
12.2243,128.203661,37.90416,7892.558865600001,-95.947,16.399,65.064
12.2411,128.203708,37.904168,7893.7201536,-95.972,16.357,64.885
12.2578,128.203756,37.904175,7894.8786984,-95.996,16.315,64.705
12.2745,128.203803,37.904183,7896.0348048000005,-96.021,16.273,64.525
12.2912,128.203851,37.904191,7897.187863200001,-96.045,16.231,64.346
12.3079,128.203898,37.904199,7898.3378736,-96.069,16.189,64.166
12.3246,128.203946,37.904207,7899.4851408,-96.093,16.146,63.986
12.3413,128.203993,37.904216,7900.629664800001,-96.117,16.104,63.806
12.358,128.204041,37.904224,7901.7714456,-96.14,16.062,63.627
12.3746,128.204088,37.904233,7902.910483200001,-96.163,16.019,63.447
12.3913,128.204135,37.904241,7904.046168000001,-96.186,15.977,63.267
12.408,128.204183,37.90425,7905.1794144000005,-96.209,15.934,63.087
12.4248,128.20423,37.904259,7906.3096128,-96.232,15.891,62.907
12.4415,128.204277,37.904268,7907.437068,-96.255,15.848,62.727
12.4582,128.204324,37.904277,7908.5614752,-96.277,15.806,62.547
12.4749,128.204371,37.904286,7909.6831392,-96.299,15.763,62.367
12.4916,128.204418,37.904295,7910.8017552,-96.321,15.72,62.187
12.5083,128.204466,37.904305,7911.917628,-96.343,15.677,62.007
12.525,128.204513,37.904314,7913.0304528,-96.365,15.634,61.827
12.5417,128.20456,37.904324,7914.1402296,-96.386,15.59,61.647
12.5583,128.204606,37.904334,7915.2472632,-96.407,15.547,61.467
12.575,128.204653,37.904344,7916.3515536,-96.428,15.504,61.287
12.5917,128.2047,37.904354,7917.452491200001,-96.449,15.46,61.107
12.6085,128.204747,37.904364,7918.5506856,-96.47,15.417,60.927
12.6252,128.204794,37.904374,7919.646136800001,-96.49,15.373,60.747
12.6419,128.204841,37.904384,7920.7382352,-96.51,15.33,60.567
12.6586,128.204887,37.904395,7921.8275904,-96.53,15.286,60.387
12.6753,128.204934,37.904405,7922.9142024,-96.55,15.242,60.206
12.692,128.204981,37.904416,7923.9974616,-96.57,15.199,60.026
12.7087,128.205027,37.904426,7925.077977600001,-96.589,15.155,59.846
12.7254,128.205074,37.904437,7926.1554456,-96.609,15.111,59.666
12.742,128.20512,37.904448,7927.229865600001,-96.628,15.067,59.485
12.7587,128.205167,37.904459,7928.301237600001,-96.647,15.023,59.305
12.7754,128.205213,37.904471,7929.3695615999995,-96.665,14.979,59.125
12.7922,128.205259,37.904482,7930.434837600001,-96.684,14.935,58.944
12.8089,128.205306,37.904493,7931.497370400001,-96.702,14.89,58.764
12.8256,128.205352,37.904505,7932.5568552,-96.72,14.846,58.584
12.8423,128.205398,37.904516,7933.612987200001,-96.738,14.802,58.403
12.859,128.205444,37.904528,7934.666376,-96.756,14.757,58.223
12.8757,128.20549,37.90454,7935.7167168,-96.773,14.713,58.042
12.8924,128.205536,37.904552,7936.763704800001,-96.791,14.668,57.862
12.9091,128.205582,37.904564,7937.8079496,-96.808,14.624,57.681
12.9257,128.205628,37.904576,7938.849146400001,-96.825,14.579,57.501
12.9424,128.205674,37.904589,7939.8869904,-96.841,14.534,57.32
12.9591,128.20572,37.904601,7940.9220912,-96.858,14.49,57.14
12.9759,128.205766,37.904613,7941.9538392,-96.874,14.445,56.959
12.9926,128.205812,37.904626,7942.982844,-96.891,14.4,56.778
13.0093,128.205858,37.904639,7944.008496,-96.906,14.355,56.598
13.026,128.205903,37.904652,7945.0311,-96.922,14.31,56.417
13.0427,128.205949,37.904665,7946.050656,-96.938,14.265,56.236
13.0594,128.205994,37.904678,7947.0668592,-96.953,14.22,56.056
13.0761,128.20604,37.904691,7948.0803192,-96.968,14.175,55.875
13.0928,128.206085,37.904704,7949.0904264,-96.983,14.13,55.694
13.1095,128.206131,37.904717,7950.0974856,-96.998,14.085,55.513
13.1262,128.206176,37.904731,7951.101496800001,-97.013,14.039,55.332
13.1429,128.206221,37.904744,7952.1021552,-97.027,13.994,55.152
13.1596,128.206267,37.904758,7953.099765600001,-97.041,13.949,54.971
13.1763,128.206312,37.904772,7954.094328,-97.055,13.903,54.79
13.193,128.206357,37.904786,7955.085537600001,-97.069,13.858,54.609
13.2097,128.206402,37.9048,7956.074004,-97.083,13.812,54.428
13.2264,128.206447,37.904814,7957.0588128,-97.096,13.767,54.247
13.2431,128.206492,37.904828,7958.040878400001,-97.109,13.721,54.066
13.2598,128.206537,37.904843,7959.019591200001,-97.122,13.676,53.885
13.2765,128.206582,37.904857,7959.9949512,-97.135,13.63,53.704
13.2932,128.206627,37.904872,7960.967568,-97.148,13.584,53.523
13.3099,128.206671,37.904886,7961.9365272000005,-97.16,13.538,53.342
13.3266,128.206716,37.904901,7962.9027432,-97.172,13.493,53.16
13.3433,128.206761,37.904916,7963.865301600001,-97.184,13.447,52.979
13.36,128.206805,37.904931,7964.8251168,-97.196,13.401,52.798
13.3767,128.20685,37.904946,7965.781579200001,-97.208,13.355,52.617
13.3934,128.206894,37.904961,7966.7346888,-97.219,13.309,52.436
13.4101,128.206939,37.904976,7967.684445600001,-97.23,13.263,52.254
13.4268,128.206983,37.904992,7968.631459200001,-97.241,13.217,52.073
13.4435,128.207027,37.905007,7969.574815200001,-97.252,13.171,51.892
13.4602,128.207071,37.905023,7970.515123200001,-97.263,13.125,51.71
13.4769,128.207116,37.905039,7971.4523832,-97.273,13.078,51.529
13.4936,128.20716,37.905054,7972.3859856,-97.283,13.032,51.348
13.5103,128.207204,37.90507,7973.31654,-97.293,12.986,51.166
13.527,128.207248,37.905086,7974.244046400001,-97.303,12.94,50.985
13.5437,128.207291,37.905103,7975.1682,-97.313,12.893,50.803
13.5604,128.207335,37.905119,7976.089000800001,-97.322,12.847,50.622
13.5771,128.207379,37.905135,7977.0064488,-97.331,12.801,50.44
13.5938,128.207423,37.905152,7977.9208488,-97.34,12.754,50.258
13.6105,128.207466,37.905168,7978.831896000001,-97.349,12.708,50.077
13.6272,128.20751,37.905185,7979.7395904,-97.358,12.661,49.895
13.6439,128.207553,37.905202,7980.644236800001,-97.366,12.615,49.713
13.6606,128.207597,37.905218,7981.5455304,-97.375,12.568,49.532
13.6773,128.20764,37.905235,7982.4434712,-97.383,12.522,49.35
13.694,128.207683,37.905253,7983.3380592,-97.39,12.475,49.168
13.7107,128.207727,37.90527,7984.2292944,-97.398,12.429,48.986
13.7274,128.20777,37.905287,7985.1174816,-97.405,12.382,48.805
13.7441,128.207813,37.905304,7986.002316,-97.413,12.335,48.623
13.7608,128.207856,37.905322,7986.883492800001,-97.42,12.289,48.441
13.7775,128.207899,37.905339,7987.761621600001,-97.426,12.242,48.259
13.7942,128.207942,37.905357,7988.6367024,-97.433,12.195,48.077
13.8109,128.207984,37.905375,7989.5081256,-97.439,12.148,47.895
13.8276,128.208027,37.905393,7990.376196,-97.445,12.101,47.713
13.8443,128.20807,37.905411,7991.2412184,-97.451,12.055,47.531
13.861,128.208112,37.905429,7992.1025832000005,-97.457,12.008,47.349
13.8777,128.208155,37.905447,7992.9609,-97.463,11.961,47.167
13.8944,128.208197,37.905465,7993.815864,-97.468,11.914,46.984
13.9111,128.20824,37.905484,7994.667170400001,-97.473,11.867,46.802
13.9278,128.208282,37.905502,7995.5154288,-97.478,11.82,46.62
13.9445,128.208324,37.905521,7996.3603344,-97.483,11.773,46.438
13.9612,128.208366,37.90554,7997.201887200001,-97.488,11.726,46.255
13.9779,128.208408,37.905559,7998.0397824,-97.492,11.679,46.073
13.9946,128.20845,37.905577,7998.8746296,-97.496,11.632,45.891
14.0113,128.208492,37.905596,7999.706124,-97.5,11.585,45.708
14.028,128.208534,37.905616,8000.5339608,-97.504,11.538,45.526
14.0447,128.208576,37.905635,8001.3587496,-97.508,11.491,45.343
14.0614,128.208618,37.905654,8002.1801856,-97.511,11.444,45.161
14.0781,128.208659,37.905673,8002.997964,-97.514,11.397,44.978
14.0948,128.208701,37.905693,8003.8126944000005,-97.517,11.35,44.796
14.1115,128.208742,37.905713,8004.6237672,-97.52,11.303,44.613
14.1282,128.208784,37.905732,8005.4314872,-97.522,11.256,44.431
14.1449,128.208825,37.905752,8006.235854400001,-97.525,11.209,44.248
14.1616,128.208866,37.905772,8007.036868800001,-97.527,11.161,44.065
14.1783,128.208907,37.905792,8007.8345304,-97.529,11.114,43.883
14.195,128.208948,37.905812,8008.6288392,-97.53,11.067,43.7
14.2117,128.208989,37.905832,8009.4194904000005,-97.532,11.02,43.517
14.2284,128.20903,37.905853,8010.2070936,-97.533,10.973,43.334
14.2451,128.209071,37.905873,8010.9910392,-97.534,10.926,43.151
14.2618,128.209112,37.905894,8011.771632000001,-97.535,10.878,42.968
14.2785,128.209152,37.905914,8012.548872,-97.536,10.831,42.785
14.2952,128.209193,37.905935,8013.3227592,-97.536,10.784,42.602
14.3119,128.209234,37.905956,8014.0929888,-97.537,10.737,42.419
14.3286,128.209274,37.905976,8014.859865600001,-97.537,10.69,42.236
14.3453,128.209314,37.905997,8015.6233896,-97.537,10.642,42.053
14.362,128.209354,37.906019,8016.383560800001,-97.536,10.595,41.87
14.3787,128.209395,37.90604,8017.140379200001,-97.536,10.548,41.687
14.3954,128.209435,37.906061,8017.89354,-97.535,10.501,41.503
14.4121,128.209475,37.906082,8018.643348,-97.534,10.454,41.32
14.4288,128.209515,37.906104,8019.3898032,-97.533,10.406,41.137
14.4455,128.209554,37.906125,8020.132600800001,-97.532,10.359,40.954
14.4622,128.209594,37.906147,8020.8720456,-97.53,10.312,40.77
14.4789,128.209634,37.906169,8021.608137600001,-97.528,10.265,40.587
14.4956,128.209673,37.906191,8022.3408768,-97.526,10.217,40.403
14.5123,128.209713,37.906213,8023.0699584,-97.524,10.17,40.22
14.529,128.209752,37.906235,8023.7956872,-97.522,10.123,40.036
14.5457,128.209791,37.906257,8024.5180632,-97.519,10.076,39.853
14.5624,128.209831,37.906279,8025.2367816000005,-97.517,10.029,39.669
14.5791,128.20987,37.906301,8025.952147200001,-97.514,9.981,39.485
14.5958,128.209909,37.906324,8026.66416,-97.51,9.934,39.302
14.6125,128.209948,37.906346,8027.372515200001,-97.507,9.887,39.118
14.6292,128.209987,37.906369,8028.077517600001,-97.503,9.84,38.934
14.6459,128.210025,37.906391,8028.7791672,-97.5,9.793,38.75
14.6626,128.210064,37.906414,8029.477159200001,-97.496,9.745,38.566
14.6793,128.210103,37.906437,8030.1717984,-97.491,9.698,38.382
14.696,128.210141,37.90646,8030.86278,-97.487,9.651,38.198
14.7127,128.210179,37.906483,8031.550713600001,-97.482,9.604,38.014
14.7294,128.210218,37.906506,8032.2346848,-97.478,9.557,37.83
14.7461,128.210256,37.90653,8032.915608,-97.473,9.51,37.646
14.7628,128.210294,37.906553,8033.5928736000005,-97.467,9.463,37.462
14.7795,128.210332,37.906576,8034.266481600001,-97.462,9.416,37.278
14.7962,128.21037,37.9066,8034.9367368,-97.456,9.369,37.094
14.8129,128.210408,37.906623,8035.6036392,-97.45,9.322,36.91
14.8296,128.210445,37.906647,8036.266884000001,-97.444,9.275,36.725
14.8463,128.210483,37.906671,8036.926776,-97.438,9.228,36.541
14.863,128.210521,37.906695,8037.5833152000005,-97.432,9.181,36.357
14.8797,128.210558,37.906719,8038.2361968000005,-97.425,9.134,36.172
14.8964,128.210595,37.906743,8038.8854208,-97.418,9.087,35.988
14.9131,128.210633,37.906767,8039.5315968,-97.411,9.04,35.803
14.9298,128.21067,37.906791,8040.173810400001,-97.404,8.993,35.619
14.9465,128.210707,37.906816,8040.812976,-97.396,8.946,35.434
14.9632,128.210744,37.90684,8041.448179200001,-97.389,8.899,35.249
14.9799,128.210781,37.906864,8042.0803344,-97.381,8.852,35.065
14.9966,128.210817,37.906889,8042.708832,-97.373,8.805,34.88
15.0133,128.210854,37.906914,8043.333672000001,-97.364,8.758,34.695
15.03,128.210891,37.906938,8043.955159200001,-97.356,8.712,34.51
15.0467,128.210927,37.906963,8044.5732936,-97.347,8.665,34.325
15.0634,128.210963,37.906988,8045.187770400001,-97.338,8.618,34.14
15.0801,128.211,37.907013,8045.7988944,-97.329,8.572,33.955
15.0968,128.211036,37.907038,8046.406360800001,-97.32,8.525,33.77
15.1135,128.211072,37.907064,8047.010169600001,-97.31,8.478,33.585
15.1302,128.211108,37.907089,8047.6106256,-97.301,8.432,33.4
15.1469,128.211144,37.907114,8048.207728800001,-97.291,8.385,33.215
15.1636,128.211179,37.90714,8048.8011744000005,-97.281,8.338,33.03
15.1803,128.211215,37.907165,8049.391267200001,-97.27,8.292,32.845
15.197,128.211251,37.907191,8049.9777023999995,-97.26,8.245,32.659
15.2137,128.211286,37.907217,8050.5607848,-97.249,8.199,32.474
15.2304,128.211321,37.907242,8051.140514400001,-97.238,8.153,32.289
15.2471,128.211357,37.907268,8051.7162816,-97.227,8.106,32.103
15.2638,128.211392,37.907294,8052.2890008,-97.216,8.06,31.918
15.2805,128.211427,37.90732,8052.8580624,-97.204,8.013,31.732
15.2972,128.211462,37.907346,8053.4234664,-97.192,7.967,31.547
15.3139,128.211496,37.907373,8053.9855176,-97.18,7.921,31.361
15.3306,128.211531,37.907399,8054.543911200001,-97.168,7.875,31.175
15.3473,128.211566,37.907425,8055.098952000001,-97.156,7.828,30.99
