Time,Longitude,Latitude,Altitude,Roll (deg),Pitch (deg),Yaw (deg)
0.0,128.181881,37.923466,7000.0816056,0.0,-0.003,179.999
0.0167,128.181881,37.923421,7000.0630128,0.0,-0.012,180.0
0.0334,128.181881,37.923376,7000.043505600001,0.0,-0.026,180.0
0.0501,128.181881,37.923331,7000.0233888,0.0,-0.042,180.0
0.0668,128.181881,37.923286,7000.0020528,0.0,-0.06,180.0
0.0834,128.181881,37.923241,6999.9801072,0.0,-0.08,180.0
0.1002,128.181881,37.923196,6999.957247200001,0.0,-0.1,180.0
0.1169,128.181881,37.923151,6999.9331680000005,0.0,-0.12,180.0
0.1336,128.181881,37.923106,6999.908479200001,0.001,-0.14,180.0
0.1503,128.181881,37.923061,6999.882876,0.001,-0.161,180.0
0.1669,128.181881,37.923016,6999.8560536,0.001,-0.181,180.0
0.1837,128.181881,37.922971,6999.8283168,0.002,-0.201,180.0
0.2004,128.181881,37.922926,6999.7996656000005,0.002,-0.221,180.0
0.2171,128.181881,37.922881,6999.770100000001,0.003,-0.24,180.0
0.2338,128.181881,37.922836,6999.739620000001,0.003,-0.26,180.0
0.2505,128.181881,37.922791,6999.7079208,0.004,-0.279,180.0
0.2672,128.181881,37.922746,6999.6753072,0.004,-0.297,180.0
0.2839,128.181881,37.922701,6999.641779200001,0.005,-0.316,180.0
0.3006,128.181881,37.922656,6999.607032000001,0.005,-0.334,180.0
0.3172,128.181881,37.922611,6999.571370400001,0.006,-0.352,180.0
0.3339,128.181881,37.922566,6999.5344896,0.007,-0.37,180.0
0.3507,128.181881,37.922521,6999.4966944,0.008,-0.387,180.0
0.3674,128.181881,37.922475,6999.4579848,0.009,-0.405,180.0
0.3841,128.181881,37.92243,6999.418056,0.01,-0.422,180.0
0.4008,128.181881,37.922385,6999.376908,0.011,-0.439,180.0
0.4175,128.181881,37.92234,6999.3348456,0.012,-0.456,180.001
0.4342,128.181881,37.922295,6999.291564,0.014,-0.472,180.001
0.4509,128.181881,37.92225,6999.247368,0.015,-0.489,180.001
0.4676,128.181881,37.922204,6999.2019528,0.017,-0.505,180.001
0.4843,128.181881,37.922159,6999.1556232,0.019,-0.521,180.001
0.501,128.181881,37.922114,6999.108074400001,0.021,-0.537,180.001
0.5176,128.181881,37.922069,6999.0593064,0.023,-0.553,180.001
0.5344,128.181881,37.922024,6999.009624,0.025,-0.569,180.001
0.5511,128.181881,37.921978,6998.958722400001,0.027,-0.584,180.001
0.5678,128.181881,37.921933,6998.906601600001,0.03,-0.6,180.002
0.5845,128.181881,37.921888,6998.8535664,0.033,-0.615,180.002
0.6012,128.181881,37.921843,6998.799312,0.036,-0.63,180.002
0.6179,128.181881,37.921797,6998.743838400001,0.04,-0.645,180.002
0.6345,128.181881,37.921752,6998.687450400001,0.043,-0.66,180.002
0.6513,128.181881,37.921707,6998.6295384000005,0.047,-0.675,180.003
0.6679,128.181881,37.921662,6998.570712,0.052,-0.69,180.003
0.6847,128.181881,37.921616,6998.5109712,0.057,-0.705,180.003
0.7014,128.181881,37.921571,6998.449706400001,0.062,-0.72,180.004
0.7181,128.181881,37.921526,6998.3875272000005,0.068,-0.734,180.004
0.7348,128.181881,37.92148,6998.324128800001,0.074,-0.749,180.004
0.7514,128.181881,37.921435,6998.259511200001,0.08,-0.764,180.005
0.7682,128.181881,37.92139,6998.1936744,0.088,-0.778,180.005
0.7848,128.181881,37.921344,6998.126618400001,0.096,-0.792,180.005
0.8016,128.181881,37.921299,6998.058648,0.104,-0.807,180.006
0.8183,128.181881,37.921254,6997.9891536000005,0.114,-0.821,180.006
0.835,128.181881,37.921208,6997.9187448,0.124,-0.835,180.007
0.8517,128.181881,37.921163,6997.8471168,0.135,-0.85,180.008
0.8684,128.181881,37.921117,6997.7742696000005,0.147,-0.864,180.008
0.8851,128.181881,37.921072,6997.7002032,0.16,-0.878,180.009
0.9018,128.181881,37.921027,6997.6249176,0.174,-0.892,180.01
0.9185,128.181881,37.920981,6997.5484128,0.189,-0.906,180.011
0.9352,128.181881,37.920936,6997.4706888,0.206,-0.92,180.012
0.9519,128.181881,37.92089,6997.391745600001,0.224,-0.934,180.013
0.9686,128.181881,37.920845,6997.3115832,0.244,-0.948,180.014
0.9853,128.181881,37.920799,6997.2302016,0.265,-0.962,180.015
1.002,128.181881,37.920754,6997.147600800001,0.289,-0.976,180.016
1.0187,128.181881,37.920708,6997.0637808,0.314,-0.99,180.017
1.0353,128.181881,37.920663,6996.978741600001,0.341,-1.004,180.019
1.0521,128.181881,37.920617,6996.8924832,0.371,-1.018,180.021
1.0688,128.181881,37.920572,6996.8047008,0.403,-1.032,180.022
1.0855,128.181881,37.920526,6996.7156992,0.439,-1.046,180.024
1.1022,128.181881,37.920481,6996.6254784,0.477,-1.06,180.026
1.1189,128.181881,37.920435,6996.533733600001,0.518,-1.074,180.028
1.1356,128.181881,37.92039,6996.441074400001,0.563,-1.088,180.031
1.1522,128.181881,37.920344,6996.3465864,0.612,-1.102,180.033
1.169,128.181881,37.920299,6996.251184000001,0.666,-1.116,180.036
1.1857,128.181881,37.920253,6996.1542576,0.724,-1.13,180.039
1.2024,128.181881,37.920207,6996.0558072,0.786,-1.144,180.043
1.2191,128.181881,37.920162,6995.956137600001,0.855,-1.158,180.046
1.2358,128.181881,37.920116,6995.8546392,0.929,-1.172,180.05
1.2525,128.181881,37.92007,6995.7522264,1.01,-1.186,180.055
1.2691,128.18188,37.920025,6995.6479848,1.097,-1.201,180.059
1.2859,128.18188,37.919979,6995.5422192000005,1.192,-1.215,180.064
1.3026,128.18188,37.919934,6995.4349296,1.296,-1.23,180.07
1.3193,128.18188,37.919888,6995.326116,1.408,-1.244,180.076
1.3359,128.18188,37.919842,6995.215778400001,1.53,-1.259,180.082
1.3527,128.18188,37.919796,6995.103612,1.663,-1.274,180.089
1.3694,128.18188,37.919751,6994.9899216,1.807,-1.289,180.096
1.386,128.18188,37.919705,6994.8744024,1.964,-1.304,180.105
1.4028,128.18188,37.919659,6994.7570544,2.134,-1.32,180.113
1.4195,128.18188,37.919614,6994.6378776,2.319,-1.335,180.123
1.4362,128.18188,37.919568,6994.516872,2.522,-1.351,180.132
1.4528,128.18188,37.919522,6994.3937328,2.742,-1.367,180.142
1.4696,128.18188,37.919476,6994.268764800001,2.983,-1.383,180.152
1.4863,128.18188,37.919431,6994.1416632,3.245,-1.4,180.162
1.5029,128.18188,37.919385,6994.012428000001,3.531,-1.417,180.173
1.5197,128.18188,37.919339,6993.8807544,3.842,-1.434,180.184
1.5364,128.18188,37.919293,6993.7466424,4.181,-1.452,180.195
1.5531,128.18188,37.919247,6993.610396800001,4.549,-1.47,180.206
1.5697,128.18188,37.919201,6993.4711032000005,4.951,-1.488,180.218
1.5865,128.18188,37.919156,6993.3293712,5.389,-1.508,180.23
1.6032,128.18188,37.91911,6993.184896000001,5.865,-1.527,180.242
1.6198,128.18188,37.919064,6993.0373728,6.384,-1.548,180.255
1.6366,128.18188,37.919018,6992.886496800001,6.948,-1.569,180.269
1.6533,128.18188,37.918972,6992.734096800001,7.484,-1.59,180.278
1.67,128.18188,37.918926,6992.5795632,7.99,-1.61,180.283
1.6867,128.18188,37.91888,6992.423505600001,8.47,-1.631,180.285
1.7034,128.18188,37.918834,6992.266228800001,8.93,-1.652,180.287
1.7201,128.18188,37.918788,6992.108342400001,9.376,-1.672,180.289
1.7368,128.18188,37.918742,6991.9483224000005,9.813,-1.693,180.292
1.7535,128.18188,37.918696,6991.787083200001,10.247,-1.715,180.296
1.7702,128.18188,37.91865,6991.624015200001,10.682,-1.737,180.301
1.7869,128.18188,37.918604,6991.4591184,11.121,-1.759,180.307
1.8036,128.18188,37.918558,6991.292392800001,11.569,-1.781,180.313
1.8203,128.18188,37.918512,6991.123533600001,12.027,-1.804,180.321
1.837,128.18188,37.918466,6990.952845600001,12.498,-1.826,180.328
1.8537,128.18188,37.91842,6990.7803288000005,12.983,-1.849,180.336
1.8704,128.18188,37.918374,6990.6053736,13.484,-1.872,180.344
1.8871,128.18188,37.918328,6990.4285896,14.003,-1.896,180.353
1.9038,128.18188,37.918282,6990.2493672,14.541,-1.919,180.361
1.9205,128.181879,37.918236,6990.068011200001,15.098,-1.943,180.37
1.9372,128.181879,37.91819,6989.8842168,15.675,-1.968,180.378
1.9539,128.181879,37.918144,6989.6982888,16.274,-1.992,180.387
1.9706,128.181879,37.918097,6989.5099224000005,16.896,-2.017,180.396
1.9873,128.181879,37.918051,6989.3191176,17.541,-2.043,180.405
2.004,128.181879,37.918005,6989.125874400001,18.21,-2.068,180.413
2.0207,128.181879,37.917959,6988.9301928,18.905,-2.095,180.422
2.0374,128.181879,37.917913,6988.7320728,19.626,-2.121,180.431
2.0541,128.181879,37.917867,6988.531209600001,20.374,-2.149,180.44
2.0707,128.181879,37.91782,6988.3276032,21.151,-2.177,180.449
2.0875,128.181879,37.917774,6988.1212536,21.957,-2.205,180.457
2.1042,128.181879,37.917728,6987.912465600001,22.794,-2.234,180.466
2.1208,128.181879,37.917682,6987.7006296,23.663,-2.264,180.474
2.1376,128.181879,37.917635,6987.486050400001,24.564,-2.294,180.482
2.1543,128.181878,37.917589,6987.2684232,25.5,-2.325,180.489
2.171,128.181878,37.917543,6987.0480528,26.472,-2.356,180.496
2.1877,128.181878,37.917496,6986.8243296,27.48,-2.388,180.502
2.2044,128.181878,37.91745,6986.597863200001,28.525,-2.42,180.507
2.2211,128.181878,37.917404,6986.3683488,29.61,-2.453,180.512
2.2378,128.181878,37.917357,6986.1354816,30.735,-2.487,180.516
2.2544,128.181878,37.917311,6985.8995664,31.901,-2.521,180.52
2.2712,128.181878,37.917264,6985.6602984,33.11,-2.556,180.523
2.2879,128.181878,37.917218,6985.4176776,34.363,-2.592,180.525
2.3045,128.181878,37.917172,6985.171704,35.661,-2.628,180.526
2.3213,128.181878,37.917125,6984.922682400001,37.006,-2.665,180.526
2.338,128.181878,37.917079,6984.6700032,38.398,-2.703,180.525
2.3546,128.181878,37.917032,6984.4136664,39.84,-2.741,180.523
2.3714,128.181878,37.916986,6984.1542816,41.331,-2.779,180.52
2.3881,128.181878,37.916939,6983.8912392,42.869,-2.818,180.516
2.4048,128.181878,37.916893,6983.6251488,44.453,-2.858,180.51
2.4215,128.181878,37.916846,6983.355705600001,46.081,-2.897,180.503
2.4382,128.181878,37.9168,6983.082604800001,47.752,-2.936,180.494
2.4549,128.181878,37.916753,6982.806760800001,49.465,-2.976,180.484
2.4716,128.181878,37.916707,6982.5272592,51.217,-3.015,180.472
2.4882,128.181878,37.91666,6982.2447096000005,53.007,-3.054,180.459
2.505,128.181878,37.916613,6981.959112,54.835,-3.093,180.444
2.5217,128.181878,37.916567,6981.6701616,56.698,-3.131,180.428
2.5383,128.181878,37.91652,6981.3781632,58.596,-3.169,180.41
2.5551,128.181878,37.916473,6981.0831168,60.527,-3.207,180.391
2.5718,128.181878,37.916427,6980.7850224,62.49,-3.244,180.37
2.5884,128.181878,37.91638,6980.48388,64.485,-3.28,180.349
2.6052,128.181878,37.916333,6980.1796896,66.51,-3.315,180.326
2.6219,128.181878,37.916287,6979.872756000001,68.564,-3.35,180.301
2.6386,128.181878,37.91624,6979.5624696,70.646,-3.384,180.276
2.6553,128.181878,37.916193,6979.2494400000005,72.756,-3.417,180.25
2.6719,128.181878,37.916146,6978.9333624,74.892,-3.449,180.223
2.6887,128.181878,37.916099,6978.614541600001,77.054,-3.48,180.195
2.7054,128.181878,37.916053,6978.2929776,79.241,-3.51,180.166
2.722,128.181878,37.916006,6977.968365600001,81.453,-3.539,180.137
2.7388,128.181879,37.915959,6977.641010400001,83.688,-3.566,180.107
2.7555,128.181879,37.915912,6977.3112168,85.945,-3.593,180.076
2.7721,128.181879,37.915865,6976.9783752,88.225,-3.618,180.046
2.7889,128.181879,37.915818,6976.6427904,90.527,-3.643,180.014
2.8056,128.181879,37.915771,6976.3047672,92.849,-3.666,179.983
2.8222,128.181879,37.915725,6975.964000800001,95.192,-3.688,179.951
2.839,128.181879,37.915678,6975.6204912,97.554,-3.708,179.92
2.8557,128.18188,37.915631,6975.2745432,99.934,-3.729,179.898
2.8724,128.18188,37.915584,6974.926156800001,102.333,-3.752,179.89
2.8891,128.18188,37.915537,6974.575332,104.748,-3.779,179.9
2.9057,128.18188,37.91549,6974.221764000001,107.178,-3.81,179.93
2.9225,128.18188,37.915443,6973.8657576,109.624,-3.85,179.982
2.9392,128.181881,37.915396,6973.5070080000005,112.083,-3.898,180.054
2.9558,128.181881,37.915349,6973.145820000001,114.556,-3.957,180.147
2.9726,128.181881,37.915302,6972.7818888,117.04,-4.029,180.258
2.9893,128.181881,37.915255,6972.4149096,119.531,-4.114,180.387
3.0059,128.181881,37.915207,6972.044577600001,122.012,-4.214,180.531
3.0227,128.181881,37.91516,6971.670283200001,124.469,-4.328,180.691
3.0394,128.181881,37.915113,6971.2920264,126.888,-4.458,180.863
3.056,128.181882,37.915066,6970.909197600001,129.254,-4.605,181.048
3.0728,128.181882,37.915019,6970.521492000001,131.557,-4.769,181.241
3.0895,128.181882,37.914972,6970.127690400001,133.785,-4.951,181.443
3.1062,128.181882,37.914925,6969.728097600001,135.932,-5.151,181.65
3.1229,128.181881,37.914878,6969.3214944,137.989,-5.369,181.861
3.1395,128.181881,37.91483,6968.9072712,139.954,-5.604,182.073
3.1563,128.181881,37.914783,6968.485428000001,141.823,-5.856,182.286
3.173,128.181881,37.914736,6968.0550504,143.594,-6.124,182.497
3.1896,128.18188,37.914689,6967.615833600001,145.268,-6.408,182.705
3.2064,128.18188,37.914642,6967.167168,146.846,-6.705,182.909
3.2231,128.18188,37.914595,6966.7087488,148.33,-7.014,183.107
3.2397,128.181879,37.914548,6966.2399663999995,149.724,-7.335,183.299
3.2565,128.181878,37.9145,6965.7608208,151.03,-7.665,183.484
3.2732,128.181878,37.914453,6965.270397600001,152.254,-8.003,183.66
3.2899,128.181877,37.914406,6964.769001600001,153.399,-8.347,183.829
3.3066,128.181876,37.914359,6964.255413600001,154.471,-8.693,183.987
3.3233,128.181875,37.914312,6963.7302432,155.475,-9.038,184.135
3.34,128.181875,37.914265,6963.1928808,156.415,-9.378,184.27
3.3567,128.181874,37.914218,6962.6427168,157.296,-9.712,184.393
3.3734,128.181873,37.914171,6962.080056000001,158.124,-10.037,184.504
3.3901,128.181872,37.914124,6961.5042888,158.901,-10.353,184.604
3.4068,128.181871,37.914077,6960.915415200001,159.632,-10.661,184.693
3.4235,128.181869,37.914029,6960.3128256,160.322,-10.96,184.772
3.4402,128.181868,37.913982,6959.6971296,160.973,-11.251,184.843
3.4569,128.181867,37.913935,6959.0674128,161.589,-11.533,184.905
3.4736,128.181866,37.913888,6958.42398,162.173,-11.808,184.96
3.4903,128.181864,37.913841,6957.7668312000005,162.727,-12.076,185.008
3.507,128.181863,37.913794,6957.0962712,163.33,-12.339,185.045
3.5237,128.181861,37.913747,6956.4123,163.978,-12.597,185.073
3.5404,128.18186,37.9137,6955.7152224,164.661,-12.849,185.093
3.5571,128.181858,37.913653,6955.005038400001,165.369,-13.095,185.107
3.5738,128.181857,37.913606,6954.2814432,166.092,-13.336,185.118
3.5905,128.181855,37.913559,6953.5432176,166.819,-13.573,185.126
3.6072,128.181854,37.913512,6952.7906664,167.541,-13.804,185.131
3.6239,128.181852,37.913466,6952.0237896,168.251,-14.032,185.134
3.6406,128.18185,37.913419,6951.241672800001,168.942,-14.256,185.134
3.6573,128.181849,37.913372,6950.4449256,169.61,-14.477,185.13
3.674,128.181847,37.913325,6949.632633600001,170.25,-14.695,185.125
3.6907,128.181845,37.913278,6948.805101600001,170.861,-14.911,185.116
3.7074,128.181843,37.913231,6947.9623296,171.442,-15.125,185.105
3.7241,128.181841,37.913184,6947.1040128,171.991,-15.337,185.09
3.7408,128.18184,37.913138,6946.230456000001,172.509,-15.548,185.074
3.7575,128.181838,37.913091,6945.341049600001,172.997,-15.758,185.055
3.7742,128.181836,37.913044,6944.4360983999995,173.458,-15.966,185.035
3.7909,128.181834,37.912997,6943.5159072,173.893,-16.172,185.015
3.8076,128.181832,37.912951,6942.5798664,174.303,-16.378,184.994
3.8243,128.18183,37.912904,6941.6282808000005,174.688,-16.582,184.972
3.841,128.181828,37.912857,6940.6611504,175.05,-16.786,184.948
3.8577,128.181826,37.912811,6939.678475199999,175.391,-16.988,184.923
3.8744,128.181824,37.912764,6938.6799504,175.711,-17.189,184.897
3.8911,128.181822,37.912717,6937.6661856,176.012,-17.389,184.869
3.9078,128.18182,37.912671,6936.6365712,176.296,-17.588,184.84
3.9245,128.181818,37.912624,6935.5917168,176.565,-17.786,184.81
3.9412,128.181815,37.912578,6934.5313176,176.82,-17.983,184.779
3.9579,128.181813,37.912531,6933.455068800001,177.062,-18.178,184.747
3.9746,128.181811,37.912485,6932.36358,177.292,-18.373,184.714
3.9913,128.181809,37.912439,6931.256546400001,177.512,-18.566,184.68
4.008,128.181807,37.912392,6930.133968,177.722,-18.759,184.646
4.0247,128.181805,37.912346,6928.9958448,177.923,-18.95,184.611
4.0414,128.181803,37.912299,6927.842481600001,178.116,-19.141,184.576
4.058,128.181801,37.912253,6926.6732688,178.302,-19.33,184.54
4.0748,128.181798,37.912207,6925.488816,178.482,-19.518,184.504
4.0915,128.181796,37.912161,6924.2888184,178.655,-19.706,184.467
4.1082,128.181794,37.912114,6923.073276,178.823,-19.892,184.431
4.1249,128.181792,37.912068,6921.8421888,178.986,-20.078,184.394
4.1415,128.18179,37.912022,6920.5958616,179.145,-20.263,184.357
4.1583,128.181787,37.911976,6919.3339896,179.3,-20.447,184.322
4.175,128.181785,37.91193,6918.0568776,179.452,-20.63,184.286
4.1917,128.181783,37.911884,6916.763916,179.601,-20.813,184.252
4.2084,128.181781,37.911837,6915.455714400001,179.747,-20.995,184.218
4.2251,128.181778,37.911791,6914.1322728000005,179.89,-21.176,184.184
4.2417,128.181776,37.911745,6912.7929816000005,-179.968,-21.357,184.152
4.2585,128.181774,37.9117,6911.438755200001,-179.83,-21.537,184.119
4.2752,128.181772,37.911654,6910.068679200001,-179.694,-21.717,184.088
4.2919,128.181769,37.911608,6908.6833632,-179.561,-21.896,184.057
4.3086,128.181767,37.911562,6907.2828072,-179.43,-22.075,184.027
4.3252,128.181765,37.911516,6905.866706400001,-179.301,-22.253,183.997
4.342,128.181763,37.91147,6904.435365600001,-179.173,-22.431,183.968
4.3587,128.181761,37.911424,6902.98848,-179.048,-22.609,183.94
4.3754,128.181758,37.911379,6901.5260496,-178.925,-22.786,183.912
4.3921,128.181756,37.911333,6900.048684000001,-178.804,-22.963,183.885
4.4088,128.181754,37.911287,6898.5554688,-178.684,-23.14,183.858
4.4254,128.181752,37.911242,6897.0473184,-178.567,-23.316,183.831
4.4422,128.181749,37.911196,6895.523623200001,-178.451,-23.492,183.805
4.4589,128.181747,37.911151,6893.9846880000005,-178.337,-23.668,183.78
4.4756,128.181745,37.911105,6892.430208,-178.225,-23.844,183.755
4.4923,128.181743,37.911059,6890.860488000001,-178.116,-24.02,183.73
4.5089,128.18174,37.911014,6889.275528,-178.008,-24.195,183.706
4.5256,128.181738,37.910969,6887.675328,-177.903,-24.37,183.682
4.5424,128.181736,37.910923,6886.059583200001,-177.8,-24.545,183.657
4.5591,128.181734,37.910878,6884.4285984,-177.699,-24.72,183.633
4.5758,128.181732,37.910833,6882.782373600001,-177.601,-24.895,183.608
4.5925,128.181729,37.910787,6881.1209088000005,-177.505,-25.07,183.583
4.6091,128.181727,37.910742,6879.4438992000005,-177.41,-25.244,183.558
4.6259,128.181725,37.910697,6877.751954400001,-177.319,-25.418,183.533
4.6426,128.181723,37.910652,6876.0444648,-177.229,-25.593,183.508
4.6593,128.181721,37.910607,6874.32204,-177.141,-25.767,183.482
4.676,128.181718,37.910562,6872.584070400001,-177.055,-25.941,183.457
4.6927,128.181716,37.910517,6870.830860800001,-176.971,-26.115,183.431
4.7093,128.181714,37.910472,6869.062715999999,-176.889,-26.288,183.406
4.7261,128.181712,37.910427,6867.2790264000005,-176.809,-26.462,183.38
4.7428,128.18171,37.910382,6865.480096800001,-176.731,-26.636,183.354
4.7595,128.181707,37.910337,6863.6662320000005,-176.655,-26.809,183.328
4.7762,128.181705,37.910292,6861.8368224000005,-176.58,-26.983,183.303
4.7928,128.181703,37.910247,6859.992477600001,-176.508,-27.156,183.277
4.8096,128.181701,37.910203,6858.132892800001,-176.438,-27.329,183.251
4.8263,128.181699,37.910158,6856.258068,-176.37,-27.502,183.225
4.843,128.181697,37.910113,6854.3680032,-176.303,-27.676,183.199
4.8597,128.181695,37.910069,6852.4630032000005,-176.239,-27.849,183.173
4.8764,128.181693,37.910024,6850.5427632,-176.176,-28.022,183.146
4.893,128.181691,37.909979,6848.607283200001,-176.116,-28.194,183.12
4.9098,128.181688,37.909935,6846.6565632,-176.057,-28.367,183.094
4.9265,128.181686,37.909891,6844.6909080000005,-176.001,-28.54,183.068
4.9432,128.181684,37.909846,6842.7103176,-175.946,-28.713,183.042
4.9599,128.181682,37.909802,6840.714182400001,-175.893,-28.885,183.016
4.9765,128.18168,37.909758,6838.703112,-175.842,-29.058,182.99
4.9932,128.181678,37.909713,6836.6771064,-175.793,-29.231,182.964
5.01,128.181676,37.909669,6834.635860800001,-175.746,-29.403,182.938
5.0267,128.181674,37.909625,6832.57968,-175.701,-29.576,182.912
5.0434,128.181672,37.909581,6830.508259200001,-175.657,-29.748,182.886
5.0601,128.18167,37.909537,6828.4219032,-175.616,-29.921,182.86
5.0767,128.181668,37.909493,6826.3203072,-175.576,-30.093,182.834
5.0935,128.181666,37.909449,6824.203776,-175.538,-30.265,182.808
5.1102,128.181664,37.909405,6822.0723096,-175.501,-30.438,182.782
5.1269,128.181662,37.909361,6819.925908,-175.467,-30.61,182.756
5.1436,128.18166,37.909317,6817.7642663999995,-175.434,-30.782,182.73
5.1602,128.181658,37.909274,6815.5879944,-175.402,-30.954,182.705
5.1769,128.181657,37.90923,6813.3964824,-175.373,-31.127,182.679
5.1937,128.181655,37.909186,6811.1900352,-175.345,-31.299,182.654
5.2104,128.181653,37.909143,6808.9686528,-175.318,-31.471,182.628
5.2271,128.181651,37.909099,6806.7323352,-175.293,-31.643,182.603
5.2438,128.181649,37.909055,6804.4813872,-175.27,-31.815,182.577
5.2604,128.181647,37.909012,6802.2151992,-175.248,-31.987,182.552
5.2772,128.181645,37.908969,6799.9340760000005,-175.228,-32.159,182.527
5.2939,128.181644,37.908925,6797.6383224,-175.208,-32.331,182.502
5.3106,128.181642,37.908882,6795.327328800001,-175.191,-32.503,182.477
5.3273,128.18164,37.908839,6793.0017048,-175.174,-32.675,182.452
5.3439,128.181638,37.908796,6790.6611456,-175.159,-32.847,182.428
5.3606,128.181636,37.908752,6788.305956000001,-175.145,-33.019,182.403
5.3774,128.181635,37.908709,6785.9358312,-175.133,-33.191,182.379
5.3941,128.181633,37.908666,6783.5507712,-175.121,-33.363,182.354
5.4108,128.181631,37.908623,6781.1510808,-175.111,-33.535,182.33
5.4275,128.181629,37.90858,6778.736455200001,-175.102,-33.707,182.306
5.4441,128.181628,37.908538,6776.3071992000005,-175.094,-33.879,182.282
5.4609,128.181626,37.908495,6773.863008,-175.087,-34.051,182.258
5.4776,128.181624,37.908452,6771.4041864,-175.081,-34.223,182.234
5.4943,128.181623,37.908409,6768.9304296,-175.076,-34.395,182.211
5.511,128.181621,37.908367,6766.442347200001,-175.072,-34.567,182.187
5.5277,128.181619,37.908324,6763.9393296,-175.069,-34.739,182.164
5.5443,128.181618,37.908282,6761.4213768,-175.066,-34.911,182.141
5.5611,128.181616,37.908239,6758.8890984,-175.065,-35.082,182.118
5.5778,128.181614,37.908197,6756.3421896,-175.065,-35.254,182.095
5.5945,128.181613,37.908155,6753.7803456,-175.065,-35.426,182.072
5.6112,128.181611,37.908112,6751.204176,-175.066,-35.598,182.049
5.6278,128.18161,37.90807,6748.6130712,-175.067,-35.77,182.027
5.6445,128.181608,37.908028,6746.0076408,-175.07,-35.942,182.004
5.6613,128.181606,37.907986,6743.3872752,-175.073,-36.114,181.982
5.678,128.181605,37.907944,6740.752584000001,-175.077,-36.286,181.96
5.6947,128.181603,37.907902,6738.1032624,-175.081,-36.458,181.938
5.7114,128.181602,37.90786,6735.439615200001,-175.086,-36.629,181.916
5.728,128.1816,37.907818,6732.761032800001,-175.091,-36.801,181.895
5.7448,128.181599,37.907776,6730.068124800001,-175.097,-36.973,181.873
5.7615,128.181597,37.907735,6727.3605864,-175.104,-37.145,181.852
5.7782,128.181596,37.907693,6724.6387224,-175.111,-37.317,181.831
5.7949,128.181595,37.907651,6721.902532800001,-175.118,-37.489,181.809
5.8115,128.181593,37.90761,6719.151408,-175.126,-37.661,181.789
5.8282,128.181592,37.907568,6716.3862624,-175.134,-37.833,181.768
5.845,128.18159,37.907527,6713.6064864,-175.143,-38.005,181.747
5.8617,128.181589,37.907486,6710.8123848,-175.152,-38.177,181.727
5.8784,128.181588,37.907444,6708.0036528,-175.161,-38.349,181.706
5.8951,128.181586,37.907403,6705.1805952,-175.171,-38.521,181.686
5.9117,128.181585,37.907362,6702.3435168,-175.181,-38.693,181.666
5.9285,128.181583,37.907321,6699.491808,-175.192,-38.865,181.646
5.9452,128.181582,37.90728,6696.625773600001,-175.202,-39.037,181.626
5.9619,128.181581,37.907239,6693.745413600001,-175.213,-39.21,181.606
5.9786,128.18158,37.907198,6690.850728,-175.225,-39.382,181.587
5.9952,128.181578,37.907157,6687.9417168,-175.236,-39.554,181.567
6.0119,128.181577,37.907117,6685.0183799999995,-175.248,-39.726,181.548
6.0287,128.181576,37.907076,6682.081022400001,-175.259,-39.898,181.529
6.0454,128.181574,37.907035,6679.1290344,-175.271,-40.07,181.51
6.0621,128.181573,37.906995,6676.1630256,-175.283,-40.243,181.491
6.0788,128.181572,37.906954,6673.1829960000005,-175.296,-40.415,181.472
6.0954,128.181571,37.906914,6670.1886408,-175.308,-40.587,181.454
6.1121,128.18157,37.906874,6667.17996,-175.321,-40.759,181.435
6.1289,128.181568,37.906834,6664.1572584000005,-175.334,-40.932,181.417
6.1456,128.181567,37.906793,6661.1202312000005,-175.346,-41.104,181.399
6.1623,128.181566,37.906753,6658.0691832,-175.359,-41.277,181.381
6.179,128.181565,37.906713,6655.004114400001,-175.372,-41.449,181.363
6.1956,128.181564,37.906673,6651.924720000001,-175.385,-41.621,181.345
6.2124,128.181563,37.906633,6648.8313048,-175.399,-41.794,181.327
6.2291,128.181562,37.906594,6645.723868800001,-175.412,-41.966,181.309
6.2458,128.181561,37.906554,6642.602412,-175.425,-42.139,181.292
6.2625,128.181559,37.906514,6639.466934399999,-175.438,-42.311,181.274
6.2791,128.181558,37.906475,6636.317436,-175.451,-42.484,181.257
6.2958,128.181557,37.906435,6633.1539168,-175.465,-42.657,181.24
6.3126,128.181556,37.906396,6629.9763768,-175.478,-42.829,181.223
6.3293,128.181555,37.906356,6626.784815999999,-175.491,-43.002,181.206
6.346,128.181554,37.906317,6623.5795392,-175.505,-43.175,181.189
6.3627,128.181553,37.906278,6620.3602416,-175.518,-43.347,181.172
6.3793,128.181552,37.906239,6617.1269232,-175.531,-43.52,181.156
6.3961,128.181551,37.9062,6613.879584000001,-175.545,-43.693,181.139
6.4128,128.18155,37.906161,6610.6188336000005,-175.558,-43.866,181.123
6.4295,128.181549,37.906122,6607.3437576,-175.571,-44.039,181.106
6.4462,128.181549,37.906083,6604.054965600001,-175.584,-44.211,181.09
6.4628,128.181548,37.906044,6600.7524576,-175.597,-44.384,181.074
6.4795,128.181547,37.906006,6597.4362336,-175.61,-44.557,181.058
6.4963,128.181546,37.905967,6594.1059888,-175.623,-44.73,181.042
6.513,128.181545,37.905929,6590.762028,-175.636,-44.903,181.026
6.5297,128.181544,37.90589,6587.404351200001,-175.649,-45.076,181.01
6.5464,128.181543,37.905852,6584.0329584,-175.661,-45.249,180.994
6.5631,128.181542,37.905814,6580.648154400001,-175.674,-45.423,180.979
6.5798,128.181541,37.905776,6577.2493296,-175.687,-45.596,180.963
6.5965,128.181541,37.905737,6573.8367888,-175.699,-45.769,180.948
6.6132,128.18154,37.905699,6570.410532000001,-175.712,-45.942,180.932
6.6299,128.181539,37.905661,6566.970864000001,-175.724,-46.115,180.917
6.6466,128.181538,37.905624,6563.5174799999995,-175.736,-46.289,180.902
6.6633,128.181537,37.905586,6560.0506847999995,-175.748,-46.462,180.886
6.68,128.181537,37.905548,6556.5701736,-175.76,-46.635,180.871
6.6967,128.181536,37.905511,6553.0759464,-175.772,-46.809,180.856
6.7134,128.181535,37.905473,6549.568308,-175.784,-46.982,180.841
6.7301,128.181534,37.905436,6546.0472584,-175.796,-47.156,180.826
6.7468,128.181534,37.905398,6542.5124928000005,-175.807,-47.329,180.811
6.7635,128.181533,37.905361,6538.964316,-175.819,-47.503,180.797
6.7802,128.181532,37.905324,6535.402728000001,-175.83,-47.676,180.782
6.7969,128.181532,37.905287,6531.827728800001,-175.841,-47.85,180.767
6.8136,128.181531,37.90525,6528.2393184,-175.852,-48.024,180.752
6.8303,128.18153,37.905213,6524.637496800001,-175.863,-48.197,180.738
6.847,128.18153,37.905176,6521.022264,-175.874,-48.371,180.723
6.8637,128.181529,37.905139,6517.393924800001,-175.885,-48.545,180.709
6.8804,128.181528,37.905103,6513.751869600001,-175.895,-48.719,180.694
6.8971,128.181528,37.905066,6510.096708,-175.906,-48.893,180.68
6.9138,128.181527,37.90503,6506.42844,-175.916,-49.066,180.666
6.9305,128.181527,37.904993,6502.746456000001,-175.926,-49.24,180.651
6.9472,128.181526,37.904957,6499.051670400001,-175.936,-49.414,180.637
6.9639,128.181525,37.904921,6495.3431688,-175.946,-49.588,180.623
6.9806,128.181525,37.904885,6491.621865600001,-175.956,-49.762,180.609
6.9973,128.181524,37.904849,6487.8871512000005,-175.966,-49.937,180.595
7.014,128.181524,37.904813,6484.1396352,-175.975,-50.111,180.58
7.0307,128.181523,37.904777,6480.378708,-175.985,-50.285,180.566
7.0474,128.181523,37.904741,6476.6046744000005,-175.994,-50.459,180.552
7.0641,128.181522,37.904706,6472.8175344,-176.003,-50.633,180.538
7.0808,128.181522,37.90467,6469.017288000001,-176.011,-50.808,180.524
7.0975,128.181521,37.904635,6465.2039352,-176.02,-50.982,180.51
7.1142,128.181521,37.904599,6461.3777808,-176.029,-51.156,180.496
7.1309,128.18152,37.904564,6457.538520000001,-176.037,-51.331,180.482
7.1476,128.18152,37.904529,6453.6861528,-176.045,-51.505,180.468
7.1643,128.18152,37.904494,6449.820984000001,-176.053,-51.68,180.454
7.181,128.181519,37.904459,6445.9430136,-176.061,-51.854,180.441
7.1977,128.181519,37.904424,6442.0519368000005,-176.069,-52.029,180.427
7.2144,128.181518,37.904389,6438.1480584,-176.076,-52.204,180.413
7.2311,128.181518,37.904354,6434.231073600001,-176.084,-52.378,180.399
7.2478,128.181518,37.90432,6430.301592000001,-176.091,-52.553,180.385
7.2645,128.181517,37.904285,6426.359004,-176.098,-52.728,180.371
7.2812,128.181517,37.904251,6422.403919200001,-176.105,-52.903,180.357
7.2979,128.181517,37.904217,6418.435728,-176.112,-53.078,180.343
7.3146,128.181516,37.904182,6414.45504,-176.118,-53.253,180.33
7.3313,128.181516,37.904148,6410.4615504,-176.125,-53.427,180.316
7.348,128.181516,37.904114,6406.455564000001,-176.131,-53.602,180.302
7.3647,128.181515,37.90408,6402.4367760000005,-176.137,-53.778,180.288
7.3814,128.181515,37.904047,6398.4051864,-176.143,-53.953,180.274
7.3981,128.181515,37.904013,6394.3611,-176.149,-54.128,180.26
7.4148,128.181514,37.903979,6390.3045168,-176.155,-54.303,180.246
7.4315,128.181514,37.903946,6386.235132000001,-176.161,-54.478,180.232
7.4482,128.181514,37.903912,6382.1535552000005,-176.166,-54.654,180.218
7.4649,128.181514,37.903879,6378.0591768,-176.171,-54.829,180.204
7.4816,128.181513,37.903846,6373.9523016,-176.176,-55.004,180.19
7.4983,128.181513,37.903813,6369.8329296,-176.181,-55.18,180.176
7.515,128.181513,37.90378,6365.701365600001,-176.186,-55.355,180.162
7.5317,128.181513,37.903747,6361.557304800001,-176.191,-55.531,180.148
7.5484,128.181513,37.903714,6357.4007472,-176.195,-55.706,180.134
7.5651,128.181512,37.903681,6353.231997600001,-176.199,-55.882,180.12
7.5818,128.181512,37.903649,6349.0507512,-176.203,-56.058,180.106
7.5985,128.181512,37.903616,6344.8573128,-176.207,-56.233,180.092
7.6152,128.181512,37.903584,6340.6513776,-176.211,-56.409,180.077
7.6319,128.181512,37.903552,6336.4335552,-176.215,-56.585,180.063
7.6486,128.181512,37.90352,6332.203236,-176.218,-56.761,180.049
7.6653,128.181512,37.903487,6327.960724800001,-176.221,-56.937,180.035
7.682,128.181511,37.903456,6323.7063264,-176.225,-57.113,180.02
7.6987,128.181511,37.903424,6319.4394312,-176.227,-57.289,180.006
7.7154,128.181511,37.903392,6315.1606488,-176.23,-57.465,179.991
7.7321,128.181511,37.90336,6310.869674400001,-176.233,-57.641,179.977
7.7488,128.181511,37.903329,6306.566508,-176.235,-57.817,179.962
7.7655,128.181511,37.903297,6302.2517592,-176.237,-57.993,179.948
7.7822,128.181511,37.903266,6297.9245136,-176.239,-58.169,179.933
7.7989,128.181511,37.903235,6293.5856856,-176.241,-58.346,179.918
7.8156,128.181511,37.903204,6289.234665600001,-176.243,-58.522,179.903
7.8323,128.181511,37.903173,6284.8717584000005,-176.244,-58.699,179.888
7.849,128.181511,37.903142,6280.496964000001,-176.246,-58.875,179.873
7.8657,128.181511,37.903111,6276.110587200001,-176.247,-59.052,179.858
7.8824,128.181511,37.903081,6271.7120184000005,-176.248,-59.228,179.843
7.8991,128.181511,37.90305,6267.3018672,-176.249,-59.405,179.828
7.9158,128.181511,37.90302,6262.879828800001,-176.249,-59.581,179.813
7.9325,128.181511,37.902989,6258.446208,-176.25,-59.758,179.797
7.9492,128.181511,37.902959,6254.0007000000005,-176.25,-59.935,179.782
7.9659,128.181511,37.902929,6249.5439144,-176.25,-60.112,179.767
7.9826,128.181511,37.902899,6245.074936800001,-176.25,-60.289,179.751
7.9993,128.181511,37.902869,6240.5946816000005,-176.249,-60.466,179.735
8.016,128.181511,37.90284,6236.102844,-176.249,-60.643,179.72
8.0327,128.181512,37.90281,6231.599424000001,-176.248,-60.82,179.704
8.0494,128.181512,37.902781,6227.0844216,-176.247,-60.997,179.688
8.0661,128.181512,37.902751,6222.557836800001,-176.246,-61.174,179.672
8.0828,128.181512,37.902722,6218.019974400001,-176.245,-61.351,179.655
8.0994,128.181512,37.902693,6213.4705296,-176.243,-61.528,179.639
8.1161,128.181512,37.902664,6208.9098072,-176.241,-61.706,179.623
8.1329,128.181512,37.902635,6204.3378072,-176.239,-61.883,179.606
8.1496,128.181513,37.902606,6199.7545296,-176.237,-62.061,179.59
8.1663,128.181513,37.902577,6195.159669600001,-176.235,-62.238,179.573
8.183,128.181513,37.902549,6190.553836800001,-176.232,-62.416,179.556
8.1997,128.181513,37.90252,6185.9364216,-176.229,-62.593,179.539
8.2164,128.181513,37.902492,6181.308033600001,-176.226,-62.771,179.522
8.2331,128.181513,37.902464,6176.668368000001,-176.223,-62.949,179.505
8.2498,128.181514,37.902436,6172.0177296,-176.22,-63.126,179.487
8.2665,128.181514,37.902408,6167.3561184,-176.216,-63.304,179.47
8.2831,128.181514,37.90238,6162.683229599999,-176.212,-63.482,179.452
8.2998,128.181514,37.902352,6157.999368000001,-176.208,-63.66,179.434
8.3166,128.181515,37.902325,6153.3045336000005,-176.204,-63.838,179.416
8.3333,128.181515,37.902297,6148.5984216,-176.199,-64.016,179.398
8.35,128.181515,37.90227,6143.881641600001,-176.194,-64.194,179.38
8.3667,128.181515,37.902243,6139.154193599999,-176.189,-64.372,179.361
8.3834,128.181516,37.902215,6134.415468,-176.184,-64.55,179.342
8.4001,128.181516,37.902188,6129.666379200001,-176.178,-64.729,179.324
8.4168,128.181516,37.902162,6124.9060128,-176.172,-64.907,179.304
8.4335,128.181517,37.902135,6120.1352832,-176.166,-65.085,179.285
8.4502,128.181517,37.902108,6115.3535808,-176.16,-65.264,179.266
8.4668,128.181517,37.902082,6110.561515200001,-176.154,-65.442,179.246
8.4835,128.181518,37.902055,6105.758476800001,-176.147,-65.621,179.227
8.5003,128.181518,37.902029,6100.9450752,-176.14,-65.8,179.207
8.517,128.181518,37.902003,6096.1207008,-176.132,-65.978,179.186
8.5337,128.181519,37.901977,6091.286268,-176.125,-66.157,179.166
8.5504,128.181519,37.901951,6086.4411672,-176.117,-66.336,179.145
8.5671,128.18152,37.901925,6081.5853984,-176.108,-66.515,179.124
8.5838,128.18152,37.9019,6076.7195712,-176.1,-66.693,179.103
8.6005,128.18152,37.901874,6071.843076,-176.091,-66.872,179.082
8.6172,128.181521,37.901849,6066.9562176,-176.082,-67.051,179.06
8.6339,128.181521,37.901824,6062.0593008000005,-176.073,-67.231,179.039
8.6505,128.181522,37.901799,6057.151715999999,-176.063,-67.41,179.016
8.6672,128.181522,37.901774,6052.2340728,-176.053,-67.589,178.994
8.684,128.181522,37.901749,6047.3063712,-176.042,-67.768,178.971
8.7007,128.181523,37.901724,6042.368306400001,-176.032,-67.947,178.949
8.7174,128.181523,37.9017,6037.420488000001,-176.021,-68.127,178.925
8.7341,128.181524,37.901675,6032.462306400001,-176.009,-68.306,178.902
8.7508,128.181524,37.901651,6027.4940664,-175.998,-68.486,178.878
8.7675,128.181525,37.901627,6022.515768,-175.986,-68.665,178.854
8.7842,128.181525,37.901603,6017.527411200001,-175.973,-68.845,178.83
8.8009,128.181526,37.901579,6012.529300800001,-175.96,-69.025,178.805
8.8176,128.181526,37.901555,6007.521436800001,-175.947,-69.204,178.78
8.8342,128.181527,37.901531,6002.5035144,-175.934,-69.384,178.754
8.8509,128.181527,37.901508,5997.475838400001,-175.92,-69.564,178.728
8.8676,128.181528,37.901485,5992.438408800001,-175.905,-69.744,178.702
8.8844,128.181528,37.901461,5987.3912256,-175.89,-69.924,178.676
8.9011,128.181529,37.901438,5982.3342888,-175.875,-70.104,178.649
8.9178,128.18153,37.901415,5977.2679032,-175.86,-70.284,178.622
8.9345,128.18153,37.901392,5972.1914592,-175.844,-70.464,178.594
8.9512,128.181531,37.90137,5967.1058712,-175.828,-70.644,178.566
8.9679,128.181531,37.901347,5962.0105296,-175.811,-70.825,178.537
8.9846,128.181532,37.901325,5956.906044,-175.794,-71.005,178.508
9.0013,128.181532,37.901302,5951.7918048,-175.777,-71.185,178.479
9.0179,128.181533,37.90128,5946.6681168,-175.758,-71.366,178.449
9.0346,128.181534,37.901258,5941.5352848,-175.74,-71.546,178.418
9.0513,128.181534,37.901236,5936.3930040000005,-175.721,-71.727,178.388
9.0681,128.181535,37.901215,5931.241579200001,-175.701,-71.908,178.356
9.0848,128.181536,37.901193,5926.0807056,-175.681,-72.088,178.324
9.1015,128.181536,37.901172,5920.910688000001,-175.66,-72.269,178.292
9.1182,128.181537,37.90115,5915.7315264,-175.639,-72.45,178.259
9.1349,128.181538,37.901129,5910.5435256,-175.617,-72.631,178.225
9.1516,128.181538,37.901108,5905.346076,-175.594,-72.812,178.191
9.1683,128.181539,37.901087,5900.139787200001,-175.571,-72.993,178.156
9.185,128.18154,37.901066,5894.9246592,-175.547,-73.174,178.12
9.2016,128.18154,37.901046,5889.7003872000005,-175.522,-73.355,178.084
9.2183,128.181541,37.901025,5884.467276,-175.497,-73.536,178.047
9.235,128.181542,37.901005,5879.225325599999,-175.471,-73.717,178.009
9.2518,128.181542,37.900985,5873.9748408000005,-175.444,-73.899,177.971
9.2685,128.181543,37.900965,5868.715212,-175.417,-74.08,177.932
9.2852,128.181544,37.900945,5863.4470488,-175.388,-74.262,177.892
9.3019,128.181545,37.900925,5858.1703512,-175.359,-74.443,177.852
9.3186,128.181545,37.900906,5852.8848144,-175.33,-74.625,177.81
9.3353,128.181546,37.900886,5847.590743199999,-175.299,-74.806,177.768
9.352,128.181547,37.900867,5842.2881376000005,-175.268,-74.988,177.725
9.3687,128.181548,37.900848,5836.9773024,-175.235,-75.17,177.68
9.3854,128.181548,37.900829,5831.657628000001,-175.202,-75.351,177.635
9.402,128.181549,37.90081,5826.329724,-175.168,-75.533,177.589
9.4187,128.18155,37.900791,5820.9935904,-175.132,-75.715,177.542
9.4355,128.181551,37.900772,5815.6492272000005,-175.096,-75.897,177.494
9.4522,128.181551,37.900754,5810.2963296,-175.058,-76.079,177.444
9.4689,128.181552,37.900736,5804.9355072,-175.019,-76.261,177.394
9.4856,128.181553,37.900717,5799.566455200001,-174.979,-76.443,177.342
9.5023,128.181554,37.900699,5794.189173600001,-174.938,-76.625,177.289
9.519,128.181555,37.900681,5788.8039672,-174.896,-76.807,177.234
9.5357,128.181556,37.900664,5783.410836,-174.852,-76.989,177.179
9.5524,128.181556,37.900646,5778.0094751999995,-174.806,-77.171,177.121
9.5691,128.181557,37.900629,5772.6004944,-174.759,-77.353,177.063
9.5857,128.181558,37.900612,5767.1835888,-174.711,-77.536,177.002
9.6024,128.181559,37.900594,5761.7587584,-174.661,-77.718,176.941
9.6192,128.18156,37.900577,5756.326308,-174.609,-77.9,176.877
9.6359,128.181561,37.900561,5750.885932800001,-174.556,-78.083,176.812
9.6526,128.181562,37.900544,5745.437937600001,-174.501,-78.265,176.745
9.6693,128.181562,37.900527,5739.9823224,-174.444,-78.448,176.675
9.686,128.181563,37.900511,5734.519392,-174.385,-78.631,176.604
9.7027,128.181564,37.900495,5729.048841600001,-174.324,-78.813,176.531
9.7194,128.181565,37.900479,5723.5706712,-174.26,-78.996,176.455
9.7361,128.181566,37.900463,5718.0851856,-174.194,-79.179,176.377
9.7528,128.181567,37.900447,5712.5923848,-174.126,-79.361,176.297
9.7694,128.181568,37.900432,5707.0922688,-174.055,-79.544,176.214
9.7861,128.181569,37.900416,5701.5848376,-173.982,-79.727,176.128
9.8029,128.18157,37.900401,5696.0700912,-173.905,-79.91,176.039
9.8196,128.181571,37.900386,5690.5483343999995,-173.826,-80.093,175.947
9.8363,128.181572,37.900371,5685.0195672,-173.743,-80.276,175.852
9.853,128.181573,37.900356,5679.4834848,-173.657,-80.459,175.753
9.8697,128.181574,37.900341,5673.9406968,-173.567,-80.642,175.651
9.8864,128.181575,37.900327,5668.3908984,-173.473,-80.825,175.545
9.9031,128.181575,37.900312,5662.8340896,-173.376,-81.009,175.435
9.9198,128.181576,37.900298,5657.270270400001,-173.274,-81.192,175.32
9.9365,128.181577,37.900284,5651.700050400001,-173.168,-81.375,175.201
9.9531,128.181578,37.90027,5646.1228200000005,-173.056,-81.558,175.077
9.9698,128.181579,37.900256,5640.5391887999995,-172.94,-81.742,174.948
9.9865,128.18158,37.900243,5634.948547200001,-172.818,-81.925,174.813
10.0033,128.181581,37.900229,5629.3515048,-172.69,-82.108,174.672
10.02,128.181582,37.900216,5623.748061599999,-172.556,-82.292,174.525
10.0367,128.181583,37.900203,5618.1379128,-172.414,-82.475,174.37
10.0534,128.181585,37.90019,5612.521668,-172.266,-82.659,174.209
10.0701,128.181586,37.900177,5606.8987176,-172.109,-82.842,174.039
10.0868,128.181587,37.900165,5601.2696712,-171.944,-83.025,173.86
10.1035,128.181588,37.900152,5595.6345288,-171.769,-83.209,173.673
10.1202,128.181589,37.90014,5589.9929856,-171.584,-83.392,173.475
10.1368,128.18159,37.900128,5584.3453464,-171.389,-83.576,173.266
10.1535,128.181591,37.900116,5578.691611200001,-171.181,-83.759,173.045
10.1702,128.181592,37.900104,5573.03178,-170.961,-83.942,172.812
10.187,128.181593,37.900092,5567.3658528,-170.727,-84.126,172.564
10.2037,128.181594,37.900081,5561.6944392,-170.477,-84.309,172.301
10.2204,128.181595,37.900069,5556.0169295999995,-170.211,-84.492,172.02
10.2371,128.181596,37.900058,5550.333628800001,-169.925,-84.676,171.72
10.2538,128.181597,37.900047,5544.6445368,-169.618,-84.859,171.4
10.2705,128.181598,37.900036,5538.9496536,-169.289,-85.042,171.056
10.2872,128.181599,37.900026,5533.249284,-168.933,-85.225,170.686
10.3039,128.181601,37.900015,5527.543428000001,-168.548,-85.407,170.287
10.3205,128.181602,37.900005,5521.8320856,-168.131,-85.59,169.856
10.3372,128.181603,37.899994,5516.114952000001,-167.677,-85.772,169.388
10.3539,128.181604,37.899984,5510.3926368,-167.181,-85.954,168.878
10.3707,128.181605,37.899975,5504.66514,-166.638,-86.136,168.321
10.3874,128.181606,37.899965,5498.9321568000005,-166.041,-86.318,167.709
10.4041,128.181607,37.899955,5493.193992,-165.381,-86.499,167.035
10.4208,128.181608,37.899946,5487.4506456,-164.649,-86.68,166.288
10.4375,128.181609,37.899937,5481.702422400001,-163.831,-86.86,165.455
10.4542,128.181611,37.899928,5475.9487128,-162.913,-87.04,164.522
10.4709,128.181612,37.899919,5470.1904312,-161.876,-87.218,163.469
10.4876,128.181613,37.89991,5464.426968000001,-160.695,-87.396,162.273
10.5042,128.181614,37.899901,5458.658628,-159.339,-87.573,160.903
10.5209,128.181615,37.899893,5452.885716,-157.771,-87.748,159.319
10.5376,128.181616,37.899885,5447.107927200001,-155.939,-87.921,157.471
10.5544,128.181618,37.899877,5441.3252616,-153.775,-88.091,155.292
10.5711,128.181619,37.899869,5435.5383288,-151.189,-88.258,152.691
10.5878,128.18162,37.899861,5429.746519200001,-148.06,-88.421,149.546
10.6045,128.181621,37.899854,5423.950442400001,-144.223,-88.579,145.693
10.6212,128.181622,37.899846,5418.1497936,-139.457,-88.728,140.912
10.6379,128.181623,37.899839,5412.344572800001,-133.476,-88.866,134.914
10.6546,128.181625,37.899832,5406.5350848,-125.939,-88.989,127.361
10.6713,128.181626,37.899825,5400.7216344,-116.536,-89.089,117.941
10.6879,128.181627,37.899818,5394.903612,-105.189,-89.16,106.578
10.7046,128.181628,37.899812,5389.0816272,-92.365,-89.192,93.737
10.7213,128.181629,37.899805,5383.25568,-79.176,-89.182,80.532
10.7381,128.181631,37.899799,5377.425465600001,-66.925,-89.131,68.264
10.7548,128.181632,37.899793,5371.591288799999,-56.442,-89.046,57.763
10.7715,128.181633,37.899787,5365.7534544,-47.904,-88.934,49.209
10.7882,128.181634,37.899782,5359.9116576,-41.092,-88.804,42.382
10.8049,128.181636,37.899776,5354.0662032,-35.669,-88.66,36.943
10.8216,128.181637,37.899771,5348.2167864,-31.315,-88.507,32.573
10.8383,128.181638,37.899765,5342.3640168,-27.775,-88.347,29.018
10.855,128.181639,37.89976,5336.5072848,-24.857,-88.182,26.084
10.8717,128.18164,37.899756,5330.6472,-22.416,-88.013,23.628
10.8883,128.181642,37.899751,5324.7837624,-20.347,-87.841,21.544
10.905,128.181643,37.899746,5318.916972,-18.57,-87.667,19.752
10.9218,128.181644,37.899742,5313.046828800001,-17.025,-87.491,18.193
10.9385,128.181645,37.899738,5307.173332800001,-15.664,-87.313,16.819
10.9552,128.181647,37.899734,5301.296484,-14.454,-87.135,15.596
10.9719,128.181648,37.89973,5295.416892,-13.368,-86.955,14.498
10.9886,128.181649,37.899727,5289.5339472000005,-12.385,-86.775,13.504
11.0053,128.18165,37.899723,5283.6479544,-11.488,-86.594,12.596
11.022,128.181652,37.89972,5277.7592184000005,-10.664,-86.412,11.762
11.0387,128.181653,37.899717,5271.8674344,-9.9,-86.23,10.989
11.0554,128.181654,37.899714,5265.9729072,-9.19,-86.047,10.27
11.072,128.181656,37.899711,5260.0756368,-8.527,-85.864,9.6
11.0887,128.181657,37.899708,5254.175623200001,-7.908,-85.68,8.973
11.1054,128.181658,37.899706,5248.2731711999995,-7.327,-85.496,8.385
11.1222,128.181659,37.899704,5242.3679759999995,-6.783,-85.312,7.835
11.1389,128.181661,37.899702,5236.460342400001,-6.273,-85.127,7.318
11.1556,128.181662,37.8997,5230.550270400001,-5.794,-84.941,6.833
11.1723,128.181663,37.899698,5224.6380648,-5.345,-84.756,6.379
11.189,128.181664,37.899697,5218.7234208,-4.924,-84.57,5.952
11.2057,128.181666,37.899695,5212.806338400001,-4.53,-84.383,5.553
11.2224,128.181667,37.899694,5206.8874272,-4.161,-84.197,5.18
11.2391,128.181668,37.899693,5200.9660776,-3.816,-84.01,4.832
11.2557,128.18167,37.899692,5195.0428992,-3.495,-83.823,4.508
11.2724,128.181671,37.899691,5189.117892,-3.196,-83.635,4.206
11.2891,128.181672,37.899691,5183.190751200001,-2.919,-83.447,3.926
11.3059,128.181673,37.899691,5177.2617816,-2.663,-83.259,3.668
11.3226,128.181675,37.899691,5171.331288,-2.427,-83.071,3.431
11.3393,128.181676,37.899691,5165.3989656,-2.21,-82.883,3.214
11.356,128.181677,37.899691,5159.4648144,-2.013,-82.694,3.016
11.3727,128.181679,37.899691,5153.529444,-1.833,-82.505,2.837
11.3894,128.18168,37.899692,5147.5925496,-1.671,-82.316,2.676
11.4061,128.181681,37.899693,5141.6538264,-1.525,-82.127,2.533
11.4228,128.181682,37.899694,5135.7141888,-1.396,-81.938,2.406
11.4394,128.181684,37.899695,5129.7730272,-1.281,-81.749,2.294
11.4561,128.181685,37.899696,5123.830646400001,-1.182,-81.559,2.198
11.4728,128.181686,37.899697,5117.887351200001,-1.096,-81.37,2.116
11.4896,128.181688,37.899699,5111.942836800001,-1.023,-81.18,2.047
11.5063,128.181689,37.899701,5105.9971032,-0.963,-80.99,1.992
11.523,128.18169,37.899703,5100.05076,-0.915,-80.801,1.948
11.5397,128.181691,37.899705,5094.103502399999,-0.877,-80.611,1.916
11.5564,128.181693,37.899707,5088.1553304,-0.85,-80.421,1.894
11.5731,128.181694,37.89971,5082.206244,-0.832,-80.23,1.882
11.5898,128.181695,37.899713,5076.2568528,-0.823,-80.04,1.879
11.6065,128.181696,37.899716,5070.306547200001,-0.821,-79.85,1.883
11.6231,128.181698,37.899719,5064.355936800001,-0.827,-79.66,1.895
11.6398,128.181699,37.899722,5058.4047168,-0.839,-79.469,1.913
11.6565,128.1817,37.899725,5052.453496800001,-0.856,-79.279,1.937
11.6733,128.181701,37.899729,5046.5016672,-0.878,-79.088,1.964
11.69,128.181703,37.899733,5040.549532800001,-0.905,-78.897,1.995
11.7067,128.181704,37.899737,5034.5973984,-0.934,-78.706,2.029
11.7234,128.181705,37.899741,5028.645264000001,-0.966,-78.515,2.065
11.7401,128.181706,37.899745,5022.693129599999,-0.998,-78.324,2.099
11.7568,128.181708,37.89975,5016.7409952,-1.029,-78.133,2.133
11.7735,128.181709,37.899755,5010.7888608,-1.057,-77.942,2.163
11.7902,128.18171,37.899759,5004.8370312,-1.083,-77.75,2.189
11.8068,128.181712,37.899765,4998.885811200001,-1.103,-77.559,2.209
11.8235,128.181713,37.89977,4992.9345912,-1.118,-77.367,2.222
11.8402,128.181714,37.899775,4986.9839808,-1.126,-77.176,2.226
11.857,128.181715,37.899781,4981.03398,-1.129,-76.984,2.221
11.8737,128.181717,37.899787,4975.0848936,-1.128,-76.792,2.209
11.8904,128.181718,37.899793,4969.136112,-1.125,-76.6,2.19
11.9071,128.181719,37.899799,4963.1882448,-1.122,-76.408,2.167
11.9238,128.18172,37.899805,4957.241292000001,-1.123,-76.216,2.141
11.9405,128.181722,37.899812,4951.2952536,-1.129,-76.024,2.114
11.9572,128.181723,37.899818,4945.3498248000005,-1.143,-75.839,2.087
11.9739,128.181724,37.899825,4939.4056152,-1.164,-75.667,2.062
11.9905,128.181726,37.899832,4933.462320000001,-1.195,-75.511,2.04
12.0072,128.181727,37.89984,4927.5199392,-1.233,-75.371,2.02
12.0239,128.181728,37.899847,4921.578777600001,-1.277,-75.245,2.001
12.0407,128.181729,37.899855,4915.6385304000005,-1.328,-75.13,1.981
12.0574,128.181731,37.899862,4909.699502400001,-1.384,-75.023,1.961
12.0741,128.181732,37.89987,4903.7613888000005,-1.445,-74.922,1.941
12.0908,128.181733,37.899879,4897.8244944,-1.512,-74.826,1.92
12.1075,128.181734,37.899887,4891.8888192,-1.582,-74.732,1.899
12.1242,128.181736,37.899895,4885.9540584,-1.657,-74.64,1.878
12.1409,128.181737,37.899904,4880.0205168,-1.735,-74.551,1.857
12.1576,128.181738,37.899913,4874.0881944,-1.816,-74.463,1.836
12.1743,128.181739,37.899922,4868.1564816,-1.898,-74.377,1.815
12.1909,128.181741,37.899931,4862.2262928,-1.981,-74.292,1.793
12.2076,128.181742,37.89994,4856.296713600001,-2.066,-74.209,1.77
12.2243,128.181743,37.89995,4850.3683536,-2.151,-74.127,1.747
12.2411,128.181744,37.899959,4844.440908,-2.238,-74.047,1.723
12.2578,128.181746,37.899969,4838.5143768,-2.328,-73.969,1.697
12.2745,128.181747,37.899979,4832.588760000001,-2.419,-73.893,1.671
12.2912,128.181748,37.899989,4826.664362400001,-2.513,-73.817,1.644
12.3079,128.181749,37.899999,4820.7405744,-2.609,-73.743,1.618
12.3246,128.181751,37.90001,4814.8177008,-2.706,-73.669,1.591
12.3413,128.181752,37.90002,4808.8957416,-2.803,-73.596,1.565
12.358,128.181753,37.900031,4802.974392,-2.9,-73.524,1.538
12.3746,128.181754,37.900041,4797.0539568,-2.996,-73.453,1.511
12.3913,128.181755,37.900052,4791.1341312,-3.091,-73.383,1.483
12.408,128.181757,37.900063,4785.2149152,-3.185,-73.314,1.456
12.4248,128.181758,37.900075,4779.2966136000005,-3.278,-73.246,1.427
12.4415,128.181759,37.900086,4773.3789216,-3.369,-73.179,1.399
12.4582,128.18176,37.900098,4767.4618392,-3.462,-73.114,1.369
12.4749,128.181761,37.900109,4761.5456712000005,-3.557,-73.05,1.338
12.4916,128.181762,37.900121,4755.629808,-3.652,-72.987,1.306
12.5083,128.181763,37.900133,4749.7148592,-3.75,-72.926,1.275
12.525,128.181765,37.900145,4743.8002152,-3.849,-72.865,1.244
12.5417,128.181766,37.900157,4737.8864856,-3.947,-72.805,1.214
12.5583,128.181767,37.900169,4731.9730608,-4.045,-72.746,1.185
12.575,128.181768,37.900182,4726.060245600001,-4.139,-72.687,1.155
12.5917,128.181769,37.900194,4720.1477352,-4.232,-72.63,1.126
12.6085,128.18177,37.900207,4714.2358344,-4.321,-72.573,1.096
12.6252,128.181771,37.90022,4708.3242384000005,-4.409,-72.516,1.067
12.6419,128.181772,37.900233,4702.413252,-4.495,-72.461,1.04
12.6586,128.181773,37.900246,4696.5025704,-4.581,-72.406,1.014
12.6753,128.181774,37.900259,4690.5924984,-4.668,-72.353,0.987
12.692,128.181775,37.900272,4684.6827312000005,-4.756,-72.302,0.957
12.7087,128.181776,37.900285,4678.7735736,-4.846,-72.253,0.928
12.7254,128.181777,37.900299,4672.8647208,-4.941,-72.204,0.899
12.742,128.181778,37.900312,4666.955868,-5.04,-72.156,0.874
12.7587,128.181779,37.900326,4661.0476248,-5.139,-72.108,0.851
12.7754,128.18178,37.90034,4655.1393816,-5.238,-72.06,0.83
12.7922,128.181781,37.900354,4649.2311384,-5.332,-72.012,0.812
12.8089,128.181782,37.900368,4643.3232,-5.419,-71.965,0.794
12.8256,128.181783,37.900382,4637.4152616,-5.501,-71.919,0.776
12.8423,128.181784,37.900396,4631.507628,-5.576,-71.875,0.758
12.859,128.181785,37.900411,4625.599384800001,-5.655,-71.857,0.747
12.8757,128.181786,37.900425,4619.6908368,-5.74,-71.869,0.745
12.8924,128.181786,37.900439,4613.7822888,-5.828,-71.898,0.749
12.9091,128.181787,37.900454,4607.873740800001,-5.915,-71.927,0.753
12.9257,128.181788,37.900469,4601.9651928,-6.0,-71.947,0.752
12.9424,128.181789,37.900484,4596.05634,-6.081,-71.954,0.744
12.9591,128.18179,37.900498,4590.1471824,-6.157,-71.948,0.733
12.9759,128.181791,37.900513,4584.2374152,-6.23,-71.932,0.721
12.9926,128.181791,37.900528,4578.3273432000005,-6.298,-71.91,0.711
13.0093,128.181792,37.900544,4572.4166616,-6.359,-71.885,0.702
13.026,128.181793,37.900559,4566.5050656,-6.413,-71.857,0.692
13.0427,128.181794,37.900574,4560.5931648,-6.458,-71.83,0.682
13.0594,128.181794,37.90059,4554.6806544,-6.496,-71.802,0.67
13.0761,128.181795,37.900605,4548.7675344,-6.529,-71.775,0.656
13.0928,128.181796,37.900621,4542.8535,-6.559,-71.747,0.642
13.1095,128.181797,37.900636,4536.938856,-6.589,-71.721,0.628
13.1262,128.181797,37.900652,4531.0229928,-6.628,-71.72,0.624
13.1429,128.181798,37.900668,4525.1059104,-6.68,-71.756,0.634
13.1596,128.181799,37.900683,4519.1879136,-6.74,-71.813,0.653
13.1763,128.181799,37.900699,4513.2690024,-6.798,-71.872,0.674
13.193,128.1818,37.900715,4507.3488720000005,-6.85,-71.918,0.69
13.2097,128.181801,37.900731,4501.4278272,-6.892,-71.947,0.7
13.2264,128.181801,37.900748,4495.5052584000005,-6.924,-71.958,0.705
13.2431,128.181802,37.900764,4489.5814704,-6.947,-71.958,0.705
13.2598,128.181803,37.90078,4483.6564632,-6.965,-71.952,0.7
13.2765,128.181803,37.900796,4477.7302368,-6.98,-71.943,0.69
13.2932,128.181804,37.900813,4471.8024864,-6.993,-71.933,0.679
13.3099,128.181804,37.900829,4465.873212,-7.009,-71.922,0.668
13.3266,128.181805,37.900845,4459.9424136,-7.028,-71.91,0.659
13.3433,128.181806,37.900862,4454.010396000001,-7.047,-71.896,0.651
13.36,128.181806,37.900879,4448.0765496,-7.066,-71.882,0.645
13.3767,128.181807,37.900895,4442.1411792,-7.082,-71.867,0.638
13.3934,128.181807,37.900912,4436.20398,-7.095,-71.851,0.631
13.4101,128.181808,37.900929,4430.2655616,-7.104,-71.835,0.623
13.4268,128.181808,37.900945,4424.3253144,-7.112,-71.819,0.614
13.4435,128.181809,37.900962,4418.3832384,-7.119,-71.803,0.606
13.4602,128.181809,37.900979,4412.4396384,-7.125,-71.787,0.597
13.4769,128.18181,37.900996,4406.4942096,-7.131,-71.771,0.589
13.4936,128.18181,37.901013,4400.5472568000005,-7.137,-71.755,0.581
13.5103,128.181811,37.90103,4394.5981704000005,-7.143,-71.739,0.574
13.527,128.181811,37.901047,4388.64756,-7.148,-71.724,0.567
13.5437,128.181812,37.901064,4382.6951208,-7.153,-71.709,0.56
13.5604,128.181812,37.901082,4376.7408528000005,-7.157,-71.694,0.553
13.5771,128.181813,37.901099,4370.784756,-7.161,-71.68,0.546
13.5938,128.181813,37.901116,4364.8268304,-7.165,-71.666,0.539
13.6105,128.181814,37.901134,4358.866771200001,-7.168,-71.652,0.532
13.6272,128.181814,37.901151,4352.9048832,-7.172,-71.638,0.526
13.6439,128.181814,37.901168,4346.9411664,-7.175,-71.624,0.52
13.6606,128.181815,37.901186,4340.9756208,-7.178,-71.611,0.513
13.6773,128.181815,37.901203,4335.007941600001,-7.181,-71.597,0.507
13.694,128.181816,37.901221,4329.0381288,-7.184,-71.584,0.502
13.7107,128.181816,37.901239,4323.066487200001,-7.187,-71.572,0.496
13.7274,128.181817,37.901256,4317.0930168,-7.189,-71.56,0.49
13.7441,128.181817,37.901274,4311.117108,-7.192,-71.548,0.485
13.7608,128.181817,37.901292,4305.1393704,-7.195,-71.536,0.479
13.7775,128.181818,37.901309,4299.159804,-7.2,-71.524,0.471
13.7942,128.181818,37.901327,4293.1781040000005,-7.207,-71.514,0.459
13.8109,128.181818,37.901345,4287.1942704,-7.219,-71.503,0.446
13.8276,128.181819,37.901363,4281.2083032,-7.238,-71.493,0.436
13.8443,128.181819,37.901381,4275.2202024,-7.261,-71.482,0.429
13.861,128.181819,37.901399,4269.229968000001,-7.287,-71.472,0.425
13.8777,128.18182,37.901417,4263.2372952000005,-7.311,-71.461,0.422
13.8944,128.18182,37.901435,4257.2424888000005,-7.331,-71.45,0.419
13.9111,128.18182,37.901453,4251.2455488000005,-7.347,-71.439,0.414
13.9278,128.181821,37.901472,4245.2461704,-7.36,-71.429,0.408
13.9445,128.181821,37.90149,4239.2446584,-7.371,-71.419,0.401
13.9612,128.181821,37.901508,4233.2410128,-7.384,-71.41,0.394
13.9779,128.181822,37.901526,4227.2349288,-7.397,-71.4,0.388
13.9946,128.181822,37.901545,4221.2264064,-7.413,-71.392,0.383
14.0113,128.181822,37.901563,4215.215750400001,-7.428,-71.383,0.379
14.028,128.181822,37.901581,4209.2029608,-7.443,-71.375,0.375
14.0447,128.181823,37.9016,4203.187428,-7.458,-71.367,0.371
14.0614,128.181823,37.901618,4197.1697616,-7.471,-71.359,0.367
14.0781,128.181823,37.901637,4191.1499616,-7.483,-71.351,0.362
14.0948,128.181823,37.901655,4185.1274184,-7.496,-71.343,0.358
14.1115,128.181824,37.901674,4179.102741600001,-7.508,-71.335,0.354
14.1282,128.181824,37.901692,4173.0756264,-7.521,-71.328,0.35
14.1449,128.181824,37.901711,4167.0460728,-7.533,-71.321,0.346
14.1616,128.181824,37.90173,4161.0140808,-7.546,-71.314,0.342
14.1783,128.181825,37.901748,4154.9796504000005,-7.559,-71.306,0.339
14.195,128.181825,37.901767,4148.9427816,-7.571,-71.3,0.335
14.2117,128.181825,37.901786,4142.9034744,-7.584,-71.293,0.331
14.2284,128.181825,37.901804,4136.8617288,-7.596,-71.287,0.328
14.2451,128.181825,37.901823,4130.8175448,-7.609,-71.281,0.324
14.2618,128.181826,37.901842,4124.7709224,-7.623,-71.275,0.321
14.2785,128.181826,37.901861,4118.7218616,-7.637,-71.269,0.317
14.2952,128.181826,37.90188,4112.6703624,-7.651,-71.263,0.314
14.3119,128.181826,37.901899,4106.61612,-7.664,-71.257,0.312
14.3286,128.181826,37.901918,4100.559744,-7.678,-71.25,0.309
14.3453,128.181826,37.901937,4094.5006248,-7.691,-71.244,0.306
14.362,128.181827,37.901956,4088.4387624000005,-7.704,-71.239,0.303
14.3787,128.181827,37.901975,4082.3747664,-7.717,-71.233,0.299
14.3954,128.181827,37.901994,4076.3080272,-7.731,-71.228,0.296
14.4121,128.181827,37.902013,4070.2388496000003,-7.746,-71.223,0.293
14.4288,128.181827,37.902032,4064.1669288,-7.763,-71.219,0.29
14.4455,128.181827,37.902051,4058.0925696,-7.78,-71.214,0.287
14.4622,128.181828,37.90207,4052.015772,-7.798,-71.209,0.285
14.4789,128.181828,37.90209,4045.9362312,-7.816,-71.204,0.282
14.4956,128.181828,37.902109,4039.8539472,-7.834,-71.2,0.28
14.5123,128.181828,37.902128,4033.7692248000003,-7.852,-71.195,0.277
14.529,128.181828,37.902147,4027.682064,-7.871,-71.191,0.274
14.5457,128.181828,37.902167,4021.5921600000006,-7.891,-71.186,0.271
14.5624,128.181828,37.902186,4015.4998176,-7.913,-71.182,0.268
14.5791,128.181828,37.902205,4009.4047320000004,-7.935,-71.178,0.266
14.5958,128.181828,37.902225,4003.3069032000003,-7.961,-71.174,0.263
14.6125,128.181829,37.902244,3997.206636,-7.989,-71.171,0.259
14.6292,128.181829,37.902264,3991.1039304000005,-8.02,-71.168,0.255
14.6459,128.181829,37.902283,3984.9984816,-8.055,-71.165,0.251
14.6626,128.181829,37.902303,3978.8902896000004,-8.094,-71.161,0.249
14.6793,128.181829,37.902322,3972.7796592000004,-8.134,-71.158,0.247
14.696,128.181829,37.902342,3966.6662856,-8.175,-71.154,0.246
14.7127,128.181829,37.902361,3960.5501688000004,-8.217,-71.15,0.245
14.7294,128.181829,37.902381,3954.4316136,-8.259,-71.146,0.241
14.7461,128.181829,37.9024,3948.3109248,-8.312,-71.143,0.233
14.7628,128.181829,37.90242,3942.1862736000003,-8.355,-71.139,0.23
14.7795,128.181829,37.902439,3936.0588792000003,-8.393,-71.136,0.238
14.7962,128.181829,37.902459,3929.9290464000005,-8.421,-71.131,0.25
14.8129,128.181829,37.902479,3923.7961656,-8.432,-71.126,0.257
14.8296,128.181829,37.902498,3917.6605416,-8.425,-71.121,0.256
14.8463,128.181829,37.902518,3911.5221744,-8.406,-71.116,0.248
14.863,128.181829,37.902538,3905.3813688000005,-8.386,-71.111,0.238
14.8797,128.181829,37.902558,3899.2375152,-8.371,-71.106,0.231
14.8964,128.181829,37.902577,3893.0912232000005,-8.365,-71.101,0.228
14.9131,128.18183,37.902597,3886.9418832,-8.363,-71.095,0.227
14.9298,128.18183,37.902617,3880.7901048000003,-8.362,-71.089,0.226
14.9465,128.18183,37.902637,3874.6352784000005,-8.357,-71.083,0.224
14.9632,128.18183,37.902657,3868.4777088,-8.35,-71.077,0.22
14.9799,128.18183,37.902677,3862.3177008000002,-8.34,-71.07,0.215
14.9966,128.18183,37.902696,3856.1546448,-8.331,-71.064,0.211
15.0133,128.18183,37.902716,3849.9891504,-8.323,-71.057,0.206
15.03,128.18183,37.902736,3843.820608,-8.316,-71.05,0.203
15.0467,128.18183,37.902756,3837.6496272000004,-8.31,-71.044,0.2
15.0634,128.18183,37.902776,3831.4759032000006,-8.303,-71.037,0.196
15.0801,128.18183,37.902796,3825.2991312,-8.296,-71.029,0.192
15.0968,128.18183,37.902816,3819.1199208000003,-8.288,-71.022,0.188
15.1135,128.18183,37.902836,3812.9376624000006,-8.28,-71.015,0.184
15.1302,128.18183,37.902856,3806.7529656,-8.272,-71.008,0.18
15.1469,128.181829,37.902876,3800.5652208,-8.264,-71.0,0.176
15.1636,128.181829,37.902896,3794.3750376,-8.256,-70.992,0.172
15.1803,128.181829,37.902916,3788.1821112000002,-8.249,-70.985,0.168
15.197,128.181829,37.902937,3781.9861368,-8.241,-70.977,0.163
15.2137,128.181829,37.902957,3775.787724,-8.233,-70.969,0.159
15.2304,128.181829,37.902977,3769.586568,-8.225,-70.962,0.155
15.2471,128.181829,37.902997,3763.3826688000004,-8.216,-70.954,0.151
15.2638,128.181829,37.903017,3757.1757216,-8.208,-70.946,0.146
