Time,Longitude,Latitude,Altitude,Roll (deg),Pitch (deg),Yaw (deg)
0.0,128.181881,37.968463,7002.830292000001,0.0,-0.003,179.999
0.0167,128.181881,37.968418,7002.8116992000005,0.0,-0.012,180.0
0.0334,128.181881,37.968374,7002.7912776,0.087,-0.026,180.011
0.0501,128.181881,37.968329,7002.7690272,0.258,-0.042,180.034
0.0668,128.181881,37.968284,7002.744033600001,0.516,-0.061,180.064
0.0834,128.181881,37.968239,7002.716601600001,0.864,-0.082,180.097
0.1002,128.181881,37.968194,7002.6861216,1.3,-0.102,180.132
0.1169,128.181881,37.968149,7002.6522888,1.824,-0.121,180.167
0.1336,128.181881,37.968104,7002.6147984,2.432,-0.138,180.201
0.1503,128.181881,37.968059,7002.573345600001,3.122,-0.151,180.235
0.1669,128.181881,37.968014,7002.5273208,3.889,-0.162,180.267
0.1837,128.181881,37.967969,7002.4779432,4.732,-0.167,180.299
0.2004,128.181881,37.967923,7002.424908,5.646,-0.168,180.331
0.2171,128.181881,37.967878,7002.3679104,6.629,-0.163,180.362
0.2338,128.181881,37.967833,7002.3072552,7.678,-0.153,180.393
0.2505,128.181881,37.967788,7002.243247200001,8.789,-0.137,180.425
0.2672,128.181881,37.967743,7002.1758864,9.96,-0.115,180.457
0.2839,128.181881,37.967698,7002.1051728,11.189,-0.087,180.489
0.3006,128.181881,37.967653,7002.031411200001,12.472,-0.054,180.523
0.3172,128.181881,37.967608,7001.9546016,13.808,-0.015,180.558
0.3339,128.181881,37.967562,7001.8750488000005,15.194,0.028,180.595
0.3507,128.181881,37.967517,7001.7927528,16.629,0.083,180.636
0.3674,128.181881,37.967472,7001.708018400001,18.11,0.149,180.682
0.3841,128.181881,37.967427,7001.6211504,19.636,0.225,180.732
0.4008,128.181881,37.967382,7001.531844,21.204,0.309,180.786
0.4175,128.181881,37.967336,7001.441013600001,22.811,0.398,180.845
0.4342,128.181881,37.967291,7001.349268800001,24.437,0.491,180.907
0.4509,128.181881,37.967246,7001.2566096,26.061,0.588,180.971
0.4676,128.181881,37.967201,7001.1639504,27.667,0.689,181.037
0.4843,128.181881,37.967155,7001.071596000001,29.237,0.791,181.104
0.501,128.181881,37.96711,7000.979851200001,30.76,0.894,181.172
0.5176,128.181881,37.967065,7000.8893256,32.224,0.997,181.242
0.5344,128.181881,37.96702,7000.800019200001,33.621,1.098,181.312
0.5511,128.18188,37.966974,7000.712541600001,34.946,1.198,181.384
0.5678,128.18188,37.966929,7000.6275024,36.195,1.295,181.457
0.5845,128.18188,37.966884,7000.5445968,37.368,1.389,181.531
0.6012,128.18188,37.966838,7000.4647392,38.464,1.479,181.606
0.6179,128.181879,37.966793,7000.387320000001,39.484,1.563,181.68
0.6345,128.181879,37.966748,7000.312644,40.431,1.643,181.754
0.6513,128.181879,37.966702,7000.240711200001,41.309,1.717,181.828
0.6679,128.181878,37.966657,7000.1712168,42.119,1.786,181.9
0.6847,128.181878,37.966612,7000.1041608000005,42.867,1.849,181.97
0.7014,128.181877,37.966566,7000.039847999999,43.554,1.907,182.038
0.7181,128.181876,37.966521,6999.977364,44.257,1.956,182.108
0.7348,128.181876,37.966476,6999.9164040000005,44.97,1.998,182.177
0.7514,128.181875,37.96643,6999.8566632,45.676,2.036,182.244
0.7682,128.181874,37.966385,6999.799056000001,46.359,2.071,182.307
0.7848,128.181873,37.96634,6999.7435824,47.0,2.105,182.366
0.8016,128.181873,37.966294,6999.690547200001,47.585,2.139,182.421
0.8183,128.181872,37.966249,6999.6399504,48.108,2.174,182.474
0.835,128.181871,37.966204,6999.592096800001,48.568,2.21,182.524
0.8517,128.18187,37.966158,6999.5463768,48.971,2.247,182.573
0.8684,128.181868,37.966113,6999.503095200001,49.322,2.294,182.631
0.8851,128.181867,37.966068,6999.4619472,49.624,2.348,182.697
0.9018,128.181866,37.966022,6999.423847200001,49.876,2.407,182.766
0.9185,128.181865,37.965977,6999.3878808,50.077,2.465,182.834
0.9352,128.181863,37.965932,6999.3543528,50.227,2.521,182.898
0.9519,128.181862,37.965886,6999.3232632,50.328,2.572,182.956
0.9686,128.18186,37.965841,6999.2943072,50.382,2.618,183.008
0.9853,128.181859,37.965796,6999.2677896000005,50.394,2.657,183.055
1.002,128.181857,37.96575,6999.2431008,50.373,2.69,183.095
1.0187,128.181856,37.965705,6999.2205456,50.32,2.716,183.13
1.0353,128.181854,37.96566,6999.1995144,50.247,2.736,183.16
1.0521,128.181852,37.965614,6999.1803119999995,50.163,2.751,183.188
1.0688,128.18185,37.965569,6999.162328800001,50.074,2.76,183.213
1.0855,128.181848,37.965524,6999.145564800001,49.989,2.767,183.239
1.1022,128.181846,37.965478,6999.1300200000005,49.916,2.771,183.265
1.1189,128.181844,37.965433,6999.1156944,49.86,2.774,183.294
1.1356,128.181842,37.965387,6999.102283200001,49.821,2.778,183.325
1.1522,128.18184,37.965342,6999.090091200001,49.799,2.781,183.358
1.169,128.181838,37.965297,6999.0791184,49.791,2.785,183.392
1.1857,128.181836,37.965251,6999.069060000001,49.798,2.79,183.426
1.2024,128.181834,37.965206,6999.0605256,49.814,2.793,183.458
1.2191,128.181831,37.96516,6999.0532104,49.838,2.796,183.489
1.2358,128.181829,37.965115,6999.0468096,49.867,2.797,183.517
1.2525,128.181827,37.96507,6999.041932800001,49.902,2.797,183.544
1.2691,128.181824,37.965024,6999.0382752,49.938,2.795,183.568
1.2859,128.181822,37.964979,6999.035532000001,49.979,2.792,183.591
1.3026,128.181819,37.964933,6999.0340080000005,50.028,2.791,183.616
1.3193,128.181817,37.964888,6999.0337032,50.084,2.792,183.646
1.3359,128.181814,37.964843,6999.0340080000005,50.149,2.79,183.672
1.3527,128.181812,37.964797,6999.0346176,50.229,2.778,183.689
1.3694,128.181809,37.964752,6999.035532000001,50.333,2.75,183.691
1.386,128.181806,37.964706,6999.0361416000005,50.47,2.705,183.676
1.4028,128.181804,37.964661,6999.0367512,50.642,2.645,183.647
1.4195,128.181801,37.964615,6999.037360800001,50.856,2.579,183.613
1.4362,128.181798,37.96457,6999.037665600001,51.11,2.514,183.584
1.4528,128.181795,37.964525,6999.037970400001,51.401,2.456,183.565
1.4696,128.181793,37.964479,6999.037970400001,51.727,2.409,183.559
1.4863,128.18179,37.964434,6999.0382752,52.082,2.371,183.565
1.5029,128.181787,37.964388,6999.0382752,52.467,2.343,183.583
1.5197,128.181784,37.964343,6999.037665600001,52.888,2.321,183.609
1.5364,128.181781,37.964297,6999.0361416000005,53.353,2.303,183.643
1.5531,128.181778,37.964252,6999.0337032,53.873,2.286,183.68
1.5697,128.181775,37.964206,6999.029740800001,54.457,2.267,183.718
1.5865,128.181772,37.964161,6999.0245592,55.121,2.243,183.755
1.6032,128.181769,37.964115,6999.0175488,55.876,2.214,183.789
1.6198,128.181766,37.96407,6999.008709600001,56.721,2.18,183.82
1.6366,128.181763,37.964024,6998.998041600001,57.652,2.141,183.845
1.6533,128.18176,37.963978,6998.9855448,58.668,2.098,183.864
1.67,128.181757,37.963933,6998.971219200001,59.766,2.051,183.879
1.6867,128.181754,37.963887,6998.9547600000005,60.944,2.002,183.89
1.7034,128.181751,37.963842,6998.936472,62.199,1.952,183.897
1.7201,128.181748,37.963796,6998.916355200001,63.529,1.9,183.903
1.7368,128.181745,37.96375,6998.894104800001,64.931,1.849,183.908
1.7535,128.181742,37.963705,6998.8697208,66.403,1.797,183.913
1.7702,128.181738,37.963659,6998.843508,67.942,1.746,183.918
1.7869,128.181735,37.963613,6998.8151616,69.546,1.696,183.925
1.8036,128.181732,37.963568,6998.7846816,71.213,1.646,183.934
1.8203,128.181729,37.963522,6998.752372800001,72.941,1.598,183.944
1.837,128.181726,37.963476,6998.7176256,74.728,1.549,183.957
1.8537,128.181723,37.96343,6998.6807448,76.572,1.502,183.972
1.8704,128.18172,37.963385,6998.6420352000005,78.471,1.454,183.989
1.8871,128.181717,37.963339,6998.6008872,80.422,1.407,184.009
1.9038,128.181714,37.963293,6998.557910400001,82.425,1.359,184.031
1.9205,128.18171,37.963247,6998.512495200001,84.477,1.311,184.054
1.9372,128.181707,37.963202,6998.4649464,86.577,1.263,184.079
1.9539,128.181704,37.963156,6998.415264,88.722,1.214,184.107
1.9706,128.181701,37.96311,6998.363448,90.912,1.164,184.136
1.9873,128.181698,37.963064,6998.3094984,93.145,1.112,184.166
2.004,128.181695,37.963018,6998.253110400001,95.42,1.06,184.198
2.0207,128.181692,37.962972,6998.1948936,97.735,1.007,184.232
2.0374,128.181688,37.962926,6998.134238400001,100.088,0.952,184.267
2.0541,128.181685,37.962881,6998.0714496,102.479,0.895,184.304
2.0707,128.181682,37.962835,6998.0065272,104.906,0.836,184.343
2.0875,128.181679,37.962789,6997.9394712,107.367,0.774,184.384
2.1042,128.181676,37.962743,6997.8702816,109.859,0.71,184.426
2.1208,128.181672,37.962697,6997.7986536,112.376,0.644,184.47
2.1376,128.181669,37.962651,6997.7245872,114.912,0.575,184.516
2.1543,128.181666,37.962605,6997.648082400001,117.464,0.502,184.565
2.171,128.181663,37.962559,6997.5691392,120.027,0.426,184.615
2.1877,128.18166,37.962513,6997.4877576,122.597,0.347,184.666
2.2044,128.181656,37.962467,6997.4036328,125.172,0.263,184.719
2.2211,128.181653,37.962421,6997.316764800001,127.749,0.174,184.773
2.2378,128.18165,37.962375,6997.2271536,130.325,0.08,184.828
2.2544,128.181646,37.962329,6997.1344944,132.9,-0.018,184.883
2.2712,128.181643,37.962283,6997.039092000001,135.472,-0.123,184.937
2.2879,128.18164,37.962237,6996.9403368,138.038,-0.234,184.992
2.3045,128.181636,37.962191,6996.838838400001,140.6,-0.35,185.045
2.3213,128.181633,37.962145,6996.7339872,143.156,-0.472,185.096
2.338,128.18163,37.962099,6996.625783200001,145.707,-0.6,185.145
2.3546,128.181626,37.962052,6996.514226400001,148.251,-0.734,185.191
2.3714,128.181623,37.962006,6996.399012,150.788,-0.874,185.234
2.3881,128.181619,37.96196,6996.280444800001,153.319,-1.019,185.273
2.4048,128.181616,37.961914,6996.1579152,155.844,-1.17,185.308
2.4215,128.181612,37.961868,6996.031728000001,158.363,-1.326,185.338
2.4382,128.181609,37.961822,6995.9015784,160.875,-1.487,185.363
2.4549,128.181605,37.961776,6995.7671616,163.381,-1.652,185.382
2.4716,128.181602,37.961729,6995.6287824,165.882,-1.821,185.395
2.4882,128.181598,37.961683,6995.486136,168.376,-1.995,185.402
2.505,128.181595,37.961637,6995.3389176,170.866,-2.172,185.402
2.5217,128.181591,37.961591,6995.187432000001,173.35,-2.353,185.394
2.5383,128.181588,37.961545,6995.031069600001,175.829,-2.536,185.38
2.5551,128.181584,37.961498,6994.8698304,178.304,-2.722,185.357
2.5718,128.181581,37.961452,6994.7037144000005,-179.226,-2.91,185.327
2.5884,128.181577,37.961406,6994.5324168,-176.761,-3.099,185.289
2.6052,128.181573,37.96136,6994.3559376,-174.301,-3.29,185.242
2.6219,128.18157,37.961313,6994.1742768,-171.846,-3.482,185.187
2.6386,128.181566,37.961267,6993.9871296,-169.395,-3.675,185.123
2.6553,128.181563,37.961221,6993.794496,-166.947,-3.866,185.05
2.6719,128.181559,37.961174,6993.596376,-164.504,-4.054,184.969
2.6887,128.181555,37.961128,6993.3924648,-162.063,-4.238,184.88
2.7054,128.181552,37.961082,6993.1827624,-159.627,-4.417,184.784
2.722,128.181548,37.961036,6992.9672688,-157.194,-4.59,184.68
2.7388,128.181544,37.960989,6992.745679200001,-154.764,-4.757,184.569
2.7555,128.181541,37.960943,6992.5182984,-152.338,-4.917,184.451
2.7721,128.181537,37.960896,6992.2845168,-149.915,-5.071,184.327
2.7889,128.181534,37.96085,6992.044944,-147.497,-5.218,184.197
2.8056,128.18153,37.960804,6991.7992752,-145.083,-5.359,184.06
2.8222,128.181526,37.960757,6991.547510400001,-142.673,-5.492,183.918
2.839,128.181523,37.960711,6991.2896496,-140.269,-5.62,183.771
2.8557,128.181519,37.960665,6991.025388000001,-137.87,-5.74,183.618
2.8724,128.181516,37.960618,6990.7550304,-135.476,-5.854,183.459
2.8891,128.181512,37.960572,6990.4785768,-133.09,-5.96,183.296
2.9057,128.181509,37.960525,6990.196027200001,-130.71,-6.06,183.129
2.9225,128.181505,37.960479,6989.907686400001,-128.336,-6.153,182.956
2.9392,128.181502,37.960432,6989.6132496,-125.97,-6.238,182.78
2.9558,128.181499,37.960386,6989.3127168,-123.612,-6.316,182.6
2.9726,128.181495,37.960339,6989.006392800001,-121.261,-6.386,182.417
2.9893,128.181492,37.960293,6988.6942776000005,-118.917,-6.449,182.231
3.0059,128.181489,37.960246,6988.376676,-116.581,-6.503,182.042
3.0227,128.181485,37.9602,6988.053588000001,-114.253,-6.55,181.851
3.0394,128.181482,37.960153,6987.7247088,-111.932,-6.588,181.658
3.056,128.181479,37.960107,6987.3909528,-109.619,-6.619,181.463
3.0728,128.181476,37.96006,6987.051710400001,-107.313,-6.64,181.268
3.0895,128.181473,37.960014,6986.7075912,-105.014,-6.654,181.072
3.1062,128.18147,37.959967,6986.3585952,-102.722,-6.659,180.876
3.1229,128.181467,37.959921,6986.005027200001,-100.437,-6.656,180.681
3.1395,128.181464,37.959874,6985.646582400001,-98.159,-6.645,180.486
3.1563,128.181461,37.959828,6985.2838704000005,-95.887,-6.625,180.292
3.173,128.181458,37.959781,6984.917196,-93.62,-6.597,180.1
3.1896,128.181456,37.959734,6984.5462544,-91.36,-6.562,179.91
3.2064,128.181453,37.959688,6984.171655200001,-89.106,-6.518,179.722
3.2231,128.18145,37.959641,6983.7933984,-86.857,-6.466,179.536
3.2397,128.181448,37.959595,6983.411484000001,-84.613,-6.407,179.354
3.2565,128.181445,37.959548,6983.0265216,-82.375,-6.341,179.175
3.2732,128.181443,37.959501,6982.638511200001,-80.141,-6.267,178.999
3.2899,128.18144,37.959455,6982.2474528,-77.914,-6.186,178.826
3.3066,128.181438,37.959408,6981.853651200001,-75.645,-6.098,178.673
3.3233,128.181436,37.959361,6981.4568016,-73.337,-6.009,178.552
3.34,128.181434,37.959315,6981.0572088,-70.991,-5.926,178.48
3.3567,128.181431,37.959268,6980.654872800001,-68.606,-5.85,178.446
3.3734,128.181429,37.959221,6980.2500984,-66.18,-5.778,178.438
3.3901,128.181427,37.959174,6979.8428856,-63.712,-5.706,178.44
3.4068,128.181425,37.959128,6979.4332343999995,-61.199,-5.631,178.441
3.4235,128.181423,37.959081,6979.0220592000005,-58.649,-5.548,178.435
3.4402,128.181421,37.959034,6978.6090552000005,-56.076,-5.456,178.415
3.4569,128.181419,37.958987,6978.195136800001,-53.499,-5.353,178.38
3.4736,128.181417,37.958941,6977.780304,-50.935,-5.237,178.328
3.4903,128.181415,37.958894,6977.3648616,-48.401,-5.109,178.26
3.507,128.181413,37.958847,6976.9494192,-45.911,-4.965,178.179
3.5237,128.181411,37.9588,6976.5342816,-43.478,-4.808,178.086
3.5404,128.18141,37.958753,6976.1200584,-41.111,-4.636,177.986
3.5571,128.181408,37.958707,6975.707359200001,-38.816,-4.451,177.882
3.5738,128.181406,37.95866,6975.296184000001,-36.595,-4.256,177.777
3.5905,128.181405,37.958613,6974.887142400001,-34.451,-4.052,177.675
3.6072,128.181403,37.958566,6974.4802344,-32.381,-3.841,177.578
3.6239,128.181402,37.958519,6974.075764800001,-30.383,-3.627,177.489
3.6406,128.1814,37.958472,6973.673733600001,-28.451,-3.412,177.409
3.6573,128.181399,37.958425,6973.274750400001,-26.583,-3.197,177.34
3.674,128.181398,37.958378,6972.878205600001,-24.774,-2.985,177.283
3.6907,128.181396,37.958332,6972.484708800001,-23.015,-2.779,177.236
3.7074,128.181395,37.958285,6972.094260000001,-21.303,-2.579,177.202
3.7241,128.181394,37.958238,6971.706554400001,-19.631,-2.387,177.179
3.7408,128.181393,37.958191,6971.322201600001,-17.994,-2.204,177.167
3.7575,128.181392,37.958144,6970.940896800001,-16.386,-2.03,177.165
3.7742,128.181391,37.958097,6970.5629448,-14.806,-1.866,177.172
3.7909,128.181389,37.95805,6970.188040800001,-13.249,-1.712,177.188
3.8076,128.181388,37.958003,6969.8164896,-11.713,-1.566,177.211
3.8243,128.181387,37.957956,6969.448596,-10.197,-1.43,177.24
3.841,128.181386,37.957909,6969.084360000001,-8.702,-1.302,177.276
3.8577,128.181385,37.957862,6968.723781600001,-7.229,-1.181,177.316
3.8744,128.181385,37.957815,6968.367165600001,-5.781,-1.066,177.36
3.8911,128.181384,37.957768,6968.014512,-4.358,-0.957,177.407
3.9078,128.181383,37.957721,6967.6661256,-2.964,-0.853,177.457
3.9245,128.181382,37.957674,6967.321701600001,-1.6,-0.754,177.51
3.9412,128.181381,37.957627,6966.9818496,-0.268,-0.658,177.564
3.9579,128.18138,37.95758,6966.646264800001,1.026,-0.566,177.621
3.9746,128.181379,37.957533,6966.315252000001,2.283,-0.477,177.679
3.9913,128.181378,37.957486,6965.988811200001,3.499,-0.39,177.738
4.008,128.181378,37.957439,6965.667247200001,4.671,-0.306,177.798
4.0247,128.181377,37.957392,6965.350560000001,5.795,-0.224,177.86
4.0414,128.181376,37.957344,6965.0384448,6.871,-0.144,177.922
4.058,128.181375,37.957297,6964.731511200001,7.895,-0.065,177.984
4.0748,128.181374,37.95725,6964.430064,8.862,0.012,178.046
4.0915,128.181373,37.957203,6964.1337984,9.772,0.089,178.107
4.1082,128.181373,37.957156,6963.8414952,10.699,0.164,178.171
4.1249,128.181372,37.957109,6963.5534592,11.624,0.238,178.238
4.1415,128.181371,37.957062,6963.2703,12.512,0.311,178.305
4.1583,128.18137,37.957015,6962.9926272,13.34,0.385,178.369
4.175,128.181369,37.956968,6962.720136,14.096,0.461,178.429
4.1917,128.181368,37.95692,6962.453436000001,14.775,0.54,178.486
4.2084,128.181367,37.956873,6962.192527200001,15.383,0.617,178.539
4.2251,128.181366,37.956826,6961.937714400001,15.913,0.688,178.587
4.2417,128.181365,37.956779,6961.688997600001,16.354,0.747,178.628
4.2585,128.181364,37.956732,6961.4457672,16.707,0.79,178.662
4.2752,128.181363,37.956685,6961.208328000001,16.975,0.816,178.689
4.2919,128.181362,37.956638,6960.97668,17.157,0.823,178.71
4.3086,128.181361,37.95659,6960.7502136,17.258,0.813,178.725
4.3252,128.18136,37.956543,6960.529233600001,17.28,0.788,178.736
4.342,128.181359,37.956496,6960.3137400000005,17.226,0.752,178.744
4.3587,128.181358,37.956449,6960.1031232000005,17.099,0.708,178.749
4.3754,128.181357,37.956402,6959.897383200001,16.902,0.662,178.753
4.3921,128.181356,37.956355,6959.696824800001,16.637,0.618,178.758
4.4088,128.181355,37.956307,6959.5011432,16.307,0.578,178.763
4.4254,128.181354,37.95626,6959.310338400001,15.915,0.543,178.77
4.4422,128.181353,37.956213,6959.124410400001,15.461,0.515,178.778
4.4589,128.181351,37.956166,6958.943054400001,14.95,0.495,178.789
4.4756,128.18135,37.956119,6958.7665752,14.381,0.483,178.801
4.4923,128.181349,37.956071,6958.594668000001,13.758,0.477,178.814
4.5089,128.181348,37.956024,6958.427332800001,13.082,0.476,178.829
4.5256,128.181347,37.955977,6958.264874400001,12.355,0.48,178.844
4.5424,128.181345,37.95593,6958.1069880000005,11.578,0.487,178.859
4.5591,128.181344,37.955883,6957.953673600001,10.753,0.496,178.875
4.5758,128.181343,37.955835,6957.8049312,9.882,0.507,178.89
4.5925,128.181342,37.955788,6957.6607608,8.965,0.517,178.904
4.6091,128.18134,37.955741,6957.5214672,8.005,0.529,178.918
4.6259,128.181339,37.955694,6957.386745600001,7.003,0.539,178.931
4.6426,128.181338,37.955647,6957.256900800001,5.959,0.549,178.943
4.6593,128.181336,37.955599,6957.131628,4.875,0.558,178.954
4.676,128.181335,37.955552,6957.0109272,3.751,0.567,178.965
4.6927,128.181334,37.955505,6956.8947984,2.59,0.577,178.975
4.7093,128.181333,37.955458,6956.783851200001,1.391,0.588,178.984
4.7261,128.181331,37.955411,6956.6771712,0.156,0.601,178.993
4.7428,128.18133,37.955363,6956.575672800001,-1.114,0.615,179.0
4.7595,128.181329,37.955316,6956.478746400001,-2.42,0.631,179.007
4.7762,128.181328,37.955269,6956.386696800001,-3.76,0.649,179.013
4.7928,128.181326,37.955222,6956.2992192,-5.133,0.669,179.018
4.8096,128.181325,37.955174,6956.216618400001,-6.539,0.69,179.021
4.8263,128.181324,37.955127,6956.1388944,-7.977,0.712,179.024
4.843,128.181323,37.95508,6956.065742400001,-9.446,0.736,179.025
4.8597,128.181322,37.955033,6955.997772000001,-10.946,0.761,179.025
4.8764,128.18132,37.954985,6955.9340688,-12.476,0.786,179.023
4.893,128.181319,37.954938,6955.875547200001,-14.036,0.813,179.019
4.9098,128.181318,37.954891,6955.821597600001,-15.625,0.841,179.014
4.9265,128.181317,37.954844,6955.772220000001,-17.244,0.87,179.008
4.9432,128.181316,37.954796,6955.7274144,-18.889,0.9,178.998
4.9599,128.181315,37.954749,6955.6877904,-20.559,0.934,178.982
4.9765,128.181314,37.954702,6955.652433600001,-22.256,0.977,178.961
4.9932,128.181313,37.954655,6955.6222584,-23.981,1.029,178.934
5.01,128.181312,37.954607,6955.596655200001,-25.732,1.092,178.898
5.0267,128.181311,37.95456,6955.575624000001,-27.51,1.166,178.854
5.0434,128.181311,37.954513,6955.559469600001,-29.314,1.252,178.802
5.0601,128.18131,37.954466,6955.548192,-31.145,1.347,178.739
5.0767,128.181309,37.954419,6955.5414864,-33.002,1.453,178.666
5.0935,128.181308,37.954371,6955.5396576,-34.885,1.567,178.582
5.1102,128.181308,37.954324,6955.542400800001,-36.792,1.688,178.486
5.1269,128.181307,37.954277,6955.5503256,-38.724,1.817,178.379
5.1436,128.181307,37.95423,6955.5625176,-40.681,1.951,178.259
5.1602,128.181306,37.954183,6955.5798912,-42.662,2.089,178.127
5.1769,128.181306,37.954135,6955.6018368000005,-44.667,2.23,177.982
5.1937,128.181306,37.954088,6955.6280496,-46.697,2.373,177.824
5.2104,128.181306,37.954041,6955.6591392,-48.75,2.517,177.653
5.2271,128.181306,37.953994,6955.694800800001,-50.828,2.661,177.469
5.2438,128.181306,37.953947,6955.734424800001,-52.93,2.803,177.271
5.2604,128.181306,37.9539,6955.7786208,-55.056,2.942,177.06
5.2772,128.181306,37.953852,6955.826779200001,-57.207,3.078,176.836
5.2939,128.181306,37.953805,6955.8785952,-59.382,3.208,176.6
5.3106,128.181307,37.953758,6955.9340688,-61.582,3.333,176.35
5.3273,128.181308,37.953711,6955.993200000001,-63.806,3.45,176.089
5.3439,128.181308,37.953664,6956.055379200001,-66.055,3.558,175.816
5.3606,128.181309,37.953617,6956.120301600001,-68.329,3.657,175.531
5.3774,128.18131,37.95357,6956.1879672000005,-70.628,3.745,175.237
5.3941,128.181311,37.953523,6956.2577664,-72.949,3.821,174.933
5.4108,128.181312,37.953476,6956.3287848,-75.266,3.886,174.621
5.4275,128.181314,37.953428,6956.4007176000005,-77.559,3.939,174.306
5.4441,128.181315,37.953381,6956.473260000001,-79.815,3.979,173.992
5.4609,128.181317,37.953334,6956.5461072,-82.03,4.005,173.681
5.4776,128.181318,37.953287,6956.6186496,-84.213,4.016,173.375
5.4943,128.18132,37.95324,6956.691192,-86.391,4.01,173.075
5.511,128.181322,37.953193,6956.762820000001,-88.6,3.985,172.785
5.5277,128.181325,37.953146,6956.833228800001,-90.841,3.942,172.519
5.5443,128.181327,37.953099,6956.9018088,-93.113,3.885,172.293
5.5611,128.181329,37.953052,6956.9679504000005,-95.419,3.819,172.121
5.5778,128.181332,37.953005,6957.0316536,-97.757,3.747,172.018
5.5945,128.181335,37.952958,6957.0923088,-100.13,3.677,171.996
5.6112,128.181337,37.952911,6957.149306400001,-102.538,3.616,172.069
5.6278,128.18134,37.952864,6957.202951200001,-104.986,3.568,172.215
5.6445,128.181343,37.952817,6957.252024,-107.478,3.533,172.415
5.6613,128.181347,37.95277,6957.2968296,-110.018,3.508,172.647
5.678,128.18135,37.952723,6957.337063200001,-112.613,3.493,172.893
5.6947,128.181353,37.952677,6957.372420000001,-115.267,3.482,173.132
5.7114,128.181357,37.95263,6957.4025952,-117.982,3.466,173.347
5.728,128.18136,37.952583,6957.4281984,-120.758,3.444,173.536
5.7448,128.181364,37.952536,6957.448315200001,-123.596,3.415,173.702
5.7615,128.181367,37.952489,6957.463860000001,-126.494,3.382,173.848
5.7782,128.181371,37.952442,6957.4739184,-129.452,3.344,173.976
5.7949,128.181375,37.952395,6957.4794048,-132.468,3.302,174.087
5.8115,128.181379,37.952348,6957.4797096,-135.541,3.257,174.184
5.8282,128.181383,37.952301,6957.4751376,-138.67,3.211,174.267
5.845,128.181386,37.952254,6957.4662984,-141.849,3.163,174.339
5.8617,128.18139,37.952207,6957.452887200001,-145.068,3.113,174.399
5.8784,128.181394,37.95216,6957.4358184,-148.319,3.06,174.452
5.8951,128.181398,37.952113,6957.4144824,-151.594,3.004,174.497
5.9117,128.181402,37.952066,6957.3897936,-154.887,2.944,174.538
5.9285,128.181406,37.952019,6957.361447200001,-158.193,2.881,174.574
5.9452,128.18141,37.951973,6957.329748,-161.507,2.813,174.608
5.9619,128.181414,37.951926,6957.295000800001,-164.825,2.742,174.639
5.9786,128.181418,37.951879,6957.256900800001,-168.145,2.668,174.67
5.9952,128.181422,37.951832,6957.2163624,-171.277,2.593,174.691
6.0119,128.181426,37.951785,6957.1736904,-174.227,2.517,174.702
6.0287,128.18143,37.951738,6957.1291896,-176.989,2.44,174.708
6.0454,128.181435,37.951691,6957.0831648,-179.563,2.361,174.713
6.0621,128.181439,37.951644,6957.0362256,178.05,2.281,174.719
6.0788,128.181443,37.951597,6956.988676800001,175.849,2.199,174.727
6.0954,128.181447,37.951549,6956.940213600001,173.828,2.118,174.738
6.1121,128.181451,37.951502,6956.8917504,171.984,2.037,174.751
6.1289,128.181455,37.951455,6956.8429824,170.311,1.956,174.766
6.1456,128.181459,37.951408,6956.794519200001,168.806,1.876,174.783
6.1623,128.181463,37.951361,6956.746665600001,167.463,1.797,174.801
6.179,128.181467,37.951314,6956.6991168,166.278,1.721,174.821
6.1956,128.181472,37.951267,6956.652787200001,165.246,1.646,174.841
6.2124,128.181476,37.95122,6956.607372,164.364,1.575,174.863
6.2291,128.18148,37.951173,6956.561042400001,163.405,1.509,174.897
6.2458,128.181484,37.951126,6956.5147128,162.373,1.449,174.943
6.2625,128.181488,37.951078,6956.466859200001,161.264,1.38,175.001
6.2791,128.181493,37.951031,6956.416872,160.074,1.288,175.071
6.2958,128.181497,37.950984,6956.364751200001,158.804,1.159,175.155
6.3126,128.181501,37.950937,6956.3092776,157.457,0.997,175.254
6.3293,128.181505,37.95089,6956.250756,156.037,0.811,175.365
6.346,128.18151,37.950842,6956.188272,154.55,0.613,175.483
6.3627,128.181514,37.950795,6956.1215208,153.0,0.412,175.605
6.3793,128.181518,37.950748,6956.049588000001,151.392,0.214,175.73
6.3961,128.181522,37.950701,6955.972473600001,149.733,0.026,175.855
6.4128,128.181526,37.950653,6955.8895680000005,148.027,-0.15,175.979
6.4295,128.181531,37.950606,6955.800261599999,146.277,-0.315,176.101
6.4462,128.181535,37.950559,6955.7045544,144.486,-0.465,176.22
6.4628,128.181539,37.950512,6955.6018368000005,142.66,-0.602,176.335
6.4795,128.181543,37.950464,6955.491804,140.798,-0.726,176.448
6.4963,128.181547,37.950417,6955.3744560000005,138.905,-0.839,176.558
6.513,128.181551,37.95037,6955.2504024,136.983,-0.941,176.665
6.5297,128.181555,37.950322,6955.119033600001,135.032,-1.036,176.771
6.5464,128.181559,37.950275,6954.9806544,133.055,-1.123,176.877
6.5631,128.181562,37.950228,6954.835264800001,131.052,-1.204,176.983
6.5798,128.181566,37.950181,6954.683169600001,129.025,-1.279,177.088
6.5965,128.18157,37.950133,6954.5243688,126.974,-1.349,177.194
6.6132,128.181574,37.950086,6954.3588624,124.902,-1.414,177.301
6.6299,128.181577,37.950039,6954.186955200001,122.808,-1.475,177.409
6.6466,128.181581,37.949991,6954.008952000001,120.695,-1.532,177.519
6.6633,128.181584,37.949944,6953.824548,118.562,-1.585,177.631
6.68,128.181588,37.949897,6953.634048,116.411,-1.636,177.747
6.6967,128.181591,37.949849,6953.4380616,114.241,-1.684,177.868
6.7134,128.181594,37.949802,6953.2371984,112.156,-1.736,177.992
6.7301,128.181598,37.949755,6953.0314584,110.26,-1.799,178.117
6.7468,128.181601,37.949707,6952.8211464000005,108.55,-1.87,178.248
6.7635,128.181604,37.94966,6952.6062624,107.026,-1.942,178.379
6.7802,128.181607,37.949612,6952.387720799999,105.676,-2.013,178.494
6.7969,128.18161,37.949565,6952.1652168,104.496,-2.08,178.578
6.8136,128.181613,37.949518,6951.938750400001,103.483,-2.137,178.622
6.8303,128.181616,37.94947,6951.7086264,102.633,-2.183,178.624
6.847,128.181619,37.949423,6951.4742352,101.812,-2.213,178.593
6.8637,128.181622,37.949375,6951.235576800001,100.961,-2.226,178.541
6.8804,128.181624,37.949328,6950.993565600001,100.05,-2.228,178.48
6.8971,128.181627,37.949281,6950.747592000001,99.073,-2.224,178.414
6.9138,128.18163,37.949233,6950.4979608,98.026,-2.22,178.347
6.9305,128.181632,37.949186,6950.2452816,96.91,-2.216,178.283
6.9472,128.181635,37.949138,6949.990164000001,95.938,-2.228,178.221
6.9639,128.181637,37.949091,6949.7319984,95.105,-2.253,178.162
6.9806,128.18164,37.949043,6949.4707848,94.414,-2.288,178.106
6.9973,128.181642,37.948996,6949.2065232,93.867,-2.326,178.054
7.014,128.181644,37.948948,6948.9395184,93.462,-2.366,178.007
7.0307,128.181647,37.948901,6948.669465600001,93.195,-2.407,177.964
7.0474,128.181649,37.948853,6948.396669600001,93.062,-2.447,177.925
7.0641,128.181651,37.948806,6948.1211304,93.057,-2.486,177.889
7.0808,128.181654,37.948758,6947.842848,93.176,-2.525,177.857
7.0975,128.181656,37.948711,6947.5615176,93.412,-2.563,177.828
7.1142,128.181658,37.948663,6947.2777488,93.763,-2.6,177.801
7.1309,128.18166,37.948616,6946.990932000001,94.221,-2.637,177.776
7.1476,128.181663,37.948568,6946.7016768,94.784,-2.675,177.768
7.1643,128.181665,37.94852,6946.4096784,95.445,-2.715,177.793
7.181,128.181667,37.948473,6946.114936800001,96.201,-2.758,177.864
7.1977,128.181669,37.948425,6945.817452000001,97.045,-2.809,177.997
7.2144,128.181672,37.948377,6945.517224000001,97.973,-2.87,178.199
7.2311,128.181674,37.94833,6945.2142527999995,98.981,-2.943,178.48
7.2478,128.181676,37.948282,6944.908233600001,100.064,-3.034,178.847
7.2645,128.181678,37.948234,6944.5991664,101.217,-3.141,179.283
7.2812,128.18168,37.948187,6944.287051200001,102.437,-3.266,179.775
7.2979,128.181683,37.948139,6943.9712784,103.72,-3.408,180.305
7.3146,128.181685,37.948091,6943.6521528,105.062,-3.564,180.853
7.3313,128.181687,37.948044,6943.329369600001,106.461,-3.731,181.399
7.348,128.181689,37.947996,6943.002624000001,107.913,-3.906,181.923
7.3647,128.18169,37.947948,6942.6694776,109.223,-4.059,182.412
7.3814,128.181692,37.9479,6942.3314544,110.4,-4.183,182.851
7.3981,128.181694,37.947853,6941.988859200001,111.438,-4.279,183.217
7.4148,128.181695,37.947805,6941.6413872,112.335,-4.346,183.494
7.4315,128.181697,37.947757,6941.2884288000005,113.095,-4.377,183.664
7.4482,128.181698,37.947709,6940.9305936,113.724,-4.365,183.715
7.4649,128.1817,37.947661,6940.5675768,114.228,-4.313,183.66
7.4816,128.181701,37.947614,6940.198768800001,114.615,-4.227,183.517
7.4983,128.181702,37.947566,6939.824779200001,114.888,-4.113,183.306
7.515,128.181704,37.947518,6939.4453032,115.055,-3.978,183.045
7.5317,128.181705,37.94747,6939.060340800001,115.119,-3.83,182.753
7.5484,128.181706,37.947422,6938.670196800001,115.085,-3.676,182.448
7.5651,128.181706,37.947374,6938.2745664,114.955,-3.525,182.148
7.5818,128.181707,37.947326,6937.8737544000005,114.734,-3.385,181.872
7.5985,128.181708,37.947279,6937.467456,114.422,-3.265,181.635
7.6152,128.181709,37.947231,6937.055976,114.024,-3.168,181.449
7.6319,128.181709,37.947183,6936.6393144,113.543,-3.092,181.306
7.6486,128.18171,37.947135,6936.2174712,112.984,-3.031,181.195
7.6653,128.18171,37.947087,6935.7922751999995,112.563,-2.994,181.1
7.682,128.181711,37.947039,6935.362812,112.277,-2.977,181.016
7.6987,128.181711,37.946991,6934.9293864,112.13,-2.974,180.939
7.7154,128.181711,37.946944,6934.4916936,112.125,-2.977,180.87
7.7321,128.181712,37.946896,6934.0506479999995,112.262,-2.985,180.807
7.7488,128.181712,37.946848,6933.60564,112.536,-2.994,180.75
7.7655,128.181712,37.9468,6933.157279200001,112.93,-3.004,180.699
7.7822,128.181712,37.946752,6932.705565600001,113.424,-3.013,180.654
7.7989,128.181712,37.946704,6932.250804,114.001,-3.02,180.614
7.8156,128.181712,37.946656,6931.793299200001,114.644,-3.026,180.579
7.8323,128.181712,37.946608,6931.3327464,115.338,-3.031,180.549
7.849,128.181713,37.94656,6930.8694504000005,116.069,-3.034,180.523
7.8657,128.181713,37.946512,6930.403106400001,116.826,-3.037,180.501
7.8824,128.181713,37.946464,6929.934019200001,117.597,-3.039,180.483
7.8991,128.181713,37.946416,6929.4615792,118.374,-3.041,180.468
7.9158,128.181713,37.946368,6928.986396,119.148,-3.042,180.457
7.9325,128.181713,37.94632,6928.507250400001,119.809,-3.038,180.452
7.9492,128.181713,37.946272,6928.025056800001,120.358,-3.029,180.454
7.9659,128.181713,37.946224,6927.539205600001,120.797,-3.019,180.461
7.9826,128.181713,37.946176,6927.049392000001,121.124,-3.008,180.471
7.9993,128.181712,37.946128,6926.5562256,121.343,-3.0,180.483
8.016,128.181712,37.94608,6926.059096800001,121.457,-2.993,180.497
8.0327,128.181712,37.946032,6925.557700800001,121.471,-2.989,180.513
8.0494,128.181712,37.945984,6925.0523424,121.388,-2.987,180.53
8.0661,128.181711,37.945936,6924.542412,121.215,-2.987,180.548
8.0828,128.181711,37.945888,6924.028519200001,120.953,-2.989,180.568
8.0994,128.181711,37.94584,6923.5103592000005,120.608,-2.992,180.589
8.1161,128.18171,37.945792,6922.990065600001,120.389,-3.027,180.611
8.1329,128.18171,37.945744,6922.4661144,120.289,-3.101,180.647
8.1496,128.181709,37.945696,6921.937896,120.322,-3.211,180.715
8.1663,128.181709,37.945648,6921.4057152000005,120.494,-3.358,180.831
8.183,128.181708,37.9456,6920.8692672,120.805,-3.543,181.01
8.1997,128.181708,37.945552,6920.328247200001,121.253,-3.77,181.26
8.2164,128.181707,37.945504,6919.782655200001,121.828,-4.044,181.587
8.2331,128.181706,37.945456,6919.2321864000005,122.524,-4.358,181.979
8.2498,128.181705,37.945408,6918.676840800001,123.332,-4.708,182.421
8.2665,128.181705,37.94536,6918.1166184,124.244,-5.083,182.896
8.2831,128.181704,37.945312,6917.550604800001,125.254,-5.476,183.385
8.2998,128.181703,37.945264,6916.9794096000005,126.354,-5.875,183.87
8.3166,128.181702,37.945216,6916.4024232,127.541,-6.269,184.333
8.3333,128.181701,37.945168,6915.8196456000005,128.81,-6.646,184.757
8.35,128.181699,37.94512,6915.230772,130.157,-7.005,185.138
8.3667,128.181698,37.945072,6914.6358024,131.577,-7.346,185.48
8.3834,128.181697,37.945024,6914.0341272000005,133.067,-7.674,185.786
8.4001,128.181696,37.944976,6913.426051200001,134.624,-7.99,186.061
8.4168,128.181694,37.944928,6912.8103552,136.246,-8.297,186.308
8.4335,128.181693,37.94488,6912.1870392,137.93,-8.597,186.529
8.4502,128.181691,37.944832,6911.5557984,139.674,-8.891,186.726
8.4668,128.18169,37.944784,6910.916328,141.478,-9.179,186.903
8.4835,128.181688,37.944736,6910.268628000001,143.34,-9.463,187.059
8.5003,128.181687,37.944688,6909.611479200001,145.257,-9.743,187.196
8.517,128.181685,37.944639,6908.9454912,147.23,-10.02,187.316
8.5337,128.181683,37.944591,6908.2700544,149.256,-10.295,187.42
8.5504,128.181681,37.944543,6907.5851688,151.334,-10.568,187.507
8.5671,128.181679,37.944495,6906.890224800001,153.464,-10.839,187.58
8.5838,128.181677,37.944447,6906.1852224,155.644,-11.11,187.637
8.6005,128.181675,37.944399,6905.4701616,157.875,-11.38,187.681
8.6172,128.181673,37.944351,6904.744737600001,160.154,-11.65,187.71
8.6339,128.181671,37.944303,6904.008645600001,162.483,-11.921,187.726
8.6505,128.181669,37.944255,6903.2621904,164.86,-12.192,187.728
8.6672,128.181666,37.944207,6902.5047624,167.286,-12.464,187.716
8.684,128.181664,37.944159,6901.7366664,169.759,-12.736,187.69
8.7007,128.181662,37.944111,6900.956683200001,172.09,-12.99,187.672
8.7174,128.18166,37.944063,6900.1657272,174.282,-13.21,187.66
8.7341,128.181657,37.944015,6899.3631888,176.334,-13.384,187.647
8.7508,128.181655,37.943967,6898.549982400001,178.242,-13.498,187.63
8.7675,128.181653,37.943919,6897.7258032,-179.991,-13.537,187.606
8.7842,128.18165,37.943871,6896.891260800001,-178.366,-13.489,187.577
8.8009,128.181648,37.943823,6896.0460504,-176.874,-13.368,187.545
8.8176,128.181645,37.943775,6895.1904768,-175.508,-13.196,187.514
8.8342,128.181643,37.943727,6894.3248448,-174.259,-12.994,187.484
8.8509,128.181641,37.943679,6893.4491544,-173.119,-12.783,187.457
8.8676,128.181638,37.943631,6892.563100800001,-172.079,-12.582,187.431
8.8844,128.181636,37.943583,6891.666684000001,-171.133,-12.413,187.405
8.9011,128.181633,37.943535,6890.7599040000005,-170.275,-12.293,187.375
8.9178,128.181631,37.943488,6889.842456,-169.499,-12.236,187.338
8.9345,128.181628,37.94344,6888.9140352,-168.802,-12.255,187.289
8.9512,128.181626,37.943392,6887.9737272,-168.18,-12.363,187.226
8.9679,128.181623,37.943344,6887.0206176,-167.63,-12.569,187.142
8.9846,128.181621,37.943296,6886.055011200001,-167.151,-12.871,187.037
9.0013,128.181619,37.943248,6885.0766032,-166.741,-13.256,186.911
9.0179,128.181616,37.943201,6884.0850887999995,-166.399,-13.71,186.768
9.0346,128.181614,37.943153,6883.0795536000005,-166.124,-14.217,186.609
9.0513,128.181611,37.943105,6882.059997600001,-165.917,-14.763,186.437
9.0681,128.181609,37.943058,6881.025811200001,-165.777,-15.328,186.257
9.0848,128.181607,37.94301,6879.9763848,-165.704,-15.894,186.075
9.1015,128.181605,37.942962,6878.9120232000005,-165.7,-16.441,185.895
9.1182,128.181602,37.942915,6877.831812,-165.763,-16.949,185.724
9.1349,128.1816,37.942867,6876.735751200001,-165.896,-17.4,185.567
9.1516,128.181598,37.94282,6875.623536,-166.097,-17.799,185.424
9.1683,128.181596,37.942772,6874.494556800001,-166.363,-18.156,185.293
9.185,128.181593,37.942724,6873.3491184,-166.692,-18.481,185.171
9.2016,128.181591,37.942677,6872.186306400001,-167.082,-18.784,185.057
9.2183,128.181589,37.94263,6871.0061208,-167.532,-19.068,184.95
9.235,128.181587,37.942582,6869.8088664,-168.038,-19.339,184.85
9.2518,128.181585,37.942535,6868.593933600001,-168.6,-19.597,184.756
9.2685,128.181583,37.942488,6867.3613224,-169.216,-19.846,184.668
9.2852,128.181581,37.94244,6866.110728000001,-169.886,-20.086,184.587
9.3019,128.181579,37.942393,6864.842455200001,-170.607,-20.319,184.511
9.3186,128.181577,37.942346,6863.5558944,-171.379,-20.546,184.441
9.3353,128.181575,37.942299,6862.251655200001,-172.201,-20.766,184.377
9.352,128.181573,37.942252,6860.928823200001,-173.072,-20.981,184.319
9.3687,128.181571,37.942204,6859.588008,-173.991,-21.191,184.267
9.3854,128.18157,37.942157,6858.2286,-174.958,-21.396,184.221
9.402,128.181568,37.942111,6856.850904,-175.972,-21.597,184.181
9.4187,128.181566,37.942064,6855.454920000001,-177.032,-21.795,184.148
9.4355,128.181564,37.942017,6854.0412576,-178.138,-21.972,184.122
9.4522,128.181562,37.94197,6852.609612,-179.29,-22.113,184.103
9.4689,128.18156,37.941923,6851.160592800001,179.513,-22.202,184.09
9.4856,128.181558,37.941876,6849.6951144,178.273,-22.223,184.081
9.5023,128.181556,37.94183,6848.2131768,176.992,-22.163,184.073
9.519,128.181555,37.941783,6846.7159992,175.669,-22.007,184.063
9.5357,128.181553,37.941736,6845.203581600001,174.306,-21.777,184.048
9.5524,128.181551,37.94169,6843.676228800001,172.901,-21.494,184.027
9.5691,128.181549,37.941643,6842.134855200001,171.452,-21.177,184.0
9.5857,128.181547,37.941597,6840.5797656,169.958,-20.849,183.968
9.6024,128.181545,37.94155,6839.0115696,168.416,-20.529,183.932
9.6192,128.181543,37.941504,6837.4308768,166.823,-20.238,183.897
9.6359,128.181541,37.941458,6835.837687200001,165.179,-19.983,183.865
9.6526,128.181539,37.941411,6834.233220000001,163.484,-19.762,183.835
9.6693,128.181537,37.941365,6832.6186944,161.95,-19.575,183.782
9.686,128.181535,37.941319,6830.994415200001,160.569,-19.417,183.707
9.7027,128.181532,37.941272,6829.361296800001,159.348,-19.282,183.617
9.7194,128.18153,37.941226,6827.7193392,158.292,-19.164,183.521
9.7361,128.181528,37.94118,6826.069456800001,157.401,-19.059,183.425
9.7528,128.181526,37.941134,6824.4119544000005,156.671,-18.967,183.331
9.7694,128.181523,37.941088,6822.7480512,156.099,-18.884,183.241
9.7861,128.181521,37.941041,6821.077442400001,155.678,-18.811,183.156
9.8029,128.181519,37.940995,6819.401042400001,155.402,-18.746,183.074
9.8196,128.181517,37.940949,6817.719156000001,155.266,-18.688,182.997
9.8363,128.181514,37.940903,6816.032392800001,155.264,-18.638,182.924
9.853,128.181512,37.940857,6814.3410576,155.391,-18.594,182.855
9.8697,128.18151,37.94081,6812.6454552000005,155.641,-18.554,182.789
9.8864,128.181507,37.940764,6810.9461952,156.009,-18.52,182.726
9.9031,128.181505,37.940718,6809.2435824,156.491,-18.49,182.667
9.9198,128.181502,37.940672,6807.5382264,157.081,-18.463,182.61
9.9365,128.1815,37.940626,6805.8301272,157.776,-18.439,182.556
9.9531,128.181498,37.940579,6804.1198944,158.57,-18.418,182.505
9.9698,128.181495,37.940533,6802.4069184,159.461,-18.399,182.456
9.9865,128.181493,37.940487,6800.691504,160.442,-18.381,182.409
10.0033,128.181491,37.94044,6798.973956000001,161.512,-18.366,182.364
10.02,128.181488,37.940394,6797.254274400001,162.665,-18.351,182.321
10.0367,128.181486,37.940348,6795.532459200001,163.898,-18.338,182.28
10.0534,128.181484,37.940302,6793.8082056,165.207,-18.326,182.24
10.0701,128.181481,37.940255,6792.082123200001,166.589,-18.314,182.202
10.0868,128.181479,37.940209,6790.3539072,168.041,-18.303,182.165
10.1035,128.181477,37.940163,6788.6235576,169.56,-18.292,182.129
10.1202,128.181474,37.940116,6786.891379200001,171.142,-18.282,182.095
10.1368,128.181472,37.94007,6785.157372000001,172.784,-18.271,182.062
10.1535,128.18147,37.940023,6783.4203168,174.263,-18.258,182.058
10.1702,128.181467,37.939977,6781.6805184,175.583,-18.243,182.083
10.187,128.181465,37.939931,6779.9379768,176.736,-18.228,182.125
10.2037,128.181463,37.939884,6778.1917776,177.716,-18.214,182.174
10.2204,128.18146,37.939838,6776.4419208,178.525,-18.201,182.222
10.2371,128.181458,37.939791,6774.6884064000005,179.166,-18.19,182.269
10.2538,128.181456,37.939745,6772.9309296,179.647,-18.182,182.313
10.2705,128.181453,37.939698,6771.1688808,179.975,-18.176,182.355
10.2872,128.181451,37.939652,6769.402260000001,-179.841,-18.173,182.396
10.3039,128.181449,37.939606,6767.6304576,-179.796,-18.173,182.435
10.3205,128.181446,37.939559,6765.853778400001,-179.884,-18.175,182.473
10.3372,128.181444,37.939513,6764.0719176,179.901,-18.179,182.51
10.3539,128.181442,37.939466,6762.284265600001,179.567,-18.185,182.547
10.3707,128.181439,37.93942,6760.4905176,179.118,-18.194,182.582
10.3874,128.181437,37.939374,6758.690673600001,178.559,-18.204,182.616
10.4041,128.181435,37.939327,6756.884733600001,177.894,-18.217,182.65
10.4208,128.181432,37.939281,6755.072088000001,177.129,-18.231,182.683
10.4375,128.18143,37.939234,6753.252432,176.269,-18.248,182.715
10.4542,128.181428,37.939188,6751.42668,175.317,-18.266,182.747
10.4709,128.181425,37.939142,6749.5942224,174.278,-18.285,182.778
10.4876,128.181423,37.939096,6747.7556688,173.156,-18.305,182.808
10.5042,128.181421,37.939049,6745.911019200001,171.955,-18.327,182.839
10.5209,128.181418,37.939003,6744.059664,170.679,-18.35,182.868
10.5376,128.181416,37.938957,6742.202517600001,169.331,-18.373,182.898
10.5544,128.181414,37.938911,6740.3392752,167.916,-18.397,182.927
10.5711,128.181411,37.938864,6738.4699368,166.437,-18.421,182.956
10.5878,128.181409,37.938818,6736.5945024,164.897,-18.446,182.985
10.6045,128.181406,37.938772,6734.712972,163.3,-18.471,183.013
10.6212,128.181404,37.938726,6732.8256504,161.648,-18.495,183.042
10.6379,128.181401,37.93868,6730.932537600001,159.945,-18.52,183.07
10.6546,128.181399,37.938634,6729.033633600001,158.195,-18.545,183.098
10.6713,128.181397,37.938587,6727.1304624,156.63,-18.579,183.099
10.6879,128.181394,37.938541,6725.2224144,155.244,-18.624,183.073
10.7046,128.181391,37.938495,6723.3097944,154.045,-18.676,183.031
10.7213,128.181389,37.938449,6721.3926024,153.04,-18.729,182.984
10.7381,128.181386,37.938403,6719.4717528,152.227,-18.783,182.937
10.7548,128.181384,37.938357,6717.5469408,151.603,-18.835,182.893
10.7715,128.181381,37.938311,6715.6190808,151.159,-18.887,182.853
10.7882,128.181379,37.938265,6713.6875632,150.886,-18.938,182.815
10.8049,128.181376,37.938219,6711.7536072,150.776,-18.988,182.78
10.8216,128.181374,37.938172,6709.816908,150.822,-19.038,182.746
10.8383,128.181371,37.938126,6707.877770400001,151.016,-19.088,182.713
10.855,128.181368,37.93808,6705.936804,151.351,-19.137,182.682
10.8717,128.181366,37.938034,6703.9940088,151.822,-19.185,182.651
10.8883,128.181363,37.937988,6702.0496896,152.421,-19.232,182.62
10.905,128.181361,37.937942,6700.1038464,153.143,-19.278,182.591
10.9218,128.181358,37.937895,6698.1573935999995,153.983,-19.323,182.561
10.9385,128.181356,37.937849,6696.2103312,154.934,-19.366,182.532
10.9552,128.181353,37.937803,6694.262659200001,155.991,-19.408,182.502
10.9719,128.181351,37.937757,6692.314072800001,157.149,-19.448,182.473
10.9886,128.181348,37.937711,6690.3648768,158.402,-19.486,182.444
11.0053,128.181346,37.937664,6688.4147664,159.747,-19.523,182.415
11.022,128.181343,37.937618,6686.4643512,161.179,-19.558,182.386
11.0387,128.181341,37.937572,6684.5127168,162.692,-19.591,182.356
11.0554,128.181338,37.937525,6682.560472800001,164.284,-19.622,182.327
11.072,128.181336,37.937479,6680.607619200001,165.949,-19.651,182.298
11.0887,128.181333,37.937433,6678.653851200001,167.683,-19.679,182.268
11.1054,128.181331,37.937386,6676.6979496,169.249,-19.701,182.27
11.1222,128.181329,37.93734,6674.740219200001,170.65,-19.716,182.301
11.1389,128.181326,37.937293,6672.78066,171.877,-19.727,182.349
11.1556,128.181324,37.937247,6670.8183576,172.923,-19.737,182.403
11.1723,128.181321,37.937201,6668.8536168,173.789,-19.747,182.454
11.189,128.181319,37.937154,6666.885828,174.478,-19.757,182.503
11.2057,128.181316,37.937108,6664.9146864,175.0,-19.768,182.547
11.2224,128.181314,37.937061,6662.9398872,175.363,-19.782,182.59
11.2391,128.181311,37.937015,6660.9611256,175.575,-19.796,182.631
11.2557,128.181309,37.936968,6658.9780968000005,175.642,-19.813,182.67
11.2724,128.181307,37.936922,6656.990496,175.573,-19.83,182.709
11.2891,128.181304,37.936876,6654.998018400001,175.373,-19.849,182.747
11.3059,128.181302,37.936829,6653.0003592,175.048,-19.869,182.784
11.3226,128.181299,37.936783,6650.9975184,174.603,-19.891,182.82
11.3393,128.181297,37.936736,6648.9885816000005,174.045,-19.913,182.856
11.356,128.181294,37.93669,6646.9741584,173.378,-19.937,182.891
11.3727,128.181292,37.936644,6644.9533344,172.607,-19.961,182.925
11.3894,128.181289,37.936597,6642.9255,171.738,-19.986,182.959
11.4061,128.181287,37.936551,6640.891874400001,170.775,-20.014,182.992
11.4228,128.181284,37.936505,6638.851848,169.723,-20.045,183.026
11.4394,128.181282,37.936458,6636.805420799999,168.586,-20.081,183.06
11.4561,128.181279,37.936412,6634.752897600001,167.367,-20.125,183.096
11.4728,128.181277,37.936366,6632.6939736,166.071,-20.176,183.133
11.4896,128.181274,37.93632,6630.6286488,164.702,-20.236,183.173
11.5063,128.181271,37.936273,6628.556923200001,163.264,-20.304,183.216
11.523,128.181269,37.936227,6626.479101600001,161.759,-20.38,183.262
11.5397,128.181266,37.936181,6624.394574400001,160.193,-20.466,183.312
11.5564,128.181264,37.936135,6622.303341600001,158.569,-20.559,183.368
11.5731,128.181261,37.936089,6620.205708,156.889,-20.662,183.428
11.5898,128.181258,37.936042,6618.101064,155.157,-20.772,183.495
11.6065,128.181256,37.935996,6615.991848,153.621,-20.887,183.532
11.6231,128.181253,37.93595,6613.8774504,152.274,-20.991,183.53
11.6398,128.18125,37.935904,6611.7578712,151.13,-21.074,183.497
11.6565,128.181247,37.935858,6609.633110400001,150.192,-21.136,183.448
11.6733,128.181244,37.935812,6607.503168,149.457,-21.184,183.395
11.69,128.181242,37.935766,6605.3692632,148.918,-21.225,183.342
11.7067,128.181239,37.935719,6603.2307864,148.563,-21.261,183.293
11.7234,128.181236,37.935673,6601.088652000001,148.383,-21.295,183.246
11.7401,128.181233,37.935627,6598.94286,148.368,-21.33,183.201
11.7568,128.18123,37.935581,6596.794020000001,148.51,-21.366,183.158
11.7735,128.181228,37.935535,6594.642132,148.8,-21.401,183.117
11.7902,128.181225,37.935489,6592.487500800001,149.233,-21.437,183.078
11.8068,128.181222,37.935442,6590.330736,149.802,-21.473,183.039
11.8235,128.181219,37.935396,6588.171837600001,150.501,-21.509,183.002
11.8402,128.181216,37.93535,6586.011110400001,151.323,-21.545,182.965
11.857,128.181214,37.935304,6583.849164,152.263,-21.579,182.929
11.8737,128.181211,37.935258,6581.6856935999995,153.315,-21.613,182.894
11.8904,128.181208,37.935211,6579.5216136,154.474,-21.645,182.86
11.9071,128.181205,37.935165,6577.356314400001,155.735,-21.676,182.825
11.9238,128.181202,37.935119,6575.189491200001,157.092,-21.707,182.791
11.9405,128.1812,37.935072,6573.0217536,158.54,-21.736,182.757
11.9572,128.181197,37.935026,6570.853101600001,160.075,-21.763,182.724
11.9739,128.181194,37.93498,6568.6832304,161.693,-21.789,182.691
11.9905,128.181191,37.934933,6566.51214,163.389,-21.814,182.657
12.0072,128.181189,37.934887,6564.3401352,165.159,-21.837,182.624
12.0239,128.181186,37.93484,6562.1647776,166.751,-21.867,182.629
12.0407,128.181183,37.934794,6559.9872864,168.168,-21.917,182.673
12.0574,128.181181,37.934747,6557.807052000001,169.403,-21.979,182.737
12.0741,128.181178,37.934701,6555.624074400001,170.448,-22.042,182.805
12.0908,128.181175,37.934654,6553.437744,171.304,-22.099,182.87
12.1075,128.181172,37.934608,6551.247756000001,171.977,-22.146,182.927
12.1242,128.18117,37.934561,6549.0538056000005,172.477,-22.183,182.978
12.1409,128.181167,37.934515,6546.855588,172.813,-22.211,183.023
12.1576,128.181164,37.934468,6544.6527984,172.994,-22.231,183.066
12.1743,128.181161,37.934422,6542.4448272,173.027,-22.245,183.106
12.1909,128.181159,37.934375,6540.231674400001,172.92,-22.255,183.144
12.2076,128.181156,37.934329,6538.0130352,172.681,-22.263,183.182
12.2243,128.181153,37.934283,6535.7886048,172.313,-22.27,183.218
12.2411,128.18115,37.934236,6533.5580784,171.825,-22.277,183.254
12.2578,128.181147,37.93419,6531.321456000001,171.22,-22.287,183.289
12.2745,128.181145,37.934143,6529.0778232,170.506,-22.3,183.324
12.2912,128.181142,37.934097,6526.8274848,169.685,-22.318,183.358
12.3079,128.181139,37.93405,6524.570136,168.765,-22.341,183.394
12.3246,128.181136,37.934004,6522.306081600001,167.748,-22.37,183.429
12.3413,128.181133,37.933958,6520.0353216,166.641,-22.406,183.467
12.358,128.18113,37.933911,6517.7575512,165.447,-22.449,183.505
12.3746,128.181128,37.933865,6515.4730752,164.17,-22.499,183.546
12.3913,128.181125,37.933819,6513.1821984,162.816,-22.557,183.589
12.408,128.181122,37.933772,6510.8840064000005,161.387,-22.623,183.636
12.4248,128.181119,37.933726,6508.5794136,159.888,-22.698,183.686
12.4415,128.181116,37.93368,6506.267810400001,158.322,-22.78,183.741
12.4582,128.181113,37.933634,6503.9491968,156.694,-22.871,183.802
12.4749,128.18111,37.933588,6501.623268,155.007,-22.969,183.868
12.4916,128.181107,37.933541,6499.290633600001,153.264,-23.076,183.94
12.5083,128.181104,37.933495,6496.9531224,151.725,-23.187,183.98
12.525,128.181101,37.933449,6494.609820000001,150.385,-23.289,183.976
12.5417,128.181098,37.933403,6492.261031200001,149.257,-23.367,183.938
12.5583,128.181094,37.933357,6489.906756,148.347,-23.424,183.883
12.575,128.181091,37.933311,6487.547604,147.649,-23.465,183.823
12.5917,128.181088,37.933264,6485.1835752,147.154,-23.498,183.765
12.6085,128.181085,37.933218,6482.814974400001,146.851,-23.527,183.71
12.6252,128.181082,37.933172,6480.442411200001,146.727,-23.556,183.66
12.6419,128.181079,37.933126,6478.0661904,146.771,-23.587,183.612
12.6586,128.181075,37.93308,6475.6866168,146.976,-23.618,183.566
12.6753,128.181072,37.933034,6473.3036904,147.334,-23.65,183.522
12.692,128.181069,37.932988,6470.9183256,147.838,-23.683,183.479
12.7087,128.181066,37.932941,6468.5302176000005,148.481,-23.716,183.438
12.7254,128.181062,37.932895,6466.139976,149.257,-23.749,183.398
12.742,128.181059,37.932849,6463.7479056,150.159,-23.781,183.359
12.7587,128.181056,37.932803,6461.354311200001,151.181,-23.813,183.321
12.7754,128.181053,37.932757,6458.959192800001,152.317,-23.844,183.283
12.7922,128.18105,37.93271,6456.563160000001,153.563,-23.874,183.246
12.8089,128.181047,37.932664,6454.165908,154.911,-23.903,183.21
12.8256,128.181043,37.932618,6451.767132,156.358,-23.93,183.174
12.8423,128.18104,37.932571,6449.3674416,157.897,-23.957,183.138
12.859,128.181037,37.932525,6446.9662272000005,159.525,-23.982,183.103
12.8757,128.181034,37.932479,6444.5640984,161.236,-24.006,183.067
12.8924,128.181031,37.932432,6442.1607504,163.026,-24.028,183.032
12.9091,128.181028,37.932386,6439.756183200001,164.891,-24.048,182.997
12.9257,128.181025,37.932339,6437.3482632000005,166.564,-24.077,183.004
12.9424,128.181021,37.932293,6434.9379048,168.051,-24.124,183.052
12.9591,128.181018,37.932246,6432.5254128,169.341,-24.181,183.122
12.9759,128.181015,37.9322,6430.109568,170.427,-24.237,183.195
12.9926,128.181012,37.932153,6427.690370400001,171.312,-24.286,183.262
13.0093,128.181009,37.932107,6425.267515200001,172.002,-24.325,183.32
13.026,128.181006,37.93206,6422.840088000001,172.599,-24.375,183.349
13.0427,128.181003,37.932014,6420.407784000001,173.143,-24.453,183.352
13.0594,128.181,37.931967,6417.9702984,173.657,-24.577,183.344
13.0761,128.180996,37.931921,6415.5273264,174.16,-24.762,183.335
13.0928,128.180993,37.931875,6413.0782584,174.66,-25.026,183.335
13.1095,128.18099,37.931828,6410.6218751999995,175.154,-25.379,183.347
13.1262,128.180987,37.931782,6408.1572624,175.639,-25.831,183.368
13.1429,128.180984,37.931735,6405.6844200000005,176.109,-26.365,183.396
13.1596,128.18098,37.931689,6403.201824000001,176.558,-26.963,183.426
13.1763,128.180977,37.931643,6400.708864800001,176.986,-27.6,183.455
13.193,128.180974,37.931596,6398.2049328,177.389,-28.252,183.481
13.2097,128.180971,37.93155,6395.6894184,177.768,-28.893,183.501
13.2264,128.180968,37.931504,6393.1626264,178.222,-29.5,183.506
13.2431,128.180964,37.931458,6390.624556800001,178.742,-30.048,183.496
13.2598,128.180961,37.931411,6388.074904800001,179.309,-30.531,183.477
13.2765,128.180958,37.931365,6385.512756000001,179.904,-30.961,183.455
13.2932,128.180955,37.931319,6382.9365864,-179.489,-31.354,183.431
13.3099,128.180951,37.931273,6380.346700800001,-178.886,-31.719,183.407
13.3266,128.180948,37.931227,6377.7421848,-178.298,-32.065,183.381
13.3433,128.180945,37.931181,6375.122733600001,-177.734,-32.395,183.35
13.36,128.180942,37.931135,6372.488347200001,-177.2,-32.712,183.317
13.3767,128.180939,37.93109,6369.838416,-176.698,-33.016,183.28
13.3934,128.180936,37.931044,6367.1732448,-176.229,-33.31,183.24
13.4101,128.180932,37.930998,6364.4922240000005,-175.793,-33.593,183.198
13.4268,128.180929,37.930952,6361.7956584,-175.387,-33.868,183.153
13.4435,128.180926,37.930907,6359.0832432,-175.012,-34.134,183.105
13.4602,128.180923,37.930861,6356.354978400001,-174.664,-34.393,183.056
13.4769,128.18092,37.930816,6353.610864,-174.341,-34.646,183.007
13.4936,128.180917,37.930771,6350.8505952000005,-174.04,-34.892,182.958
13.5103,128.180914,37.930725,6348.0744768,-173.759,-35.134,182.909
13.527,128.180911,37.93068,6345.282204,-173.499,-35.37,182.86
13.5437,128.180908,37.930635,6342.4737768,-173.257,-35.602,182.809
13.5604,128.180905,37.93059,6339.6495,-173.032,-35.829,182.757
13.5771,128.180902,37.930545,6336.8090688,-172.822,-36.053,182.704
13.5938,128.180899,37.9305,6333.9527880000005,-172.625,-36.273,182.65
13.6105,128.180896,37.930455,6331.080048,-172.44,-36.49,182.595
13.6272,128.180893,37.930411,6328.191458400001,-172.266,-36.704,182.539
13.6439,128.18089,37.930366,6325.2867144,-172.101,-36.916,182.483
13.6606,128.180887,37.930321,6322.366120799999,-171.944,-37.125,182.426
13.6773,128.180885,37.930277,6319.429068,-171.795,-37.331,182.369
13.694,128.180882,37.930232,6316.476165600001,-171.652,-37.536,182.311
13.7107,128.180879,37.930188,6313.5074136,-171.515,-37.738,182.253
13.7274,128.180876,37.930144,6310.5222023999995,-171.384,-37.939,182.195
13.7441,128.180874,37.930099,6307.5211416,-171.258,-38.139,182.136
13.7608,128.180871,37.930055,6304.5042312000005,-171.136,-38.336,182.076
13.7775,128.180868,37.930011,6301.4711664,-171.018,-38.533,182.017
13.7942,128.180866,37.929967,6298.4219472,-170.903,-38.728,181.957
13.8109,128.180863,37.929923,6295.356878400001,-170.792,-38.922,181.897
13.8276,128.180861,37.92988,6292.275960000001,-170.685,-39.115,181.837
13.8443,128.180858,37.929836,6289.1791920000005,-170.58,-39.307,181.776
13.861,128.180856,37.929792,6286.066269600001,-170.477,-39.499,181.716
13.8777,128.180853,37.929749,6282.937497600001,-170.378,-39.689,181.655
13.8944,128.180851,37.929705,6279.7925712,-170.28,-39.879,181.593
13.9111,128.180848,37.929662,6276.632100000001,-170.185,-40.068,181.532
13.9278,128.180846,37.929619,6273.4557792000005,-170.091,-40.256,181.47
13.9445,128.180844,37.929575,6270.2636088,-170.0,-40.444,181.408
13.9612,128.180841,37.929532,6267.0555888,-169.91,-40.631,181.346
13.9779,128.180839,37.929489,6263.8317192,-169.822,-40.818,181.284
13.9946,128.180837,37.929446,6260.5923048,-169.736,-41.005,181.221
14.0113,128.180835,37.929404,6257.3370408,-169.651,-41.191,181.159
14.028,128.180833,37.929361,6254.0659272,-169.567,-41.376,181.096
14.0447,128.180831,37.929318,6250.779268800001,-169.485,-41.561,181.032
14.0614,128.180828,37.929276,6247.477065600001,-169.404,-41.746,180.969
14.0781,128.180826,37.929233,6244.159317600001,-169.324,-41.931,180.905
14.0948,128.180824,37.929191,6240.825720000001,-169.245,-42.116,180.841
14.1115,128.180822,37.929148,6237.4765776,-169.168,-42.3,180.777
14.1282,128.180821,37.929106,6234.1118904,-169.091,-42.484,180.713
14.1449,128.180819,37.929064,6230.7319632,-169.016,-42.668,180.648
14.1616,128.180817,37.929022,6227.336186400001,-168.941,-42.851,180.583
14.1783,128.180815,37.92898,6223.925169600001,-168.867,-43.035,180.518
14.195,128.180813,37.928938,6220.4989128,-168.794,-43.218,180.453
14.2117,128.180811,37.928896,6217.056806400001,-168.722,-43.401,180.388
14.2284,128.18081,37.928855,6213.5997648,-168.651,-43.584,180.322
14.2451,128.180808,37.928813,6210.127178400001,-168.58,-43.767,180.256
14.2618,128.180806,37.928772,6206.639352000001,-168.51,-43.949,180.189
14.2785,128.180805,37.92873,6203.1359808,-168.441,-44.132,180.123
14.2952,128.180803,37.928689,6199.6176744,-168.373,-44.315,180.056
14.3119,128.180802,37.928648,6196.084128,-168.305,-44.497,179.989
14.3286,128.1808,37.928607,6192.535341600001,-168.237,-44.679,179.921
14.3453,128.180799,37.928566,6188.9713152,-168.17,-44.862,179.854
14.362,128.180798,37.928525,6185.3920488,-168.104,-45.044,179.786
14.3787,128.180796,37.928484,6181.7978472,-168.038,-45.226,179.718
14.3954,128.180795,37.928443,6178.188710400001,-167.972,-45.408,179.649
14.4121,128.180794,37.928403,6174.564333600001,-167.907,-45.59,179.581
14.4288,128.180792,37.928362,6170.9250216,-167.843,-45.772,179.512
14.4455,128.180791,37.928322,6167.270774400001,-167.779,-45.954,179.442
14.4622,128.18079,37.928282,6163.601592000001,-167.715,-46.136,179.373
14.4789,128.180789,37.928241,6159.917474400001,-167.651,-46.318,179.303
14.4956,128.180788,37.928201,6156.2187264,-167.588,-46.5,179.232
14.5123,128.180787,37.928161,6152.504738400001,-167.526,-46.682,179.162
14.529,128.180786,37.928121,6148.77612,-167.463,-46.863,179.091
14.5457,128.180785,37.928082,6145.0328712,-167.401,-47.045,179.02
14.5624,128.180784,37.928042,6141.274687200001,-167.339,-47.227,178.948
14.5791,128.180783,37.928002,6137.5018728000005,-167.277,-47.408,178.877
14.5958,128.180782,37.927963,6133.7141232,-167.215,-47.59,178.805
14.6125,128.180781,37.927923,6129.912048,-167.154,-47.772,178.732
14.6292,128.180781,37.927884,6126.095342400001,-167.092,-47.953,178.66
14.6459,128.18078,37.927845,6122.264006400001,-167.16,-48.139,178.616
14.6626,128.180779,37.927806,6118.4174304,-167.352,-48.33,178.601
14.6793,128.180779,37.927767,6114.5556144,-167.67,-48.524,178.602
14.696,128.180778,37.927728,6110.6779488,-168.111,-48.719,178.608
14.7127,128.180777,37.927689,6106.784738400001,-168.674,-48.914,178.615
14.7294,128.180777,37.927651,6102.875373600001,-169.354,-49.11,178.622
14.7461,128.180776,37.927613,6098.9498544,-170.146,-49.306,178.628
14.7628,128.180776,37.927574,6095.007876,-171.045,-49.504,178.638
14.7795,128.180776,37.927536,6091.049438400001,-172.048,-49.703,178.651
14.7962,128.180775,37.927498,6087.074846400001,-173.151,-49.903,178.671
14.8129,128.180775,37.92746,6083.0841,-174.35,-50.105,178.697
14.8296,128.180775,37.927423,6079.0768944,-175.643,-50.309,178.731
14.8463,128.180774,37.927385,6075.0538392,-177.027,-50.514,178.774
14.863,128.180774,37.927348,6071.014629599999,-178.5,-50.72,178.827
14.8797,128.180774,37.92731,6066.959570400001,179.94,-50.928,178.889
14.8964,128.180774,37.927273,6062.8886616,178.296,-51.137,178.963
14.9131,128.180773,37.927236,6058.8019032,176.571,-51.347,179.049
14.9298,128.180773,37.927199,6054.699904800001,174.766,-51.538,179.145
14.9465,128.180773,37.927163,6050.5823616,172.889,-51.69,179.248
14.9632,128.180772,37.927126,6046.450188000001,170.945,-51.785,179.351
14.9799,128.180772,37.927089,6042.3039936,168.945,-51.805,179.444
14.9966,128.180772,37.927053,6038.1446928000005,167.161,-51.781,179.477
15.0133,128.180771,37.927017,6033.9722856,165.584,-51.738,179.455
15.03,128.180771,37.926981,6029.7876864,164.201,-51.694,179.41
15.0467,128.18077,37.926945,6025.591200000001,163.001,-51.671,179.369
15.0634,128.18077,37.926909,6021.3831312,161.969,-51.686,179.351
15.0801,128.180769,37.926873,6017.1640896,161.089,-51.752,179.37
15.0968,128.180768,37.926837,6012.9346848,160.343,-51.887,179.433
15.1135,128.180768,37.926801,6008.6943071999995,159.718,-52.097,179.545
15.1302,128.180767,37.926766,6004.4432615999995,159.212,-52.366,179.697
