Time,Longitude,Latitude,Altitude,Roll (deg),Pitch (deg),Yaw (deg)
0.0,128.181881,37.968643,7002.8955192,0.0,-0.003,0.0
0.0167,128.181881,37.968688,7002.909540000001,0.0,-0.012,0.0
0.0334,128.181881,37.968733,7002.9226464,0.0,-0.026,0.0
0.0501,128.181881,37.968778,7002.9348384,0.0,-0.042,0.0
0.0668,128.181881,37.968823,7002.9464208,0.0,-0.06,0.0
0.0834,128.181881,37.968868,7002.9570888,0.0,-0.08,0.0
0.1002,128.181881,37.968913,7002.9665376,0.0,-0.1,0.0
0.1169,128.181881,37.968958,7002.9753768,0.0,-0.12,0.0
0.1336,128.181881,37.969003,7002.983301600001,0.0,-0.14,0.0
0.1503,128.181881,37.969048,7002.9900072,0.0,-0.161,0.0
0.1669,128.181881,37.969093,7002.996408,0.0,-0.168,0.0
0.1837,128.181881,37.969138,7003.0015896,0.0,-0.174,0.0
0.2004,128.181881,37.969183,7003.005856800001,0.0,-0.184,0.0
0.2171,128.181881,37.969228,7003.009209600001,0.0,-0.198,0.0
0.2338,128.181881,37.969273,7003.011648,0.0,-0.214,0.0
0.2505,128.181881,37.969318,7003.0128672,0.0,-0.231,0.0
0.2672,128.181881,37.969363,7003.0134768,0.0,-0.249,0.0
0.2839,128.181881,37.969408,7003.0128672,0.0,-0.268,0.0
0.3006,128.181881,37.969453,7003.011648,0.0,-0.286,0.0
0.3172,128.181881,37.969498,7003.009209600001,0.0,-0.305,0.0
0.3339,128.181881,37.969544,7003.0055520000005,0.0,-0.324,0.0
0.3507,128.181881,37.969589,7003.0012848,0.0,-0.343,0.0
0.3674,128.181881,37.969634,7002.9957984,0.001,-0.361,0.0
0.3841,128.181881,37.969679,7002.989397600001,0.001,-0.38,0.0
0.4008,128.181881,37.969724,7002.982082400001,0.001,-0.398,0.0
0.4175,128.181881,37.969769,7002.973548,0.001,-0.416,0.0
0.4342,128.181881,37.969814,7002.9640992,0.001,-0.433,0.0
0.4509,128.181881,37.969859,7002.9534312000005,0.001,-0.451,0.0
0.4676,128.181881,37.969905,7002.9418488,0.001,-0.468,0.0
0.4843,128.181881,37.96995,7002.929047200001,0.002,-0.485,0.0
0.501,128.181881,37.969995,7002.9153312,0.002,-0.502,0.0
0.5176,128.181881,37.97004,7002.900700800001,0.002,-0.519,0.0
0.5344,128.181881,37.970085,7002.8848512,0.002,-0.535,0.0
0.5511,128.181881,37.970131,7002.867782400001,0.003,-0.552,0.0
0.5678,128.181881,37.970176,7002.8497992,0.003,-0.568,0.0
0.5845,128.181881,37.970221,7002.830901600001,0.004,-0.584,0.0
0.6012,128.181881,37.970266,7002.81048,0.004,-0.6,0.0
0.6179,128.181881,37.970312,7002.789144,0.004,-0.616,0.0
0.6345,128.181881,37.970357,7002.7668936,0.005,-0.631,0.0
0.6513,128.181881,37.970402,7002.743424,0.005,-0.647,0.0
0.6679,128.181881,37.970447,7002.7187352,0.006,-0.662,0.0
0.6847,128.181881,37.970493,7002.693132,0.007,-0.678,0.0
0.7014,128.181881,37.970538,7002.6663096,0.007,-0.693,0.001
0.7181,128.181881,37.970583,7002.638268000001,0.008,-0.708,0.001
0.7348,128.181881,37.970629,7002.609312,0.009,-0.723,0.001
0.7514,128.181881,37.970674,7002.5791368,0.01,-0.738,0.001
0.7682,128.181881,37.970719,7002.547742400001,0.011,-0.753,0.001
0.7848,128.181881,37.970765,7002.5154336000005,0.012,-0.767,0.001
0.8016,128.181881,37.97081,7002.481905600001,0.013,-0.782,0.001
0.8183,128.181881,37.970855,7002.4471584,0.015,-0.796,0.001
0.835,128.181881,37.970901,7002.4111920000005,0.016,-0.811,0.001
0.8517,128.181881,37.970946,7002.374311200001,0.017,-0.825,0.001
0.8684,128.181881,37.970992,7002.3362112,0.019,-0.84,0.001
0.8851,128.181881,37.971037,7002.296892,0.021,-0.854,0.002
0.9018,128.181881,37.971082,7002.256658400001,0.023,-0.868,0.002
0.9185,128.181881,37.971128,7002.2152056,0.025,-0.882,0.002
0.9352,128.181881,37.971173,7002.172533600001,0.027,-0.896,0.002
0.9519,128.181881,37.971219,7002.128642400001,0.03,-0.911,0.002
0.9686,128.181881,37.971264,7002.083532000001,0.033,-0.925,0.002
0.9853,128.181881,37.97131,7002.0375072,0.036,-0.939,0.003
1.002,128.181881,37.971355,7001.9902632,0.039,-0.952,0.003
1.0187,128.181881,37.971401,7001.9418000000005,0.043,-0.966,0.003
1.0353,128.181881,37.971446,7001.8921176,0.046,-0.98,0.003
1.0521,128.181881,37.971491,7001.8415208,0.051,-0.994,0.004
1.0688,128.181881,37.971537,7001.7897048,0.055,-1.008,0.004
1.0855,128.181881,37.971583,7001.736364800001,0.06,-1.021,0.004
1.1022,128.181881,37.971628,7001.682110400001,0.066,-1.035,0.004
1.1189,128.181881,37.971674,7001.6269416000005,0.072,-1.049,0.005
1.1356,128.181881,37.971719,7001.5702488,0.078,-1.062,0.005
1.1522,128.181881,37.971765,7001.5123368,0.085,-1.076,0.006
1.169,128.181881,37.97181,7001.453510400001,0.092,-1.09,0.006
1.1857,128.181881,37.971856,7001.3934648,0.101,-1.103,0.006
1.2024,128.181881,37.971901,7001.332200000001,0.11,-1.117,0.007
1.2191,128.181881,37.971947,7001.269716,0.119,-1.13,0.008
1.2358,128.181881,37.971993,7001.2060128,0.13,-1.144,0.008
1.2525,128.181881,37.972038,7001.1410904,0.141,-1.157,0.009
1.2691,128.181881,37.972084,7001.0749488,0.154,-1.171,0.009
1.2859,128.181881,37.972129,7001.007588,0.167,-1.184,0.01
1.3026,128.181881,37.972175,7000.9393128,0.182,-1.198,0.011
1.3193,128.181881,37.972221,7000.869513600001,0.198,-1.211,0.012
1.3359,128.181881,37.972266,7000.798495200001,0.215,-1.225,0.013
1.3527,128.181881,37.972312,7000.7265624,0.234,-1.238,0.014
1.3694,128.181881,37.972358,7000.6531056,0.255,-1.251,0.015
1.386,128.181881,37.972403,7000.5784296,0.277,-1.265,0.016
1.4028,128.181881,37.972449,7000.5028392,0.301,-1.278,0.018
1.4195,128.181881,37.972495,7000.425724800001,0.328,-1.292,0.019
1.4362,128.181881,37.972541,7000.347391200001,0.356,-1.305,0.02
1.4528,128.181881,37.972586,7000.267838400001,0.388,-1.319,0.022
1.4696,128.181881,37.972632,7000.1867616,0.421,-1.332,0.024
1.4863,128.181881,37.972678,7000.104770400001,0.458,-1.346,0.026
1.5029,128.181881,37.972724,7000.0212552,0.498,-1.359,0.028
1.5197,128.181881,37.972769,6999.9365208,0.542,-1.373,0.03
1.5364,128.181881,37.972815,6999.8502624,0.589,-1.386,0.033
1.5531,128.181881,37.972861,6999.7627848,0.64,-1.4,0.036
1.5697,128.181881,37.972907,6999.674088000001,0.696,-1.414,0.039
1.5865,128.181881,37.972952,6999.5838672,0.757,-1.427,0.042
1.6032,128.181881,37.972998,6999.492427200001,0.823,-1.441,0.045
1.6198,128.181881,37.973044,6999.3994632,0.894,-1.455,0.049
1.6366,128.181881,37.97309,6999.3049752,0.972,-1.469,0.053
1.6533,128.181881,37.973136,6999.208963200001,1.057,-1.483,0.058
1.67,128.181881,37.973182,6999.111732,1.149,-1.497,0.062
1.6867,128.181881,37.973228,6999.012672,1.249,-1.511,0.068
1.7034,128.181881,37.973273,6998.912392800001,1.358,-1.525,0.073
1.7201,128.181881,37.973319,6998.8102848,1.476,-1.54,0.079
1.7368,128.181881,37.973365,6998.7066528,1.605,-1.554,0.086
1.7535,128.181881,37.973411,6998.601496800001,1.744,-1.569,0.093
1.7702,128.181881,37.973457,6998.494512,1.896,-1.584,0.101
1.7869,128.181881,37.973503,6998.3856984,2.061,-1.599,0.11
1.8036,128.181881,37.973549,6998.275056,2.241,-1.614,0.119
1.8203,128.181881,37.973595,6998.1625848,2.437,-1.629,0.128
1.837,128.181881,37.973641,6998.0482848,2.651,-1.645,0.138
1.8537,128.181881,37.973687,6997.931851200001,2.885,-1.661,0.148
1.8704,128.181881,37.973733,6997.8135888,3.139,-1.677,0.158
1.8871,128.181881,37.973779,6997.6931928,3.417,-1.694,0.168
1.9038,128.181881,37.973825,6997.5703584,3.719,-1.711,0.179
1.9205,128.181881,37.973871,6997.4453904,4.049,-1.728,0.19
1.9372,128.181881,37.973917,6997.317984000001,4.408,-1.745,0.201
1.9539,128.181881,37.973963,6997.1881392,4.799,-1.764,0.212
1.9706,128.181882,37.974009,6997.055551200001,5.225,-1.782,0.224
1.9873,128.181882,37.974055,6996.920220000001,5.688,-1.801,0.236
2.004,128.181882,37.974101,6996.7818408,6.194,-1.821,0.249
2.0207,128.181882,37.974147,6996.6407184,6.744,-1.842,0.262
2.0374,128.181882,37.974193,6996.4962432,7.344,-1.863,0.276
2.0541,128.181882,37.97424,6996.3499392,7.913,-1.884,0.285
2.0707,128.181882,37.974286,6996.2015016000005,8.449,-1.905,0.289
2.0875,128.181882,37.974332,6996.05154,8.958,-1.926,0.291
2.1042,128.181882,37.974378,6995.900359200001,9.445,-1.947,0.292
2.1208,128.181882,37.974424,6995.748264000001,9.918,-1.968,0.294
2.1376,128.181882,37.97447,6995.594340000001,10.381,-1.99,0.297
2.1543,128.181882,37.974517,6995.438892000001,10.841,-2.011,0.301
2.171,128.181882,37.974563,6995.2816152000005,11.302,-2.034,0.306
2.1877,128.181882,37.974609,6995.122814400001,11.768,-2.056,0.312
2.2044,128.181882,37.974655,6994.96188,12.243,-2.079,0.319
2.2211,128.181882,37.974702,6994.7991168,12.73,-2.102,0.326
2.2378,128.181882,37.974748,6994.634524800001,13.23,-2.125,0.333
2.2544,128.181882,37.974794,6994.4674944,13.745,-2.148,0.341
2.2712,128.181882,37.97484,6994.2986352,14.278,-2.172,0.349
2.2879,128.181882,37.974887,6994.127642400001,14.83,-2.196,0.358
2.3045,128.181882,37.974933,6993.954211200001,15.401,-2.22,0.366
2.3213,128.181882,37.974979,6993.778646400001,15.993,-2.244,0.375
2.338,128.181882,37.975026,6993.6006431999995,16.607,-2.269,0.383
2.3546,128.181882,37.975072,6993.420506400001,17.244,-2.294,0.392
2.3714,128.181883,37.975119,6993.2379312,17.905,-2.32,0.4
2.3881,128.181883,37.975165,6993.0526128,18.591,-2.346,0.409
2.4048,128.181883,37.975211,6992.865160800001,19.302,-2.372,0.418
2.4215,128.181883,37.975258,6992.674965600001,20.041,-2.399,0.427
2.4382,128.181883,37.975304,6992.4823320000005,20.808,-2.426,0.435
2.4549,128.181883,37.975351,6992.2869552,21.603,-2.454,0.444
2.4716,128.181883,37.975397,6992.0888352,22.429,-2.483,0.452
2.4882,128.181883,37.975443,6991.8882768,23.287,-2.512,0.46
2.505,128.181883,37.97549,6991.684670400001,24.177,-2.542,0.468
2.5217,128.181883,37.975536,6991.4783208,25.101,-2.572,0.475
2.5383,128.181883,37.975583,6991.2689232,26.06,-2.603,0.482
2.5551,128.181883,37.975629,6991.056782400001,27.055,-2.634,0.489
2.5718,128.181883,37.975676,6990.8415936,28.088,-2.666,0.494
2.5884,128.181883,37.975723,6990.623356800001,29.159,-2.698,0.499
2.6052,128.181884,37.975769,6990.402072,30.27,-2.731,0.504
2.6219,128.181884,37.975816,6990.1777392,31.423,-2.765,0.507
2.6386,128.181884,37.975862,6989.9500536000005,32.617,-2.799,0.51
2.6553,128.181884,37.975909,6989.719320000001,33.855,-2.834,0.512
2.6719,128.181884,37.975956,6989.4852336,35.138,-2.87,0.514
2.6887,128.181884,37.976002,6989.2477944,36.468,-2.906,0.514
2.7054,128.181884,37.976049,6989.0070024,37.844,-2.942,0.513
2.722,128.181884,37.976096,6988.7628576,39.27,-2.98,0.512
2.7388,128.181884,37.976142,6988.51536,40.746,-3.018,0.509
2.7555,128.181884,37.976189,6988.264509600001,42.27,-3.056,0.505
2.7721,128.181884,37.976236,6988.0103064,43.84,-3.095,0.5
2.7889,128.181884,37.976282,6987.752750400001,45.456,-3.133,0.493
2.8056,128.181884,37.976329,6987.492146400001,47.116,-3.172,0.485
2.8222,128.181884,37.976376,6987.2281896,48.818,-3.211,0.475
2.839,128.181884,37.976423,6986.96088,50.56,-3.25,0.464
2.8557,128.181884,37.97647,6986.6905224,52.342,-3.288,0.452
2.8724,128.181884,37.976516,6986.4171168,54.161,-3.327,0.438
2.8891,128.181884,37.976563,6986.1403584,56.017,-3.365,0.422
2.9057,128.181884,37.97661,6985.860552000001,57.908,-3.403,0.405
2.9225,128.181884,37.976657,6985.577697600001,59.834,-3.44,0.387
2.9392,128.181884,37.976704,6985.2914904,61.792,-3.477,0.368
2.9558,128.181884,37.976751,6985.00254,63.783,-3.513,0.347
2.9726,128.181884,37.976798,6984.7105416,65.804,-3.549,0.325
2.9893,128.181884,37.976845,6984.4154952,67.855,-3.584,0.302
3.0059,128.181884,37.976891,6984.117400800001,69.936,-3.618,0.278
3.0227,128.181884,37.976938,6983.8165632,72.044,-3.651,0.253
3.0394,128.181884,37.976985,6983.512677600001,74.18,-3.683,0.227
3.056,128.181884,37.977032,6983.205744,76.342,-3.715,0.2
3.0728,128.181884,37.977079,6982.8960672,78.53,-3.745,0.172
3.0895,128.181883,37.977126,6982.583647200001,80.743,-3.774,0.143
3.1062,128.181883,37.977173,6982.268179200001,82.98,-3.803,0.114
3.1229,128.181883,37.977221,6981.949968,85.241,-3.83,0.084
3.1395,128.181883,37.977268,6981.629318400001,87.524,-3.856,0.054
3.1563,128.181883,37.977315,6981.3056208,89.829,-3.881,0.023
3.173,128.181883,37.977362,6980.9794848,92.156,-3.904,359.992
3.1896,128.181883,37.977409,6980.650605600001,94.503,-3.927,359.96
3.2064,128.181883,37.977456,6980.319288000001,96.87,-3.948,359.929
3.2231,128.181882,37.977503,6979.985227200001,99.257,-3.969,359.903
3.2397,128.181882,37.97755,6979.648728,101.661,-3.991,359.89
3.2565,128.181882,37.977598,6979.3094856,104.082,-4.017,359.895
3.2732,128.181882,37.977645,6978.9678048000005,106.52,-4.047,359.919
3.2899,128.181882,37.977692,6978.6236856000005,108.972,-4.084,359.965
3.3066,128.181881,37.977739,6978.277128000001,111.44,-4.13,0.032
3.3233,128.181881,37.977786,6977.9275224,113.92,-4.187,0.12
3.34,128.181881,37.977834,6977.575478400001,116.412,-4.255,0.227
3.3567,128.181881,37.977881,6977.2206912,118.914,-4.337,0.351
3.3734,128.181881,37.977928,6976.862246400001,121.409,-4.434,0.492
3.3901,128.181881,37.977976,6976.5004488,123.882,-4.545,0.649
3.4068,128.18188,37.978023,6976.134384000001,126.319,-4.671,0.819
3.4235,128.18188,37.97807,6975.763747200001,128.705,-4.814,1.001
3.4402,128.18188,37.978118,6975.388233600001,131.028,-4.974,1.193
3.4569,128.18188,37.978165,6975.007233600001,133.278,-5.152,1.394
3.4736,128.18188,37.978212,6974.620137600001,135.446,-5.348,1.6
3.4903,128.181881,37.97826,6974.226336000001,137.526,-5.561,1.811
3.507,128.181881,37.978307,6973.8249144,139.513,-5.793,2.024
3.5237,128.181881,37.978354,6973.4158728,141.402,-6.042,2.237
3.5404,128.181881,37.978402,6972.9982968,143.194,-6.307,2.449
3.5571,128.181882,37.978449,6972.5718816,144.888,-6.587,2.659
3.5738,128.181882,37.978496,6972.136322400001,146.484,-6.882,2.864
3.5905,128.181882,37.978544,6971.6910096,147.986,-7.189,3.064
3.6072,128.181883,37.978591,6971.235333600001,149.395,-7.507,3.258
3.6239,128.181884,37.978638,6970.7689896,150.717,-7.835,3.445
3.6406,128.181884,37.978686,6970.291977600001,151.955,-8.171,3.624
3.6573,128.181885,37.978733,6969.803383200001,153.113,-8.514,3.795
3.674,128.181886,37.97878,6969.303206400001,154.197,-8.86,3.956
3.6907,128.181886,37.978828,6968.7908376000005,155.211,-9.206,4.107
3.7074,128.181887,37.978875,6968.2662768,156.161,-9.547,4.245
3.7241,128.181888,37.978922,6967.729524,157.051,-9.881,4.371
3.7408,128.181889,37.97897,6967.179664800001,157.887,-10.208,4.485
3.7575,128.18189,37.979017,6966.617004000001,158.671,-10.526,4.588
3.7742,128.181891,37.979064,6966.040932000001,159.409,-10.836,4.68
3.7909,128.181893,37.979111,6965.4517536,160.105,-11.137,4.762
3.8076,128.181894,37.979159,6964.8485544000005,160.762,-11.429,4.835
3.8243,128.181895,37.979206,6964.231944,161.383,-11.713,4.9
3.841,128.181896,37.979253,6963.6013128,161.972,-11.99,4.957
3.8577,128.181898,37.9793,6962.9566608000005,162.53,-12.259,5.007
3.8744,128.181899,37.979348,6962.2976832,163.061,-12.522,5.051
3.8911,128.181901,37.979395,6961.625599200001,163.641,-12.78,5.085
3.9078,128.181902,37.979442,6960.940104,164.265,-13.033,5.109
3.9245,128.181904,37.979489,6960.2408928,164.925,-13.281,5.126
3.9412,128.181905,37.979536,6959.52888,165.61,-13.524,5.139
3.9579,128.181907,37.979584,6958.802846400001,166.31,-13.762,5.147
3.9746,128.181908,37.979631,6958.062182400001,167.015,-13.995,5.154
3.9913,128.18191,37.979678,6957.307192800001,167.716,-14.224,5.157
4.008,128.181912,37.979725,6956.537572800001,168.406,-14.449,5.158
4.0247,128.181913,37.979772,6955.7527128,169.079,-14.671,5.157
4.0414,128.181915,37.979819,6954.952917600001,169.729,-14.889,5.153
4.058,128.181917,37.979866,6954.1375776,170.354,-15.106,5.146
4.0748,128.181919,37.979913,6953.306692800001,170.95,-15.32,5.137
4.0915,128.181921,37.97996,6952.460568,171.517,-15.532,5.125
4.1082,128.181923,37.980007,6951.5988984,172.054,-15.743,5.111
4.1249,128.181925,37.980054,6950.721379200001,172.562,-15.952,5.094
4.1415,128.181927,37.980101,6949.828620000001,173.04,-16.16,5.075
4.1583,128.181928,37.980148,6948.919706400001,173.492,-16.367,5.056
4.175,128.18193,37.980195,6947.9955528,173.919,-16.573,5.036
4.1917,128.181933,37.980242,6947.0552448,174.321,-16.777,5.015
4.2084,128.181935,37.980289,6946.099696800001,174.699,-16.981,4.993
4.2251,128.181937,37.980335,6945.1279944,175.055,-17.183,4.969
4.2417,128.181939,37.980382,6944.140747200001,175.39,-17.385,4.945
4.2585,128.181941,37.980429,6943.137955200001,175.705,-17.585,4.919
4.2752,128.181943,37.980476,6942.1193136,176.002,-17.785,4.891
4.2919,128.181945,37.980523,6941.0851272,176.282,-17.983,4.863
4.3086,128.181947,37.980569,6940.035396,176.546,-18.18,4.833
4.3252,128.181949,37.980616,6938.969815200001,176.797,-18.377,4.803
4.342,128.181951,37.980663,6937.8883848,177.036,-18.572,4.771
4.3587,128.181954,37.980709,6936.7917144,177.263,-18.766,4.739
4.3754,128.181956,37.980756,6935.6791944,177.479,-18.959,4.706
4.3921,128.181958,37.980802,6934.550824800001,177.686,-19.152,4.672
4.4088,128.18196,37.980849,6933.407215200001,177.884,-19.343,4.638
4.4254,128.181962,37.980895,6932.247756000001,178.074,-19.533,4.603
4.4422,128.181965,37.980942,6931.072752000001,178.257,-19.722,4.568
4.4589,128.181967,37.980988,6929.8822032,178.434,-19.911,4.532
4.4756,128.181969,37.981035,6928.676109600001,178.605,-20.098,4.497
4.4923,128.181971,37.981081,6927.4541664,178.77,-20.285,4.46
4.5089,128.181974,37.981127,6926.216983200001,178.93,-20.471,4.424
4.5256,128.181976,37.981174,6924.963950400001,179.085,-20.656,4.388
4.5424,128.181978,37.98122,6923.695372800001,179.237,-20.84,4.352
4.5591,128.18198,37.981266,6922.4112504,179.386,-21.024,4.316
4.5758,128.181983,37.981313,6921.1115832000005,179.531,-21.207,4.282
4.5925,128.181985,37.981359,6919.7963712,179.674,-21.389,4.247
4.6091,128.181987,37.981405,6918.465614400001,179.813,-21.57,4.214
4.6259,128.18199,37.981451,6917.119008,179.95,-21.751,4.181
4.6426,128.181992,37.981497,6915.7571616,-179.914,-21.932,4.149
4.6593,128.181994,37.981543,6914.379770400001,-179.782,-22.112,4.117
4.676,128.181996,37.981589,6912.9868344,-179.652,-22.292,4.086
4.6927,128.181999,37.981635,6911.5783536,-179.524,-22.471,4.056
4.7093,128.182001,37.981681,6910.1543280000005,-179.398,-22.649,4.026
4.7261,128.182003,37.981727,6908.7147576,-179.275,-22.828,3.997
4.7428,128.182006,37.981773,6907.2596424,-179.153,-23.006,3.968
4.7595,128.182008,37.981819,6905.7889824,-179.033,-23.183,3.94
4.7762,128.18201,37.981865,6904.303082400001,-178.915,-23.361,3.913
4.7928,128.182013,37.981911,6902.801332800001,-178.799,-23.538,3.886
4.8096,128.182015,37.981956,6901.2843432,-178.685,-23.715,3.859
4.8263,128.182017,37.982002,6899.751808800001,-178.572,-23.891,3.833
4.843,128.182019,37.982048,6898.2040344,-178.461,-24.068,3.808
4.8597,128.182022,37.982094,6896.6404104,-178.352,-24.244,3.782
4.8764,128.182024,37.982139,6895.0615464,-178.245,-24.42,3.758
4.893,128.182026,37.982185,6893.4674424,-178.14,-24.596,3.734
4.9098,128.182029,37.98223,6891.8574888,-178.036,-24.771,3.71
4.9265,128.182031,37.982276,6890.2322952,-177.935,-24.947,3.686
4.9432,128.182033,37.982321,6888.591556800001,-177.835,-25.122,3.662
4.9599,128.182035,37.982367,6886.935578400001,-177.738,-25.297,3.639
4.9765,128.182038,37.982412,6885.2640552,-177.644,-25.472,3.615
4.9932,128.18204,37.982457,6883.577292000001,-177.551,-25.647,3.591
5.01,128.182042,37.982503,6881.874984000001,-177.46,-25.822,3.567
5.0267,128.182044,37.982548,6880.157436,-177.371,-25.997,3.543
5.0434,128.182047,37.982593,6878.424343199999,-177.285,-26.171,3.519
5.0601,128.182049,37.982638,6876.675705600001,-177.2,-26.346,3.494
5.0767,128.182051,37.982684,6874.912132800001,-177.117,-26.52,3.47
5.0935,128.182053,37.982729,6873.133015200001,-177.036,-26.695,3.445
5.1102,128.182056,37.982774,6871.3383527999995,-176.957,-26.869,3.42
5.1269,128.182058,37.982819,6869.528755200001,-176.879,-27.043,3.395
5.1436,128.18206,37.982864,6867.7036128,-176.804,-27.217,3.371
5.1602,128.182062,37.982909,6865.8629256,-176.73,-27.391,3.346
5.1769,128.182064,37.982954,6864.0073032,-176.658,-27.565,3.321
5.1937,128.182067,37.982998,6862.136136,-176.587,-27.739,3.296
5.2104,128.182069,37.983043,6860.2497288,-176.519,-27.912,3.271
5.2271,128.182071,37.983088,6858.3480816,-176.453,-28.086,3.245
5.2438,128.182073,37.983133,6856.4311944,-176.388,-28.26,3.22
5.2604,128.182075,37.983177,6854.4990672,-176.325,-28.433,3.195
5.2772,128.182078,37.983222,6852.5513952,-176.264,-28.607,3.17
5.2939,128.18208,37.983266,6850.588788000001,-176.204,-28.78,3.144
5.3106,128.182082,37.983311,6848.610636,-176.147,-28.954,3.119
5.3273,128.182084,37.983355,6846.6175488,-176.091,-29.127,3.094
5.3439,128.182086,37.9834,6844.6092216,-176.037,-29.3,3.069
5.3606,128.182088,37.983444,6842.585654400001,-175.985,-29.474,3.043
5.3774,128.18209,37.983489,6840.546847200001,-175.935,-29.647,3.018
5.3941,128.182092,37.983533,6838.4928,-175.886,-29.82,2.993
5.4108,128.182094,37.983577,6836.4235128,-175.84,-29.993,2.967
5.4275,128.182096,37.983621,6834.3392904,-175.795,-30.166,2.942
5.4441,128.182099,37.983665,6832.239523200001,-175.751,-30.339,2.917
5.4609,128.182101,37.98371,6830.1251256,-175.71,-30.512,2.892
5.4776,128.182103,37.983754,6827.995183200001,-175.67,-30.685,2.866
5.4943,128.182105,37.983798,6825.850305600001,-175.632,-30.858,2.841
5.511,128.182107,37.983842,6823.6901880000005,-175.595,-31.031,2.816
5.5277,128.182109,37.983885,6821.5151352,-175.561,-31.204,2.791
5.5443,128.182111,37.983929,6819.3248424,-175.527,-31.377,2.766
5.5611,128.182113,37.983973,6817.1196144000005,-175.496,-31.55,2.741
5.5778,128.182115,37.984017,6814.899146400001,-175.466,-31.723,2.716
5.5945,128.182117,37.98406,6812.6637432,-175.437,-31.895,2.691
5.6112,128.182118,37.984104,6810.4134048000005,-175.41,-32.068,2.667
5.6278,128.18212,37.984148,6808.1478264,-175.385,-32.241,2.642
5.6445,128.182122,37.984191,6805.8673128,-175.36,-32.414,2.617
5.6613,128.182124,37.984235,6803.5718640000005,-175.338,-32.586,2.593
5.678,128.182126,37.984278,6801.2611752,-175.317,-32.759,2.568
5.6947,128.182128,37.984321,6798.935856000001,-175.297,-32.932,2.544
5.7114,128.18213,37.984365,6796.595296800001,-175.278,-33.104,2.52
5.728,128.182132,37.984408,6794.2398023999995,-175.261,-33.277,2.495
5.7448,128.182134,37.984451,6791.869372800001,-175.245,-33.449,2.471
5.7615,128.182135,37.984494,6789.4843128,-175.231,-33.622,2.447
5.7782,128.182137,37.984537,6787.0840128,-175.217,-33.794,2.423
5.7949,128.182139,37.98458,6784.668777600001,-175.205,-33.967,2.4
5.8115,128.182141,37.984623,6782.238912,-175.194,-34.14,2.376
5.8282,128.182143,37.984666,6779.793806400001,-175.184,-34.312,2.352
5.845,128.182144,37.984709,6777.334070400001,-175.175,-34.485,2.329
5.8617,128.182146,37.984752,6774.859704,-175.167,-34.657,2.305
5.8784,128.182148,37.984795,6772.370097600001,-175.16,-34.83,2.282
5.8951,128.18215,37.984837,6769.8658608000005,-175.154,-35.002,2.259
5.9117,128.182151,37.98488,6767.3466888,-175.15,-35.175,2.236
5.9285,128.182153,37.984922,6764.8128864,-175.146,-35.347,2.213
5.9452,128.182155,37.984965,6762.2641488,-175.143,-35.52,2.19
5.9619,128.182156,37.985007,6759.7007808,-175.141,-35.692,2.168
5.9786,128.182158,37.98505,6757.122782400001,-175.139,-35.865,2.145
5.9952,128.18216,37.985092,6754.5298488,-175.139,-36.037,2.123
6.0119,128.182161,37.985134,6751.92198,-175.139,-36.21,2.101
6.0287,128.182163,37.985176,6749.2997856,-175.141,-36.382,2.079
6.0454,128.182165,37.985218,6746.662656,-175.142,-36.555,2.057
6.0621,128.182166,37.98526,6744.010896000001,-175.145,-36.727,2.035
6.0788,128.182168,37.985302,6741.344505600001,-175.148,-36.9,2.013
6.0954,128.182169,37.985344,6738.6634848,-175.152,-37.072,1.992
6.1121,128.182171,37.985386,6735.967833600001,-175.157,-37.245,1.97
6.1289,128.182173,37.985428,6733.257552000001,-175.162,-37.418,1.949
6.1456,128.182174,37.98547,6730.53264,-175.167,-37.59,1.928
6.1623,128.182176,37.985511,6727.793097600001,-175.174,-37.763,1.907
6.179,128.182177,37.985553,6725.038924800001,-175.181,-37.935,1.886
6.1956,128.182179,37.985595,6722.2704264,-175.188,-38.108,1.865
6.2124,128.18218,37.985636,6719.486992800001,-175.196,-38.281,1.845
6.2291,128.182182,37.985677,6716.689233600001,-175.204,-38.453,1.824
6.2458,128.182183,37.985719,6713.8771488,-175.213,-38.626,1.804
6.2625,128.182185,37.98576,6711.0504336,-175.222,-38.798,1.784
6.2791,128.182186,37.985801,6708.2090880000005,-175.231,-38.971,1.764
6.2958,128.182187,37.985842,6705.3534168,-175.241,-39.144,1.744
6.3126,128.182189,37.985883,6702.483115200001,-175.251,-39.317,1.724
6.3293,128.18219,37.985924,6699.5987928,-175.262,-39.489,1.704
6.346,128.182192,37.985965,6696.6995352,-175.273,-39.662,1.685
6.3627,128.182193,37.986006,6693.786256800001,-175.284,-39.835,1.666
6.3793,128.182194,37.986047,6690.858348,-175.296,-40.008,1.646
6.3961,128.182196,37.986088,6687.9161136,-175.308,-40.18,1.627
6.4128,128.182197,37.986128,6684.9595536,-175.32,-40.353,1.608
6.4295,128.182198,37.986169,6681.988668,-175.332,-40.526,1.59
6.4462,128.1822,37.986209,6679.003456800001,-175.345,-40.699,1.571
6.4628,128.182201,37.98625,6676.003920000001,-175.357,-40.872,1.552
6.4795,128.182202,37.98629,6672.9900576,-175.37,-41.045,1.534
6.4963,128.182203,37.98633,6669.962174400001,-175.384,-41.218,1.516
6.513,128.182205,37.986371,6666.919660800001,-175.397,-41.391,1.498
6.5297,128.182206,37.986411,6663.8631264000005,-175.41,-41.564,1.48
6.5464,128.182207,37.986451,6660.7922664,-175.424,-41.737,1.462
6.5631,128.182208,37.986491,6657.7070808,-175.438,-41.91,1.444
6.5798,128.182209,37.986531,6654.607874400001,-175.452,-42.083,1.426
6.5965,128.182211,37.986571,6651.494647200001,-175.466,-42.256,1.409
6.6132,128.182212,37.98661,6648.3670944000005,-175.48,-42.429,1.392
6.6299,128.182213,37.98665,6645.225216,-175.494,-42.602,1.374
6.6466,128.182214,37.98669,6642.0696216,-175.509,-42.775,1.357
6.6633,128.182215,37.986729,6638.8997016,-175.523,-42.949,1.34
6.68,128.182216,37.986769,6635.715456000001,-175.538,-43.122,1.323
6.6967,128.182217,37.986808,6632.5174944,-175.552,-43.295,1.307
6.7134,128.182219,37.986847,6629.305512,-175.567,-43.469,1.29
6.7301,128.18222,37.986887,6626.079204000001,-175.581,-43.642,1.273
6.7468,128.182221,37.986926,6622.83918,-175.596,-43.815,1.257
6.7635,128.182222,37.986965,6619.5848304,-175.611,-43.989,1.241
6.7802,128.182223,37.987004,6616.316764800001,-175.626,-44.162,1.224
6.7969,128.182224,37.987043,6613.0346784,-175.64,-44.336,1.208
6.8136,128.182225,37.987081,6609.7385712,-175.655,-44.509,1.192
6.8303,128.182226,37.98712,6606.428748,-175.67,-44.683,1.176
6.847,128.182227,37.987159,6603.1045992,-175.685,-44.856,1.161
6.8637,128.182228,37.987197,6599.7670392,-175.699,-45.03,1.145
6.8804,128.182229,37.987236,6596.4154584,-175.714,-45.203,1.129
6.8971,128.18223,37.987274,6593.049856800001,-175.729,-45.377,1.114
6.9138,128.182231,37.987313,6589.6705392,-175.744,-45.551,1.099
6.9305,128.182232,37.987351,6586.277505600001,-175.758,-45.724,1.083
6.9472,128.182233,37.987389,6582.8704512,-175.773,-45.898,1.068
6.9639,128.182233,37.987427,6579.4496808,-175.787,-46.072,1.053
6.9806,128.182234,37.987465,6576.0154992,-175.802,-46.246,1.038
6.9973,128.182235,37.987503,6572.567296800001,-175.816,-46.42,1.023
7.014,128.182236,37.987541,6569.1053784000005,-175.831,-46.594,1.008
7.0307,128.182237,37.987579,6565.629744,-175.845,-46.768,0.994
7.0474,128.182238,37.987616,6562.1403936,-175.859,-46.942,0.979
7.0641,128.182239,37.987654,6558.637632,-175.874,-47.116,0.964
7.0808,128.18224,37.987692,6555.121154400001,-175.888,-47.29,0.95
7.0975,128.18224,37.987729,6551.590960800001,-175.902,-47.464,0.935
7.1142,128.182241,37.987766,6548.047356000001,-175.916,-47.638,0.921
7.1309,128.182242,37.987804,6544.4900352,-175.93,-47.812,0.907
7.1476,128.182243,37.987841,6540.9189983999995,-175.944,-47.986,0.893
7.1643,128.182243,37.987878,6537.334550400001,-175.958,-48.16,0.879
7.181,128.182244,37.987915,6533.736691200001,-175.971,-48.335,0.865
7.1977,128.182245,37.987952,6530.1254208,-175.985,-48.509,0.851
7.2144,128.182246,37.987988,6526.5004344,-175.998,-48.683,0.837
7.2311,128.182246,37.988025,6522.862341600001,-176.012,-48.858,0.823
7.2478,128.182247,37.988062,6519.210532800001,-176.025,-49.032,0.809
7.2645,128.182248,37.988098,6515.5453128,-176.038,-49.207,0.795
7.2812,128.182248,37.988135,6511.8669864,-176.051,-49.381,0.782
7.2979,128.182249,37.988171,6508.174944,-176.064,-49.556,0.768
7.3146,128.18225,37.988207,6504.469795200001,-176.077,-49.73,0.755
7.3313,128.18225,37.988243,6500.7512352,-176.09,-49.905,0.741
7.348,128.182251,37.988279,6497.0195688,-176.103,-50.08,0.728
7.3647,128.182252,37.988315,6493.274491200001,-176.115,-50.254,0.715
7.3814,128.182252,37.988351,6489.5163072,-176.128,-50.429,0.701
7.3981,128.182253,37.988387,6485.744712,-176.14,-50.604,0.688
7.4148,128.182254,37.988423,6481.960010400001,-176.152,-50.779,0.675
7.4315,128.182254,37.988458,6478.161897600001,-176.164,-50.954,0.662
7.4482,128.182255,37.988494,6474.350983200001,-176.176,-51.129,0.649
7.4649,128.182255,37.988529,6470.5266576,-176.188,-51.304,0.636
7.4816,128.182256,37.988565,6466.6892256,-176.2,-51.479,0.623
7.4983,128.182256,37.9886,6462.838992000001,-176.212,-51.654,0.61
7.515,128.182257,37.988635,6458.975347200001,-176.223,-51.829,0.597
7.5317,128.182257,37.98867,6455.098900800001,-176.235,-52.004,0.584
7.5484,128.182258,37.988705,6451.209347999999,-176.246,-52.179,0.571
7.5651,128.182258,37.98874,6447.306688799999,-176.257,-52.354,0.559
7.5818,128.182259,37.988775,6443.391228,-176.268,-52.53,0.546
7.5985,128.182259,37.988809,6439.462660800001,-176.279,-52.705,0.533
7.6152,128.18226,37.988844,6435.521292,-176.29,-52.88,0.52
7.6319,128.18226,37.988878,6431.5671216,-176.301,-53.056,0.508
7.6486,128.182261,37.988913,6427.5998448,-176.311,-53.231,0.495
7.6653,128.182261,37.988947,6423.6197664,-176.322,-53.407,0.483
7.682,128.182262,37.988981,6419.6271912,-176.332,-53.582,0.47
7.6987,128.182262,37.989015,6415.6215096000005,-176.342,-53.758,0.457
7.7154,128.182262,37.989049,6411.6030264,-176.352,-53.933,0.445
7.7321,128.182263,37.989083,6407.5720464000005,-176.362,-54.109,0.432
7.7488,128.182263,37.989116,6403.52796,-176.372,-54.285,0.42
7.7655,128.182264,37.98915,6399.4713768,-176.382,-54.461,0.408
7.7822,128.182264,37.989184,6395.402296800001,-176.391,-54.636,0.395
7.7989,128.182264,37.989217,6391.320415200001,-176.401,-54.812,0.383
7.8156,128.182265,37.98925,6387.225732000001,-176.41,-54.988,0.37
7.8323,128.182265,37.989284,6383.118856800001,-176.419,-55.164,0.358
7.849,128.182265,37.989317,6378.99918,-176.428,-55.34,0.346
7.8657,128.182266,37.98935,6374.867006400001,-176.437,-55.516,0.333
7.8824,128.182266,37.989383,6370.7220312,-176.446,-55.692,0.321
7.8991,128.182266,37.989416,6366.564864000001,-176.455,-55.868,0.308
7.9158,128.182266,37.989448,6362.3952,-176.463,-56.045,0.296
7.9325,128.182267,37.989481,6358.2130392,-176.472,-56.221,0.284
7.9492,128.182267,37.989513,6354.018686400001,-176.48,-56.397,0.271
7.9659,128.182267,37.989546,6349.8118368000005,-176.488,-56.574,0.259
7.9826,128.182268,37.989578,6345.5924904,-176.496,-56.75,0.247
7.9993,128.182268,37.98961,6341.360952000001,-176.504,-56.926,0.234
8.016,128.182268,37.989642,6337.1172216,-176.512,-57.103,0.222
8.0327,128.182268,37.989674,6332.8609944,-176.52,-57.279,0.21
8.0494,128.182268,37.989706,6328.592575199999,-176.527,-57.456,0.197
8.0661,128.182269,37.989738,6324.311964,-176.535,-57.633,0.185
8.0828,128.182269,37.989769,6320.0191608000005,-176.542,-57.809,0.172
8.0994,128.182269,37.989801,6315.714470400001,-176.549,-57.986,0.16
8.1161,128.182269,37.989832,6311.397283200001,-176.556,-58.163,0.148
8.1329,128.182269,37.989864,6307.0682088,-176.563,-58.34,0.135
8.1496,128.182269,37.989895,6302.726942400001,-176.57,-58.517,0.123
8.1663,128.18227,37.989926,6298.3737888,-176.577,-58.694,0.11
8.183,128.18227,37.989957,6294.008443199999,-176.583,-58.871,0.098
8.1997,128.18227,37.989988,6289.631210400001,-176.589,-59.048,0.085
8.2164,128.18227,37.990018,6285.2420904,-176.596,-59.225,0.073
8.2331,128.18227,37.990049,6280.840778400001,-176.602,-59.402,0.06
8.2498,128.18227,37.99008,6276.427884000001,-176.608,-59.579,0.048
8.2665,128.18227,37.99011,6272.0031024,-176.614,-59.756,0.035
8.2831,128.18227,37.99014,6267.566433600001,-176.62,-59.934,0.023
8.2998,128.18227,37.99017,6263.117877600001,-176.625,-60.111,0.01
8.3166,128.18227,37.990201,6258.6577392,-176.631,-60.288,359.997
8.3333,128.18227,37.99023,6254.1857136,-176.636,-60.466,359.984
8.35,128.182271,37.99026,6249.7018008000005,-176.641,-60.643,359.972
8.3667,128.182271,37.99029,6245.2066104000005,-176.646,-60.821,359.959
8.3834,128.182271,37.99032,6240.6995328,-176.652,-60.999,359.946
8.4001,128.182271,37.990349,6236.1808728000005,-176.656,-61.176,359.933
8.4168,128.182271,37.990378,6231.6506304,-176.661,-61.354,359.92
8.4335,128.182271,37.990408,6227.108805600001,-176.666,-61.532,359.907
8.4502,128.182271,37.990437,6222.5557032,-176.67,-61.71,359.894
8.4668,128.182271,37.990466,6217.9910184,-176.675,-61.888,359.881
8.4835,128.182271,37.990495,6213.414751200001,-176.679,-62.066,359.868
8.5003,128.18227,37.990523,6208.8269016,-176.683,-62.244,359.855
8.517,128.18227,37.990552,6204.228079200001,-176.687,-62.422,359.842
8.5337,128.18227,37.990581,6199.6176744,-176.691,-62.6,359.828
8.5504,128.18227,37.990609,6194.995992000001,-176.695,-62.778,359.815
8.5671,128.18227,37.990637,6190.363032,-176.699,-62.956,359.802
8.5838,128.18227,37.990666,6185.7187944,-176.702,-63.135,359.788
8.6005,128.18227,37.990694,6181.063279200001,-176.705,-63.313,359.775
8.6172,128.18227,37.990721,6176.3964864,-176.709,-63.491,359.761
8.6339,128.18227,37.990749,6171.7187208,-176.712,-63.67,359.747
8.6505,128.18227,37.990777,6167.0299824,-176.715,-63.848,359.734
8.6672,128.18227,37.990805,6162.3299664,-176.718,-64.027,359.72
8.684,128.18227,37.990832,6157.6189776,-176.721,-64.205,359.706
8.7007,128.182269,37.990859,6152.896711200001,-176.723,-64.384,359.692
8.7174,128.182269,37.990886,6148.1637768,-176.726,-64.563,359.678
8.7341,128.182269,37.990914,6143.4198696,-176.728,-64.742,359.664
8.7508,128.182269,37.99094,6138.6646848,-176.73,-64.921,359.65
8.7675,128.182269,37.990967,6133.899136800001,-176.733,-65.1,359.635
8.7842,128.182269,37.990994,6129.122311200001,-176.735,-65.278,359.621
8.8009,128.182268,37.991021,6124.3351224,-176.737,-65.458,359.607
8.8176,128.182268,37.991047,6119.536960800001,-176.738,-65.637,359.592
8.8342,128.182268,37.991073,6114.7278264,-176.74,-65.816,359.577
8.8509,128.182268,37.991099,6109.908328800001,-176.741,-65.995,359.563
8.8676,128.182268,37.991126,6105.0778584,-176.743,-66.174,359.548
8.8844,128.182267,37.991151,6100.237024800001,-176.744,-66.354,359.533
8.9011,128.182267,37.991177,6095.3855232000005,-176.745,-66.533,359.518
8.9178,128.182267,37.991203,6090.5236584,-176.746,-66.712,359.503
8.9345,128.182267,37.991228,6085.6511256,-176.747,-66.892,359.487
8.9512,128.182266,37.991254,6080.7679248,-176.748,-67.072,359.472
8.9679,128.182266,37.991279,6075.874665600001,-176.748,-67.251,359.456
8.9846,128.182266,37.991304,6070.970738400001,-176.749,-67.431,359.441
9.0013,128.182266,37.991329,6066.056447999999,-176.749,-67.611,359.425
9.0179,128.182265,37.991354,6061.1320992,-176.749,-67.79,359.409
9.0346,128.182265,37.991379,6056.1970824,-176.749,-67.97,359.393
9.0513,128.182265,37.991404,6051.2520072,-176.749,-68.15,359.377
9.0681,128.182264,37.991428,6046.2968736,-176.749,-68.33,359.361
9.0848,128.182264,37.991452,6041.3313768,-176.749,-68.51,359.344
9.1015,128.182264,37.991477,6036.3558216,-176.748,-68.69,359.328
9.1182,128.182264,37.991501,6031.370208,-176.748,-68.871,359.311
9.1349,128.182263,37.991525,6026.374536,-176.747,-69.051,359.294
9.1516,128.182263,37.991549,6021.368805600001,-176.746,-69.231,359.277
9.1683,128.182262,37.991572,6016.3530168,-176.745,-69.412,359.26
9.185,128.182262,37.991596,6011.327474400001,-176.744,-69.592,359.243
9.2016,128.182262,37.991619,6006.2918736,-176.742,-69.772,359.225
9.2183,128.182261,37.991643,6001.246519200001,-176.741,-69.953,359.208
9.235,128.182261,37.991666,5996.1914112,-176.739,-70.134,359.19
9.2518,128.182261,37.991689,5991.1265496000005,-176.737,-70.314,359.172
9.2685,128.18226,37.991712,5986.0519343999995,-176.735,-70.495,359.153
9.2852,128.18226,37.991734,5980.967565600001,-176.733,-70.676,359.135
9.3019,128.18226,37.991757,5975.8734432,-176.731,-70.857,359.116
9.3186,128.182259,37.991779,5970.769872,-176.728,-71.038,359.098
9.3353,128.182259,37.991802,5965.656852000001,-176.726,-71.219,359.079
9.352,128.182258,37.991824,5960.534078400001,-176.723,-71.4,359.059
9.3687,128.182258,37.991846,5955.401856,-176.72,-71.581,359.04
9.3854,128.182257,37.991868,5950.2601847999995,-176.717,-71.762,359.02
9.402,128.182257,37.99189,5945.109369600001,-176.713,-71.943,359.0
9.4187,128.182257,37.991911,5939.948800800001,-176.71,-72.125,358.98
9.4355,128.182256,37.991933,5934.779392800001,-176.706,-72.306,358.96
9.4522,128.182256,37.991954,5929.6002312,-176.702,-72.488,358.939
9.4689,128.182255,37.991975,5924.4122304,-176.698,-72.669,358.919
9.4856,128.182255,37.991996,5919.2147808,-176.694,-72.851,358.897
9.5023,128.182254,37.992017,5914.008492000001,-176.689,-73.032,358.876
9.519,128.182254,37.992038,5908.7927544,-176.685,-73.214,358.854
9.5357,128.182253,37.992059,5903.5681776,-176.68,-73.396,358.832
9.5524,128.182253,37.992079,5898.3347616,-176.675,-73.578,358.81
9.5691,128.182252,37.9921,5893.0922016,-176.67,-73.759,358.788
9.5857,128.182252,37.99212,5887.840497600001,-176.664,-73.941,358.765
9.6024,128.182251,37.99214,5882.5802592,-176.658,-74.123,358.742
9.6192,128.182251,37.99216,5877.3111816,-176.652,-74.305,358.718
9.6359,128.18225,37.99218,5872.0332648,-176.646,-74.487,358.695
9.6526,128.18225,37.992199,5866.7465088,-176.64,-74.669,358.67
9.6693,128.182249,37.992219,5861.4512184000005,-176.633,-74.852,358.646
9.686,128.182249,37.992238,5856.147088799999,-176.626,-75.034,358.621
9.7027,128.182248,37.992257,5850.834424800001,-176.619,-75.216,358.596
9.7194,128.182248,37.992276,5845.5135312,-176.611,-75.398,358.57
9.7361,128.182247,37.992295,5840.1837984,-176.604,-75.581,358.544
9.7528,128.182247,37.992314,5834.845836,-176.596,-75.763,358.518
9.7694,128.182246,37.992333,5829.4993392,-176.587,-75.946,358.491
9.7861,128.182245,37.992351,5824.144308,-176.579,-76.128,358.464
9.8029,128.182245,37.99237,5818.781352000001,-176.57,-76.311,358.436
9.8196,128.182244,37.992388,5813.4098616,-176.56,-76.494,358.408
9.8363,128.182244,37.992406,5808.0301416,-176.551,-76.676,358.379
9.853,128.182243,37.992424,5802.642496800001,-176.541,-76.859,358.35
9.8697,128.182242,37.992441,5797.2466224,-176.531,-77.042,358.32
9.8864,128.182242,37.992459,5791.842518400001,-176.52,-77.225,358.289
9.9031,128.182241,37.992476,5786.4304896,-176.509,-77.408,358.259
9.9198,128.182241,37.992494,5781.010536,-176.498,-77.591,358.227
9.9365,128.18224,37.992511,5775.5826576,-176.486,-77.774,358.195
9.9531,128.182239,37.992528,5770.1468544,-176.473,-77.957,358.162
9.9698,128.182239,37.992545,5764.7034312000005,-176.461,-78.141,358.129
9.9865,128.182238,37.992561,5759.252083200001,-176.447,-78.324,358.095
10.0033,128.182238,37.992578,5753.7928104,-176.434,-78.507,358.06
10.02,128.182237,37.992594,5748.3262224,-176.42,-78.691,358.025
10.0367,128.182236,37.99261,5742.8517096000005,-176.405,-78.874,357.988
10.0534,128.182236,37.992626,5737.369881600001,-176.39,-79.058,357.951
10.0701,128.182235,37.992642,5731.8804336,-176.374,-79.242,357.913
10.0868,128.182234,37.992658,5726.383365600001,-176.357,-79.425,357.875
10.1035,128.182234,37.992674,5720.8789824000005,-176.34,-79.609,357.835
10.1202,128.182233,37.992689,5715.367284000001,-176.323,-79.793,357.794
10.1368,128.182232,37.992704,5709.848270400001,-176.304,-79.977,357.753
10.1535,128.182232,37.99272,5704.3219416,-176.285,-80.161,357.71
10.1702,128.182231,37.992735,5698.788297600001,-176.265,-80.345,357.666
10.187,128.182231,37.992749,5693.247643199999,-176.245,-80.529,357.621
10.2037,128.18223,37.992764,5687.699978400001,-176.223,-80.713,357.575
10.2204,128.182229,37.992779,5682.1449984,-176.201,-80.897,357.528
10.2371,128.182228,37.992793,5676.5833128,-176.178,-81.082,357.479
10.2538,128.182228,37.992807,5671.014312,-176.153,-81.266,357.429
10.2705,128.182227,37.992821,5665.4386056,-176.128,-81.45,357.377
10.2872,128.182226,37.992835,5659.8561936,-176.102,-81.635,357.324
10.3039,128.182226,37.992849,5654.2667712,-176.074,-81.82,357.27
10.3205,128.182225,37.992862,5648.670948,-176.045,-82.004,357.213
10.3372,128.182224,37.992876,5643.068114400001,-176.015,-82.189,357.155
10.3539,128.182224,37.992889,5637.458575199999,-175.983,-82.374,357.094
10.3707,128.182223,37.992902,5631.8426352,-175.95,-82.559,357.032
10.3874,128.182222,37.992915,5626.2202944,-175.915,-82.743,356.967
10.4041,128.182222,37.992928,5620.591248,-175.879,-82.928,356.9
10.4208,128.182221,37.99294,5614.9561056,-175.84,-83.114,356.831
10.4375,128.18222,37.992953,5609.3142576,-175.8,-83.299,356.758
10.4542,128.182219,37.992965,5603.666313600001,-175.757,-83.484,356.683
10.4709,128.182219,37.992977,5598.0122736,-175.712,-83.669,356.605
10.4876,128.182218,37.992989,5592.351832800001,-175.665,-83.855,356.523
10.5042,128.182217,37.993001,5586.685296000001,-175.614,-84.04,356.438
10.5209,128.182217,37.993013,5581.0126632,-175.561,-84.225,356.349
10.5376,128.182216,37.993024,5575.3339344,-175.504,-84.411,356.255
10.5544,128.182215,37.993035,5569.649414400001,-175.443,-84.597,356.156
10.5711,128.182215,37.993047,5563.9591032,-175.378,-84.782,356.052
10.5878,128.182214,37.993058,5558.262696000001,-175.307,-84.968,355.941
10.6045,128.182213,37.993068,5552.5604976,-175.231,-85.154,355.822
10.6212,128.182212,37.993079,5546.8528128,-175.148,-85.34,355.696
10.6379,128.182212,37.99309,5541.139336800001,-175.059,-85.525,355.562
10.6546,128.182211,37.9931,5535.420069600001,-174.968,-85.705,355.425
10.6713,128.18221,37.99311,5529.695315999999,-174.884,-85.873,355.293
10.6879,128.182209,37.99312,5523.9647712,-174.812,-86.027,355.171
10.7046,128.182209,37.99313,5518.2290448,-174.756,-86.166,355.063
10.7213,128.182208,37.99314,5512.487832000001,-174.716,-86.291,354.969
10.7381,128.182207,37.993149,5506.741437600001,-174.691,-86.405,354.888
10.7548,128.182207,37.993159,5500.989556800001,-174.679,-86.51,354.817
10.7715,128.182206,37.993168,5495.2324944,-174.678,-86.608,354.756
10.7882,128.182205,37.993177,5489.470250400001,-174.685,-86.7,354.701
10.8049,128.182204,37.993186,5483.702824800001,-174.699,-86.789,354.652
10.8216,128.182204,37.993195,5477.9302176,-174.718,-86.874,354.605
10.8383,128.182203,37.993203,5472.153038400001,-174.74,-86.958,354.562
10.855,128.182202,37.993212,5466.3703728,-174.765,-87.039,354.521
10.8717,128.182202,37.99322,5460.5831352,-174.793,-87.119,354.482
10.8883,128.182201,37.993228,5454.7907159999995,-174.823,-87.197,354.446
10.905,128.1822,37.993236,5448.993724800001,-174.854,-87.274,354.411
10.9218,128.1822,37.993244,5443.191856800001,-174.888,-87.349,354.378
10.9385,128.182199,37.993252,5437.3848072,-174.923,-87.424,354.348
10.9552,128.182198,37.993259,5431.5734904,-174.961,-87.497,354.32
10.9719,128.182198,37.993267,5425.7569920000005,-175.0,-87.57,354.294
10.9886,128.182197,37.993274,5419.9362264,-175.04,-87.641,354.271
11.0053,128.182196,37.993281,5414.110584000001,-175.083,-87.711,354.251
11.022,128.182195,37.993288,5408.2800648,-175.128,-87.78,354.233
11.0387,128.182195,37.993295,5402.4452784000005,-175.174,-87.848,354.219
11.0554,128.182194,37.993302,5396.605615200001,-175.223,-87.915,354.208
11.072,128.182193,37.993309,5390.7616848,-175.274,-87.982,354.199
11.0887,128.182193,37.993315,5384.912877600001,-175.327,-88.047,354.194
11.1054,128.182192,37.993321,5379.0598032,-175.386,-88.111,354.196
11.1222,128.182192,37.993328,5373.201852000001,-175.448,-88.174,354.203
11.1389,128.182191,37.993334,5367.3396336000005,-175.514,-88.237,354.215
11.1556,128.18219,37.99334,5361.473148,-175.582,-88.298,354.23
11.1723,128.18219,37.993346,5355.6020904,-175.65,-88.358,354.246
11.189,128.182189,37.993351,5349.7267656,-175.718,-88.418,354.264
11.2057,128.182188,37.993357,5343.8468688,-175.786,-88.477,354.283
11.2224,128.182188,37.993363,5337.9630096,-175.853,-88.534,354.302
11.2391,128.182187,37.993368,5332.074578400001,-175.919,-88.591,354.323
11.2557,128.182187,37.993373,5326.1821848,-175.985,-88.647,354.344
11.2724,128.182186,37.993378,5320.285524000001,-176.048,-88.701,354.365
11.2891,128.182185,37.993384,5314.384596000001,-176.111,-88.755,354.386
11.3059,128.182185,37.993388,5308.479400800001,-176.171,-88.808,354.407
11.3226,128.182184,37.993393,5302.5702432,-176.229,-88.86,354.427
11.3393,128.182184,37.993398,5296.656818400001,-176.284,-88.912,354.446
11.356,128.182183,37.993403,5290.7394312,-176.336,-88.962,354.463
11.3727,128.182182,37.993407,5284.8180816,-176.383,-89.012,354.477
11.3894,128.182182,37.993412,5278.8924648,-176.425,-89.061,354.487
11.4061,128.182181,37.993416,5272.9631904,-176.461,-89.109,354.492
11.4228,128.182181,37.99342,5267.0296488,-176.484,-89.156,354.486
11.4394,128.18218,37.993424,5261.0921448,-176.489,-89.202,354.464
11.4561,128.18218,37.993428,5255.1509832,-176.467,-89.247,354.417
11.4728,128.182179,37.993432,5249.2055544,-176.412,-89.292,354.338
11.4896,128.182179,37.993436,5243.2564680000005,-176.316,-89.336,354.22
11.5063,128.182178,37.99344,5237.3034192000005,-176.169,-89.379,354.052
11.523,128.182178,37.993443,5231.346408,-175.962,-89.421,353.827
11.5397,128.182177,37.993447,5225.385129599999,-175.858,-89.439,353.706
11.5564,128.182177,37.99345,5219.4201936,-175.918,-89.43,353.748
11.5731,128.182176,37.993453,5213.4512952000005,-176.059,-89.403,353.873
11.5898,128.182176,37.993457,5207.4787392,-176.186,-89.373,353.983
11.6065,128.182175,37.99346,5201.5022208,-176.245,-89.348,354.026
11.6231,128.182175,37.993463,5195.5223496,-176.221,-89.333,353.987
11.6398,128.182174,37.993466,5189.538516,-176.118,-89.329,353.868
11.6565,128.182174,37.993469,5183.551024800001,-175.946,-89.334,353.681
11.6733,128.182173,37.993472,5177.5595711999995,-175.717,-89.347,353.437
11.69,128.182173,37.993474,5171.5647648,-175.445,-89.364,353.149
11.7067,128.182172,37.993477,5165.565996,-175.144,-89.384,352.833
11.7234,128.182172,37.99348,5159.563264800001,-174.829,-89.406,352.501
11.7401,128.182172,37.993482,5153.5571808,-174.515,-89.429,352.168
11.7568,128.182171,37.993484,5147.5471344,-174.215,-89.452,351.849
11.7735,128.182171,37.993487,5141.5337352,-173.946,-89.476,351.556
11.7902,128.18217,37.993489,5135.5160688000005,-173.997,-89.476,351.582
11.8068,128.18217,37.993491,5129.49444,-174.465,-89.445,352.022
11.8235,128.182169,37.993494,5123.4694584,-175.123,-89.392,352.649
11.8402,128.182169,37.993496,5117.4405144,-175.761,-89.335,353.254
11.857,128.182169,37.993498,5111.4082176,-176.295,-89.285,353.755
11.8737,128.182168,37.9935,5105.3722632,-176.72,-89.249,354.148
11.8904,128.182168,37.993502,5099.3323464000005,-177.054,-89.227,354.454
11.9071,128.182167,37.993503,5093.2890768,-177.318,-89.217,354.693
11.9238,128.182167,37.993505,5087.2418448,-177.527,-89.216,354.881
11.9405,128.182167,37.993507,5081.190955200001,-177.692,-89.221,355.028
11.9572,128.182166,37.993509,5075.136408,-177.816,-89.231,355.138
11.9739,128.182166,37.99351,5069.0778984,-177.902,-89.242,355.214
11.9905,128.182166,37.993512,5063.0157312,-177.949,-89.256,355.253
12.0072,128.182165,37.993514,5056.949906400001,-177.957,-89.27,355.255
12.0239,128.182165,37.993515,5050.880424000001,-177.923,-89.285,355.217
12.0407,128.182164,37.993516,5044.806979200001,-177.848,-89.3,355.139
12.0574,128.182164,37.993518,5038.7301816,-177.73,-89.316,355.019
12.0741,128.182164,37.993519,5032.6494216,-177.57,-89.332,354.859
12.0908,128.182163,37.993521,5026.5646992,-177.371,-89.348,354.66
12.1075,128.182163,37.993522,5020.476624000001,-177.137,-89.363,354.425
12.1242,128.182163,37.993523,5014.3845864,-176.873,-89.379,354.16
12.1409,128.182162,37.993524,5008.288891200001,-176.586,-89.394,353.872
12.1576,128.182162,37.993525,5002.189538400001,-176.284,-89.409,353.569
12.1743,128.182162,37.993526,4996.086528000001,-175.98,-89.424,353.261
12.1909,128.182161,37.993527,4989.9795552000005,-175.683,-89.438,352.961
12.2076,128.182161,37.993528,4983.8692296,-175.408,-89.452,352.679
12.2243,128.182161,37.993529,4977.7549416,-175.168,-89.466,352.43
12.2411,128.18216,37.99353,4971.636996,-174.974,-89.48,352.227
12.2578,128.18216,37.993531,4965.5153928,-174.84,-89.493,352.079
12.2745,128.18216,37.993532,4959.389827200001,-174.774,-89.507,351.997
12.2912,128.18216,37.993533,4953.2609088,-174.782,-89.52,351.988
12.3079,128.182159,37.993533,4947.128028,-174.867,-89.534,352.053
12.3246,128.182159,37.993534,4940.991489600001,-175.027,-89.547,352.192
12.3413,128.182159,37.993535,4934.851293600001,-175.256,-89.56,352.399
12.358,128.182158,37.993535,4928.70744,-175.542,-89.573,352.662
12.3746,128.182158,37.993536,4922.5599288,-175.87,-89.586,352.969
12.3913,128.182158,37.993536,4916.4084552,-176.222,-89.599,353.301
12.408,128.182158,37.993537,4910.253324,-176.576,-89.612,353.637
12.4248,128.182157,37.993537,4904.094535200001,-176.911,-89.626,353.956
12.4415,128.182157,37.993538,4897.931784,-177.203,-89.638,354.236
12.4582,128.182157,37.993538,4891.765375200001,-177.432,-89.651,354.454
12.4749,128.182157,37.993539,4885.595308800001,-177.576,-89.664,354.591
12.4916,128.182156,37.993539,4879.4212800000005,-177.617,-89.676,354.626
12.5083,128.182156,37.993539,4873.2438984,-177.538,-89.689,354.543
12.525,128.182156,37.993539,4867.0622496000005,-177.325,-89.7,354.328
12.5417,128.182156,37.99354,4860.877248000001,-176.967,-89.712,353.97
12.5583,128.182155,37.99354,4854.688284,-176.46,-89.723,353.463
12.575,128.182155,37.99354,4848.495662400001,-175.804,-89.734,352.808
12.5917,128.182155,37.99354,4842.2993832,-175.007,-89.744,352.011
12.6085,128.182155,37.99354,4836.0994464000005,-174.087,-89.753,351.092
12.6252,128.182154,37.99354,4829.895852000001,-173.074,-89.762,350.077
12.6419,128.182154,37.99354,4823.6882952000005,-172.009,-89.77,349.008
12.6586,128.182154,37.99354,4817.4773856,-170.944,-89.778,347.936
12.6753,128.182154,37.99354,4811.2628184000005,-169.942,-89.786,346.924
12.692,128.182153,37.99354,4805.044288800001,-169.076,-89.794,346.041
12.7087,128.182153,37.99354,4798.822406400001,-168.419,-89.801,345.361
12.7254,128.182153,37.99354,4792.5968664,-168.04,-89.809,344.952
12.742,128.182153,37.99354,4786.3676688000005,-167.996,-89.817,344.871
12.7587,128.182153,37.99354,4780.134813600001,-168.323,-89.825,345.152
12.7754,128.182152,37.993539,4773.8986056,-169.022,-89.833,345.801
12.7922,128.182152,37.993539,4767.658435200001,-170.057,-89.842,346.782
12.8089,128.182152,37.993539,4761.414912,-171.352,-89.85,348.021
12.8256,128.182152,37.993539,4755.1674264,-172.789,-89.858,349.405
12.8423,128.182152,37.993538,4748.916588,-174.22,-89.867,350.79
12.859,128.182151,37.993538,4742.661787200001,-175.488,-89.875,352.017
12.8757,128.182151,37.993538,4736.4036336,-176.435,-89.884,352.932
12.8924,128.182151,37.993537,4730.1415176,-176.913,-89.892,353.388
12.9091,128.182151,37.993537,4723.875744000001,-176.79,-89.9,353.249
12.9257,128.182151,37.993536,4717.6063128,-175.934,-89.909,352.383
12.9424,128.182151,37.993536,4711.333224,-174.212,-89.916,350.655
12.9591,128.18215,37.993536,4705.0564776,-171.489,-89.924,347.929
12.9759,128.18215,37.993535,4698.776378400001,-167.663,-89.93,344.102
12.9926,128.18215,37.993535,4692.4923168000005,-162.724,-89.936,339.163
13.0093,128.18215,37.993534,4686.204902400001,-156.85,-89.94,333.286
13.026,128.18215,37.993534,4679.913830400001,-150.458,-89.944,326.886
13.0427,128.18215,37.993533,4673.6191008000005,-144.16,-89.947,320.57
13.0594,128.182149,37.993532,4667.321323200001,-138.617,-89.951,314.993
13.0761,128.182149,37.993532,4661.019888,-134.379,-89.956,310.697
13.0928,128.182149,37.993531,4654.7151,-131.986,-89.962,308.218
13.1095,128.182149,37.99353,4648.4069592000005,-132.371,-89.972,308.485
13.1262,128.182149,37.99353,4642.0954656,-139.198,-89.983,315.169
13.1429,128.182149,37.993529,4635.780619200001,174.235,-89.993,1.577
13.1596,128.182149,37.993528,4629.4618104,87.866,-89.988,87.792
13.1763,128.182148,37.993527,4623.139344,70.824,-89.979,104.704
13.193,128.182148,37.993527,4616.8129152,60.315,-89.973,115.124
13.2097,128.182148,37.993526,4610.4828288,48.868,-89.97,126.513
13.2264,128.182148,37.993525,4604.1490848,34.833,-89.968,140.513
13.2431,128.182148,37.993524,4597.811988,19.048,-89.964,156.278
13.2598,128.182148,37.993523,4591.4709288,3.774,-89.958,171.541
13.2765,128.182148,37.993523,4585.126516800001,-9.197,-89.95,184.508
13.2932,128.182148,37.993522,4578.7784472,-19.358,-89.94,194.666
13.3099,128.182147,37.993521,4572.42672,-26.962,-89.927,202.269
13.3266,128.182147,37.99352,4566.0713352,-32.488,-89.913,207.797
13.3433,128.182147,37.993519,4559.7125976,-36.395,-89.899,211.708
13.36,128.182147,37.993518,4553.350507200001,-39.045,-89.884,214.365
13.3767,128.182147,37.993517,4546.9844544,-40.702,-89.869,216.031
13.3934,128.182147,37.993516,4540.6150488,-41.549,-89.855,216.89
13.4101,128.182147,37.993515,4534.2419856,-41.695,-89.842,217.052
13.4268,128.182147,37.993514,4527.8655696,-41.203,-89.83,216.578
13.4435,128.182147,37.993513,4521.485496,-40.099,-89.82,215.496
13.4602,128.182147,37.993512,4515.1017648,-38.385,-89.812,213.809
13.4769,128.182147,37.993511,4508.7146808,-36.048,-89.805,211.501
13.4936,128.182146,37.99351,4502.324244,-33.067,-89.799,208.554
13.5103,128.182146,37.993509,4495.9298448,-29.432,-89.795,204.954
13.527,128.182146,37.993508,4489.5323976,-25.15,-89.79,200.709
13.5437,128.182146,37.993507,4483.130988,-20.27,-89.786,195.868
13.5604,128.182146,37.993506,4476.7265304,-14.904,-89.781,190.539
13.5771,128.182146,37.993505,4470.3184152,-9.228,-89.774,184.899
13.5938,128.182146,37.993504,4463.9066424,-3.476,-89.766,179.181
13.6105,128.182146,37.993503,4457.491516800001,2.094,-89.755,173.64
13.6272,128.182146,37.993501,4451.0730384,7.246,-89.741,168.514
13.6439,128.182146,37.9935,4444.650902400001,11.794,-89.726,163.985
13.6606,128.182146,37.993499,4438.2254136,15.623,-89.709,160.169
13.6773,128.182146,37.993498,4431.796572,18.676,-89.692,157.122
13.694,128.182145,37.993497,4425.3640728,20.94,-89.675,154.856
13.7107,128.182145,37.993495,4418.9282208,22.422,-89.658,153.362
13.7274,128.182145,37.993494,4412.489016,23.143,-89.643,152.621
13.7441,128.182145,37.993493,4406.0461536,23.119,-89.63,152.616
13.7608,128.182145,37.993492,4399.599938400001,22.362,-89.619,153.335
13.7775,128.182145,37.99349,4393.150370400001,20.879,-89.609,154.772
13.7942,128.182145,37.993489,4386.6971448,18.677,-89.601,156.921
13.8109,128.182145,37.993488,4380.240566400001,15.773,-89.594,159.767
13.8276,128.182145,37.993486,4373.780330400001,12.204,-89.588,163.275
13.8443,128.182145,37.993485,4367.316741600001,8.046,-89.58,167.372
13.861,128.182145,37.993484,4360.8498,3.419,-89.571,171.94
13.8777,128.182145,37.993482,4354.3792008,-1.502,-89.559,176.81
13.8944,128.182145,37.993481,4347.904944000001,-6.511,-89.544,181.775
13.9111,128.182145,37.993479,4341.4270296,-11.384,-89.525,186.615
13.9278,128.182145,37.993478,4334.945762400001,-15.92,-89.503,191.133
13.9445,128.182145,37.993477,4328.4611424,-19.96,-89.478,195.173
13.9612,128.182145,37.993475,4321.97256,-23.399,-89.452,198.63
13.9779,128.182145,37.993474,4315.4806248,-26.176,-89.426,201.448
13.9946,128.182145,37.993472,4308.984727200001,-28.273,-89.401,203.61
14.0113,128.182145,37.993471,4302.4854768000005,-29.769,-89.378,205.196
14.028,128.182145,37.993469,4295.9825688,-30.729,-89.357,206.268
14.0447,128.182145,37.993468,4289.476308,-31.198,-89.339,206.872
14.0614,128.182145,37.993466,4282.9660848,-31.21,-89.324,207.041
14.0781,128.182145,37.993465,4276.4525088,-30.782,-89.312,206.789
14.0948,128.182145,37.993463,4269.934970400001,-29.92,-89.303,206.12
14.1115,128.182145,37.993462,4263.4140792,-28.617,-89.298,205.024
14.1282,128.182145,37.99346,4256.889835200001,-26.854,-89.295,203.48
14.1449,128.182145,37.993459,4250.3619336,-24.609,-89.294,201.459
14.1616,128.182145,37.993457,4243.8303744,-21.848,-89.296,198.926
14.1783,128.182145,37.993456,4237.2954624,-18.541,-89.298,195.845
14.195,128.182145,37.993454,4230.7571976,-14.666,-89.3,192.189
14.2117,128.182145,37.993452,4224.21558,-10.217,-89.3,187.947
14.2284,128.182145,37.993451,4217.670609600001,-5.221,-89.296,183.143
14.2451,128.182145,37.993449,4211.1225912,0.247,-89.288,177.844
14.2618,128.182145,37.993447,4204.5709152,5.947,-89.273,172.287
14.2785,128.182145,37.993446,4198.016496,11.593,-89.25,166.75
14.2952,128.182145,37.993444,4191.458724,16.908,-89.219,161.504
14.3119,128.182145,37.993442,4184.8975992,21.663,-89.183,156.772
14.3286,128.182145,37.99344,4178.3337312,25.705,-89.142,152.7
14.3453,128.182145,37.993439,4171.7668152,29.041,-89.1,149.279
14.362,128.182145,37.993437,4165.1968512,31.738,-89.057,146.44
14.3787,128.182145,37.993435,4158.6238392000005,33.868,-89.014,144.11
14.3954,128.182145,37.993433,4152.048084,35.495,-88.973,142.221
14.4121,128.182145,37.993431,4145.4692808,36.675,-88.934,140.719
14.4288,128.182145,37.993429,4138.8880392,37.452,-88.898,139.556
14.4455,128.182145,37.993427,4132.3037496,37.861,-88.865,138.701
14.4622,128.182145,37.993425,4125.7167168000005,37.922,-88.835,138.135
14.4789,128.182145,37.993423,4119.126636,37.634,-88.81,137.868
14.4956,128.182145,37.993421,4112.533812000001,36.992,-88.791,137.916
14.5123,128.182145,37.993419,4105.93794,35.986,-88.777,138.298
14.529,128.182145,37.993417,4099.33902,34.597,-88.768,139.04
14.5457,128.182145,37.993415,4092.737052,32.804,-88.765,140.174
14.5624,128.182145,37.993412,4086.132036,30.576,-88.768,141.738
14.5791,128.182145,37.99341,4079.5236672,27.876,-88.775,143.777
14.5958,128.182146,37.993408,4072.9122504,24.659,-88.785,146.348
14.6125,128.182146,37.993406,4066.2971760000005,20.872,-88.798,149.511
14.6292,128.182146,37.993404,4059.6787488000004,16.471,-88.81,153.322
14.6459,128.182146,37.993401,4053.056664,11.425,-88.82,157.82
14.6626,128.182146,37.993399,4046.4309216,5.743,-88.823,163.01
14.6793,128.182147,37.993397,4039.8015216,-0.51,-88.816,168.837
14.696,128.182147,37.993395,4033.1681592000004,-7.199,-88.795,175.175
14.7127,128.182147,37.993392,4026.5308344000005,-14.03,-88.756,181.747
14.7294,128.182147,37.99339,4019.8892424,-20.6,-88.7,188.165
14.7461,128.182147,37.993388,4013.2433832,-26.561,-88.627,194.098
14.7628,128.182148,37.993386,4006.5932568000003,-31.808,-88.54,199.45
14.7795,128.182148,37.993384,3999.9385584,-36.322,-88.441,204.207
14.7962,128.182148,37.993382,3993.279288,-40.13,-88.334,208.398
14.8129,128.182148,37.993379,3986.6157504000003,-43.284,-88.221,212.073
14.8296,128.182148,37.993377,3979.9470312,-45.846,-88.105,215.297
14.8463,128.182148,37.993375,3973.2746544,-47.685,-88.002,217.741
14.863,128.182148,37.993373,3966.5983152,-48.919,-87.917,219.505
14.8797,128.182148,37.993371,3959.9180136,-49.728,-87.851,220.793
14.8964,128.182149,37.993369,3953.2343592,-50.195,-87.8,221.72
14.9131,128.182149,37.993367,3946.5470472,-50.345,-87.766,222.336
14.9298,128.182149,37.993365,3939.8557728,-50.184,-87.747,222.655
14.9465,128.182149,37.993362,3933.1608408,-49.709,-87.744,222.679
14.9632,128.182149,37.99336,3926.4622512,-48.899,-87.755,222.384
14.9799,128.182149,37.993358,3919.7603088,-47.729,-87.781,221.741
14.9966,128.182149,37.993356,3913.054404,-46.17,-87.821,220.715
15.0133,128.182149,37.993353,3906.3451464000004,-44.188,-87.874,219.266
15.03,128.182149,37.993351,3899.632536,-41.734,-87.939,217.338
15.0467,128.182148,37.993349,3892.916268,-38.737,-88.013,214.855
15.0634,128.182148,37.993346,3886.1966472,-35.109,-88.092,211.722
15.0801,128.182148,37.993344,3879.4739784000003,-30.753,-88.174,207.836
15.0968,128.182148,37.993342,3872.7479568000003,-25.577,-88.252,203.099
15.1135,128.182148,37.993339,3866.0185824000005,-19.519,-88.321,197.445
15.1302,128.182148,37.993337,3859.2852456,-13.032,-88.37,191.493
15.1469,128.182148,37.993334,3852.5482512,-6.221,-88.399,185.301
15.1636,128.182148,37.993332,3845.8082088,1.01,-88.406,178.686
15.1803,128.182148,37.993329,3839.0648136,8.578,-88.388,171.654
15.197,128.182148,37.993327,3832.3186752,16.22,-88.339,164.415
15.2137,128.182147,37.993324,3825.5697936,23.4,-88.258,157.464
15.2304,128.182147,37.993322,3818.8184736000003,29.75,-88.151,151.148
15.2471,128.182147,37.993319,3812.06502,35.172,-88.021,145.554
15.2638,128.182147,37.993316,3805.3094328000006,39.653,-87.873,140.693
15.2805,128.182147,37.993314,3798.5520168000003,43.241,-87.712,136.518
