Time,Longitude,Latitude,Altitude,Roll (deg),Pitch (deg),Yaw (deg)
0.0,128.181881,37.968463,7002.830292000001,0.0,-0.003,179.999
0.0167,128.181881,37.968418,7002.8116992000005,0.0,-0.012,180.0
0.0334,128.181881,37.968374,7002.7912776,0.087,-0.026,180.011
0.0501,128.181881,37.968329,7002.7690272,0.258,-0.042,180.034
0.0668,128.181881,37.968284,7002.744033600001,0.516,-0.061,180.064
0.0834,128.181881,37.968239,7002.7193448,0.689,-0.068,180.074
0.1002,128.181881,37.968194,7002.694046400001,0.783,-0.05,180.064
0.1169,128.181881,37.968149,7002.6690528,0.789,0.006,180.04
0.1336,128.181881,37.968104,7002.645583200001,0.702,0.115,180.009
0.1503,128.181881,37.968059,7002.6239424000005,0.518,0.284,179.975
0.1669,128.181881,37.968014,7002.6050448000005,0.238,0.524,179.94
0.1837,128.181881,37.967969,7002.5873664,0.038,0.82,179.927
0.2004,128.181881,37.967924,7002.5715168,-0.083,1.162,179.938
0.2171,128.181881,37.967879,7002.5571912000005,-0.119,1.531,179.962
0.2338,128.181881,37.967834,7002.5446944000005,-0.06,1.913,179.995
0.2505,128.181881,37.967789,7002.5337216,0.094,2.291,180.032
0.2672,128.181881,37.967744,7002.5242728,0.346,2.649,180.07
0.2839,128.181881,37.967699,7002.515738400001,0.691,2.972,180.109
0.3006,128.181881,37.967654,7002.5111664,0.955,3.272,180.125
0.3172,128.181881,37.967609,7002.509947200001,1.139,3.562,180.12
0.3339,128.181881,37.967564,7002.5136048,1.234,3.852,180.101
0.3507,128.181881,37.967519,7002.5227488,1.235,4.157,180.075
0.3674,128.181881,37.967474,7002.5382936,1.139,4.486,180.045
0.3841,128.181881,37.967429,7002.5608488,0.946,4.84,180.015
0.4008,128.181881,37.967384,7002.591024,0.66,5.21,179.984
0.4175,128.181881,37.967339,7002.6269904,0.453,5.578,179.974
0.4342,128.181881,37.967294,7002.6693576,0.324,5.931,179.986
0.4509,128.181881,37.967249,7002.7181256,0.28,6.251,180.012
0.4676,128.181881,37.967204,7002.77238,0.328,6.526,180.045
0.4843,128.181881,37.967159,7002.831816,0.467,6.738,180.082
0.501,128.181881,37.967114,7002.896128800001,0.699,6.874,180.12
0.5176,128.181881,37.967069,7002.9637944,1.019,6.92,180.157
0.5344,128.181881,37.967024,7003.037860800001,1.261,6.891,180.171
0.5511,128.18188,37.966979,7003.1171088,1.426,6.802,180.163
0.5678,128.18188,37.966934,7003.201538400001,1.507,6.67,180.14
0.5845,128.18188,37.966889,7003.292064,1.499,6.51,180.107
0.6012,128.18188,37.966844,7003.3886856,1.399,6.337,180.071
0.6179,128.18188,37.966799,7003.488660000001,1.375,6.153,180.053
0.6345,128.18188,37.966754,7003.592901600001,1.424,5.964,180.055
0.6513,128.18188,37.966709,7003.700496,1.552,5.773,180.072
0.6679,128.18188,37.966664,7003.810528800001,1.766,5.584,180.097
0.6847,128.18188,37.966619,7003.9223904,2.067,5.399,180.126
0.7014,128.18188,37.966574,7004.035776,2.457,5.219,180.156
0.7181,128.18188,37.966529,7004.1497712,2.934,5.046,180.187
0.7348,128.18188,37.966484,7004.2640712,3.496,4.879,180.218
0.7514,128.18188,37.966439,7004.3780664,4.142,4.718,180.247
0.7682,128.18188,37.966394,7004.4911472,4.868,4.563,180.275
0.7848,128.18188,37.966349,7004.6039232,5.673,4.414,180.302
0.8016,128.18188,37.966304,7004.7157848,6.554,4.27,180.327
0.8183,128.18188,37.966259,7004.826732,7.508,4.131,180.351
0.835,128.18188,37.966214,7004.936460000001,8.533,3.998,180.372
0.8517,128.18188,37.966168,7005.045273600001,9.627,3.869,180.393
0.8684,128.18188,37.966123,7005.1522584,10.787,3.744,180.411
0.8851,128.18188,37.966078,7005.258024000001,12.011,3.623,180.428
0.9018,128.18188,37.966033,7005.361960800001,13.298,3.505,180.443
0.9185,128.181879,37.965988,7005.464373600001,14.645,3.391,180.456
0.9352,128.181879,37.965943,7005.5649576,16.05,3.28,180.468
0.9519,128.181879,37.965898,7005.6637128,17.512,3.173,180.477
0.9686,128.181879,37.965853,7005.7603344,19.028,3.068,180.485
0.9853,128.181879,37.965807,7005.854822400001,20.597,2.966,180.492
1.002,128.181879,37.965762,7005.9471768,22.218,2.867,180.496
1.0187,128.181879,37.965717,7006.038312,23.711,2.792,180.485
1.0353,128.181879,37.965672,7006.1285328,25.085,2.754,180.465
1.0521,128.181879,37.965627,7006.2184488,26.332,2.764,180.449
1.0688,128.181879,37.965581,7006.308669600001,27.448,2.826,180.449
1.0855,128.181878,37.965536,7006.4001096,28.432,2.947,180.476
1.1022,128.181878,37.965491,7006.4936832,29.286,3.131,180.537
1.1189,128.181878,37.965446,7006.5896952,30.013,3.385,180.639
1.1356,128.181878,37.9654,7006.688755200001,30.617,3.698,180.778
1.1522,128.181877,37.965355,7006.7914728000005,31.104,4.057,180.95
1.169,128.181877,37.96531,7006.8975432,31.651,4.44,181.168
1.1857,128.181877,37.965265,7007.0066615999995,32.257,4.835,181.426
1.2024,128.181876,37.96522,7007.1191328,32.931,5.23,181.708
1.2191,128.181876,37.965174,7007.234652000001,33.679,5.615,182.0
1.2358,128.181876,37.965129,7007.3529144,34.502,5.978,182.29
1.2525,128.181875,37.965084,7007.474224800001,35.401,6.306,182.567
1.2691,128.181875,37.965039,7007.5976688,36.372,6.588,182.819
1.2859,128.181874,37.964994,7007.723246400001,37.411,6.81,183.036
1.3026,128.181873,37.964948,7007.850348,38.513,6.962,183.207
1.3193,128.181873,37.964903,7007.979583200001,39.674,7.032,183.32
1.3359,128.181872,37.964858,7008.1097328000005,40.89,7.015,183.365
1.3527,128.181871,37.964813,7008.2414064,42.16,6.921,183.348
1.3694,128.181871,37.964767,7008.3739944,43.485,6.765,183.278
1.386,128.18187,37.964722,7008.507192000001,44.867,6.562,183.164
1.4028,128.181869,37.964677,7008.6406944,46.309,6.326,183.016
1.4195,128.181868,37.964631,7008.774196800001,47.812,6.07,182.844
1.4362,128.181868,37.964586,7008.9073944,49.38,5.807,182.658
1.4528,128.181867,37.964541,7009.0402872,51.015,5.548,182.47
1.4696,128.181866,37.964496,7009.172265600001,52.719,5.305,182.292
1.4863,128.181865,37.96445,7009.303329599999,54.492,5.088,182.137
1.5029,128.181864,37.964405,7009.433174400001,56.335,4.897,182.006
1.5197,128.181863,37.96436,7009.5614952000005,58.246,4.728,181.896
1.5364,128.181862,37.964314,7009.688292000001,60.222,4.577,181.802
1.5531,128.181861,37.964269,7009.813260000001,62.263,4.44,181.718
1.5697,128.18186,37.964224,7009.936704000001,64.364,4.315,181.642
1.5865,128.181859,37.964178,7010.057709600001,66.525,4.198,181.572
1.6032,128.181858,37.964133,7010.1768864000005,68.741,4.09,181.507
1.6198,128.181857,37.964087,7010.2939295999995,71.012,3.989,181.446
1.6366,128.181856,37.964042,7010.409144,73.334,3.894,181.388
1.6533,128.181855,37.963997,7010.521920000001,75.707,3.805,181.334
1.67,128.181854,37.963951,7010.6322576,78.127,3.72,181.282
1.6867,128.181853,37.963906,7010.7407664,80.515,3.646,181.231
1.7034,128.181852,37.96386,7010.8468368,82.869,3.581,181.182
1.7201,128.181851,37.963815,7010.9513832,85.195,3.522,181.136
1.7368,128.18185,37.963769,7011.053796,87.497,3.468,181.093
1.7535,128.181849,37.963724,7011.15438,89.783,3.417,181.053
1.7702,128.181848,37.963678,7011.2528304,92.058,3.367,181.017
1.7869,128.181847,37.963633,7011.349452000001,94.328,3.318,180.983
1.8036,128.181846,37.963587,7011.44394,96.597,3.269,180.952
1.8203,128.181845,37.963542,7011.5365992,98.87,3.222,180.923
1.837,128.181844,37.963496,7011.627124800001,101.15,3.174,180.897
1.8537,128.181843,37.963451,7011.7158216,103.438,3.128,180.872
1.8704,128.181842,37.963405,7011.8029944,105.736,3.082,180.85
1.8871,128.181842,37.963359,7011.888033600001,108.045,3.036,180.83
1.9038,128.181841,37.963314,7011.9715488,110.364,2.991,180.811
1.9205,128.18184,37.963268,7012.0532352,112.693,2.946,180.793
1.9372,128.181839,37.963223,7012.133092800001,115.032,2.903,180.777
1.9539,128.181838,37.963177,7012.2117312,117.378,2.859,180.762
1.9706,128.181837,37.963131,7012.2885408,119.731,2.816,180.748
1.9873,128.181836,37.963086,7012.3638264,122.087,2.774,180.735
2.004,128.181835,37.96304,7012.437588000001,124.444,2.733,180.723
2.0207,128.181834,37.962994,7012.5098256,126.8,2.692,180.711
2.0374,128.181833,37.962949,7012.580234399999,129.15,2.651,180.701
2.0541,128.181832,37.962903,7012.649424000001,131.493,2.611,180.691
2.0707,128.181832,37.962857,7012.7170896,133.825,2.572,180.683
2.0875,128.181831,37.962812,7012.7832312,136.14,2.533,180.674
2.1042,128.18183,37.962766,7012.847544,138.437,2.495,180.667
2.1208,128.181829,37.96272,7012.910332800001,140.712,2.457,180.66
2.1376,128.181828,37.962674,7012.971292800001,142.96,2.419,180.653
2.1543,128.181827,37.962629,7013.0307288,145.181,2.382,180.647
2.171,128.181826,37.962583,7013.088336000001,147.372,2.345,180.642
2.1877,128.181826,37.962537,7013.144114400001,149.531,2.308,180.636
2.2044,128.181825,37.962491,7013.198368800001,151.658,2.272,180.631
2.2211,128.181824,37.962445,7013.2507944,153.753,2.235,180.625
2.2378,128.181823,37.9624,7013.301696,155.817,2.199,180.619
2.2544,128.181822,37.962354,7013.350768800001,157.851,2.163,180.613
2.2712,128.181821,37.962308,7013.3986224,159.857,2.127,180.606
2.2879,128.181821,37.962262,7013.444647200001,161.838,2.091,180.598
2.3045,128.18182,37.962216,7013.4897576,163.798,2.055,180.589
2.3213,128.181819,37.96217,7013.5336488,165.741,2.02,180.579
2.338,128.181818,37.962124,7013.5763208,167.671,1.986,180.568
2.3546,128.181817,37.962079,7013.618078400001,169.595,1.952,180.556
2.3714,128.181816,37.962033,7013.6592264,171.516,1.918,180.543
2.3881,128.181816,37.961987,7013.699764800001,173.441,1.886,180.528
2.4048,128.181815,37.961941,7013.7396936,175.374,1.855,180.512
2.4215,128.181814,37.961895,7013.7796224,177.321,1.825,180.494
2.4382,128.181813,37.961849,7013.8192464,179.289,1.796,180.475
2.4549,128.181812,37.961803,7013.858870400001,-178.719,1.77,180.455
2.4716,128.181812,37.961757,7013.8987992,-176.699,1.745,180.434
2.4882,128.181811,37.961711,7013.9384232,-174.65,1.722,180.413
2.505,128.18181,37.961665,7013.978047200001,-172.572,1.701,180.391
2.5217,128.181809,37.961619,7014.0173664,-170.468,1.682,180.369
2.5383,128.181808,37.961573,7014.0563808,-168.338,1.665,180.348
2.5551,128.181807,37.961527,7014.0953952,-166.186,1.65,180.328
2.5718,128.181806,37.961481,7014.1338000000005,-164.012,1.637,180.308
2.5884,128.181806,37.961435,7014.1715952,-161.819,1.626,180.29
2.6052,128.181805,37.961389,7014.2090856,-159.607,1.617,180.272
2.6219,128.181804,37.961343,7014.2456616,-157.38,1.61,180.255
2.6386,128.181803,37.961296,7014.281628000001,-155.138,1.605,180.24
2.6553,128.181802,37.96125,7014.3169848,-152.882,1.602,180.226
2.6719,128.181801,37.961204,7014.3514272,-150.615,1.601,180.214
2.6887,128.1818,37.961158,7014.3846504,-148.337,1.601,180.203
2.7054,128.181799,37.961112,7014.416959200001,-146.05,1.603,180.193
2.722,128.181798,37.961066,7014.4480488,-143.754,1.606,180.185
2.7388,128.181798,37.961019,7014.478224,-141.451,1.611,180.18
2.7555,128.181797,37.960973,7014.5068752,-139.142,1.617,180.175
2.7721,128.181796,37.960927,7014.5340024,-136.828,1.62,180.17
2.7889,128.181795,37.960881,7014.5593008000005,-134.51,1.616,180.158
2.8056,128.181794,37.960834,7014.5830752,-132.189,1.601,180.135
2.8222,128.181793,37.960788,7014.604716,-129.866,1.573,180.098
2.839,128.181792,37.960742,7014.6242232,-127.541,1.533,180.045
2.8557,128.181791,37.960695,7014.641292,-125.217,1.481,179.975
2.8724,128.18179,37.960649,7014.6559224,-122.893,1.419,179.887
2.8891,128.181789,37.960603,7014.6681144,-120.572,1.349,179.781
2.9057,128.181788,37.960556,7014.6769536,-118.267,1.273,179.661
2.9225,128.181787,37.96051,7014.6824400000005,-115.989,1.194,179.527
2.9392,128.181786,37.960464,7014.6845736000005,-113.748,1.113,179.382
2.9558,128.181785,37.960417,7014.6830496,-111.55,1.033,179.228
2.9726,128.181784,37.960371,7014.677868000001,-109.4,0.957,179.069
2.9893,128.181783,37.960324,7014.669028800001,-107.298,0.885,178.906
3.0059,128.181782,37.960278,7014.656532,-105.247,0.82,178.742
3.0227,128.181782,37.960232,7014.640377600001,-103.244,0.761,178.578
3.0394,128.181781,37.960185,7014.620565600001,-101.284,0.711,178.417
3.056,128.18178,37.960139,7014.597705600001,-99.366,0.669,178.261
3.0728,128.181779,37.960092,7014.571492800001,-97.484,0.635,178.11
3.0895,128.181779,37.960046,7014.5419272,-95.634,0.608,177.966
3.1062,128.181778,37.959999,7014.5093136000005,-93.814,0.589,177.828
3.1229,128.181778,37.959953,7014.473652000001,-92.021,0.577,177.698
3.1395,128.181777,37.959906,7014.435247200001,-90.253,0.57,177.574
3.1563,128.181777,37.95986,7014.3940992,-88.508,0.57,177.457
3.173,128.181777,37.959813,7014.350208,-86.785,0.574,177.346
3.1896,128.181776,37.959767,7014.304183200001,-85.082,0.582,177.241
3.2064,128.181776,37.95972,7014.255720000001,-83.399,0.594,177.142
3.2231,128.181776,37.959674,7014.205428,-81.735,0.611,177.048
3.2397,128.181776,37.959627,7014.153002399999,-80.092,0.63,176.959
3.2565,128.181776,37.959581,7014.098747999999,-78.466,0.652,176.873
3.2732,128.181776,37.959534,7014.042969600001,-76.86,0.678,176.792
3.2899,128.181776,37.959487,7013.9856672000005,-75.272,0.706,176.714
3.3066,128.181776,37.959441,7013.927145600001,-73.704,0.736,176.639
3.3233,128.181776,37.959394,7013.8677096,-72.153,0.769,176.567
3.34,128.181776,37.959348,7013.8070544,-70.62,0.804,176.498
3.3567,128.181777,37.959301,7013.7457896,-69.117,0.835,176.446
3.3734,128.181777,37.959254,7013.6833056000005,-67.635,0.858,176.423
3.3901,128.181777,37.959208,7013.6199072,-66.164,0.865,176.444
3.4068,128.181778,37.959161,7013.5552896,-64.696,0.852,176.514
3.4235,128.181778,37.959115,7013.4894527999995,-63.221,0.824,176.62
3.4402,128.181779,37.959068,7013.4227016,-61.731,0.786,176.749
3.4569,128.18178,37.959021,7013.3544264,-60.218,0.741,176.889
3.4736,128.18178,37.958975,7013.284627200001,-58.669,0.694,177.033
3.4903,128.181781,37.958928,7013.213304,-57.076,0.645,177.178
3.507,128.181781,37.958881,7013.140152000001,-55.433,0.595,177.319
3.5237,128.181782,37.958834,7013.065476,-53.739,0.546,177.455
3.5404,128.181783,37.958788,7012.9889712,-51.995,0.496,177.586
3.5571,128.181783,37.958741,7012.910942400001,-50.203,0.446,177.71
3.5738,128.181784,37.958694,7012.83078,-48.364,0.396,177.828
3.5905,128.181785,37.958647,7012.7487888,-46.479,0.346,177.939
3.6072,128.181786,37.958601,7012.664968800001,-44.551,0.295,178.045
3.6239,128.181786,37.958554,7012.578710400001,-42.58,0.245,178.144
3.6406,128.181787,37.958507,7012.4921472000005,-40.77,0.187,178.23
3.6573,128.181788,37.95846,7012.403755200001,-39.117,0.123,178.302
3.674,128.181789,37.958414,7012.314144,-37.622,0.056,178.364
3.6907,128.181789,37.958367,7012.2233136,-36.284,-0.01,178.419
3.7074,128.18179,37.95832,7012.1318736,-35.102,-0.076,178.468
3.7241,128.181791,37.958273,7012.0395192000005,-34.072,-0.14,178.514
3.7408,128.181792,37.958226,7011.946860000001,-33.189,-0.202,178.556
3.7575,128.181793,37.958179,7011.8542008,-32.447,-0.26,178.595
3.7742,128.181794,37.958132,7011.7612368,-31.843,-0.315,178.631
3.7909,128.181795,37.958086,7011.6685776,-31.371,-0.368,178.665
3.8076,128.181795,37.958039,7011.5743944000005,-30.822,-0.41,178.705
3.8243,128.181796,37.957992,7011.479296800001,-30.198,-0.44,178.75
3.841,128.181797,37.957945,7011.38298,-29.495,-0.459,178.797
3.8577,128.181798,37.957898,7011.285444,-28.71,-0.469,178.84
3.8744,128.181799,37.957851,7011.185774400001,-27.844,-0.472,178.879
3.8911,128.1818,37.957804,7011.084276,-26.899,-0.467,178.914
3.9078,128.181801,37.957757,7010.9803392,-25.877,-0.456,178.943
3.9245,128.181802,37.95771,7010.8736592000005,-24.782,-0.44,178.969
3.9412,128.181803,37.957663,7010.764540800001,-23.617,-0.419,178.991
3.9579,128.181804,37.957616,7010.652069600001,-22.387,-0.394,179.011
3.9746,128.181805,37.957569,7010.537160000001,-21.093,-0.367,179.029
3.9913,128.181806,37.957522,7010.4195072,-19.74,-0.337,179.045
4.008,128.181807,37.957475,7010.299416,-18.329,-0.306,179.061
4.0247,128.181808,37.957428,7010.1768864000005,-16.864,-0.274,179.076
4.0414,128.181809,37.957381,7010.0519184,-15.347,-0.241,179.092
4.058,128.18181,37.957334,7009.924512,-13.78,-0.208,179.107
4.0748,128.181811,37.957287,7009.794972000001,-12.166,-0.174,179.122
4.0915,128.181812,37.95724,7009.6632984,-10.506,-0.139,179.138
4.1082,128.181813,37.957193,7009.529491200001,-8.802,-0.105,179.155
4.1249,128.181814,37.957146,7009.393855200001,-7.057,-0.07,179.172
4.1415,128.181815,37.957099,7009.2563904,-5.272,-0.035,179.19
4.1583,128.181816,37.957051,7009.117096800001,-3.447,-0.001,179.209
4.175,128.181817,37.957004,7008.975974400001,-1.585,0.033,179.229
4.1917,128.181818,37.956957,7008.833328000001,0.312,0.067,179.251
4.2084,128.181819,37.95691,7008.6891576,2.244,0.102,179.273
4.2251,128.18182,37.956863,7008.5437680000005,4.211,0.136,179.297
4.2417,128.181821,37.956815,7008.3968544,6.21,0.171,179.323
4.2585,128.181822,37.956768,7008.2487216,8.24,0.205,179.35
4.2752,128.181823,37.956721,7008.1005888,10.287,0.24,179.378
4.2919,128.181824,37.956674,7007.952151200001,12.342,0.275,179.406
4.3086,128.181825,37.956626,7007.8040184,14.394,0.311,179.435
4.3252,128.181826,37.956579,7007.6561904,16.435,0.348,179.465
4.342,128.181827,37.956532,7007.5092768,18.457,0.385,179.496
4.3587,128.181828,37.956485,7007.3629728000005,20.454,0.423,179.528
4.3754,128.181829,37.956437,7007.2175832,22.422,0.462,179.562
4.3921,128.18183,37.95639,7007.0731080000005,24.357,0.501,179.597
4.4088,128.181831,37.956343,7006.929852000001,26.257,0.54,179.634
4.4254,128.181832,37.956295,7006.7878152,28.121,0.578,179.674
4.4422,128.181833,37.956248,7006.646997600001,29.949,0.616,179.715
4.4589,128.181833,37.956201,7006.5070944,31.742,0.652,179.759
4.4756,128.181834,37.956153,7006.3684104,33.502,0.688,179.804
4.4923,128.181835,37.956106,7006.2306408,35.23,0.721,179.852
4.5089,128.181836,37.956058,7006.0940904,36.927,0.753,179.901
4.5256,128.181837,37.956011,7005.9581496,38.596,0.782,179.952
4.5424,128.181837,37.955964,7005.823123200001,40.238,0.802,179.998
4.5591,128.181838,37.955916,7005.688706400001,41.854,0.812,180.038
4.5758,128.181839,37.955869,7005.555204,43.446,0.814,180.075
4.5925,128.181839,37.955821,7005.422006400001,45.013,0.811,180.11
4.6091,128.18184,37.955774,7005.2897232000005,46.555,0.806,180.143
4.6259,128.181841,37.955726,7005.158049600001,48.066,0.8,180.177
4.6426,128.181841,37.955679,7005.0272904,49.544,0.793,180.212
4.6593,128.181842,37.955632,7004.897140800001,50.987,0.789,180.248
4.676,128.181842,37.955584,7004.767600800001,52.391,0.787,180.285
4.6927,128.181842,37.955537,7004.6389752,53.752,0.788,180.324
4.7093,128.181843,37.955489,7004.5106544,55.068,0.79,180.364
4.7261,128.181843,37.955442,7004.3829432,56.338,0.793,180.407
4.7428,128.181843,37.955394,7004.2555368,57.563,0.797,180.451
4.7595,128.181844,37.955347,7004.12874,58.745,0.8,180.497
4.7762,128.181844,37.955299,7004.001638400001,59.889,0.802,180.543
4.7928,128.181844,37.955252,7003.874841600001,60.996,0.803,180.591
4.8096,128.181844,37.955204,7003.748044800001,62.072,0.802,180.639
4.8263,128.181844,37.955156,7003.6212479999995,63.119,0.8,180.687
4.843,128.181844,37.955109,7003.4938416,64.14,0.796,180.736
4.8597,128.181844,37.955061,7003.3664352000005,65.139,0.79,180.784
4.8764,128.181844,37.955014,7003.238419200001,66.116,0.783,180.831
4.893,128.181844,37.954966,7003.1097936,67.074,0.774,180.878
4.9098,128.181844,37.954919,7002.9808632,68.014,0.764,180.925
4.9265,128.181844,37.954871,7002.851018400001,68.935,0.753,180.97
4.9432,128.181843,37.954823,7002.7208688,69.834,0.741,181.015
4.9599,128.181843,37.954776,7002.590109600001,70.703,0.729,181.059
4.9765,128.181843,37.954728,7002.458436,71.54,0.716,181.101
4.9932,128.181842,37.954681,7002.3261528,72.348,0.703,181.142
5.01,128.181842,37.954633,7002.193260000001,73.121,0.689,181.182
5.0267,128.181842,37.954585,7002.0594528,73.856,0.675,181.221
5.0434,128.181841,37.954538,7001.9247312,74.549,0.661,181.261
5.0601,128.18184,37.95449,7001.789400000001,75.199,0.648,181.302
5.0767,128.18184,37.954442,7001.6531544,75.805,0.635,181.343
5.0935,128.181839,37.954395,7001.5156896,76.366,0.622,181.386
5.1102,128.181838,37.954347,7001.377615200001,76.883,0.609,181.43
5.1269,128.181837,37.9543,7001.2380168,77.396,0.594,181.474
5.1436,128.181837,37.954252,7001.0971992,77.9,0.577,181.52
5.1602,128.181836,37.954204,7000.9551624,78.384,0.559,181.565
5.1769,128.181835,37.954156,7000.811906400001,78.841,0.541,181.594
5.1937,128.181834,37.954109,7000.6671264,79.263,0.52,181.603
5.2104,128.181833,37.954061,7000.520822400001,79.647,0.499,181.596
5.2271,128.181831,37.954013,7000.3732992000005,79.992,0.478,181.579
5.2438,128.18183,37.953966,7000.224252000001,80.303,0.458,181.558
5.2604,128.181829,37.953918,7000.0739856,80.583,0.437,181.537
5.2772,128.181828,37.95387,6999.9218904,80.832,0.418,181.515
5.2939,128.181827,37.953823,6999.7682712,81.048,0.4,181.497
5.3106,128.181825,37.953775,6999.613432800001,81.23,0.384,181.482
5.3273,128.181824,37.953727,6999.456765600001,81.374,0.37,181.471
5.3439,128.181822,37.953679,6999.298574400001,81.477,0.358,181.465
5.3606,128.181821,37.953632,6999.1388592,81.528,0.349,181.464
5.3774,128.181819,37.953584,6998.977620000001,81.524,0.342,181.465
5.3941,128.181818,37.953536,6998.8151616,81.462,0.338,181.47
5.4108,128.181816,37.953488,6998.650874400001,81.342,0.335,181.479
5.4275,128.181814,37.953441,6998.485368000001,81.167,0.333,181.49
5.4441,128.181812,37.953393,6998.3186424000005,80.941,0.331,181.504
5.4609,128.181811,37.953345,6998.150088,80.659,0.328,181.519
5.4776,128.181809,37.953297,6997.980314400001,80.328,0.326,181.535
5.4943,128.181807,37.95325,6997.8090168,79.955,0.323,181.552
5.511,128.181805,37.953202,6997.6365000000005,79.545,0.319,181.569
5.5277,128.181803,37.953154,6997.4624592,79.106,0.314,181.587
5.5443,128.181801,37.953106,6997.2871992,78.644,0.308,181.605
5.5611,128.181799,37.953059,6997.110415200001,78.146,0.302,181.622
5.5778,128.181796,37.953011,6996.932412,77.616,0.296,181.639
5.5945,128.181794,37.952963,6996.7531896,77.056,0.29,181.654
5.6112,128.181792,37.952915,6996.5730528,76.448,0.285,181.667
5.6278,128.18179,37.952867,6996.3916968,75.794,0.28,181.68
5.6445,128.181787,37.95282,6996.2091216,75.1,0.276,181.691
5.6613,128.181785,37.952772,6996.025632000001,74.373,0.27,181.702
5.678,128.181782,37.952724,6995.841228,73.62,0.264,181.713
5.6947,128.18178,37.952676,6995.6559096,72.851,0.257,181.725
5.7114,128.181777,37.952628,6995.4696768,72.047,0.249,181.736
5.728,128.181775,37.95258,6995.2825296,71.213,0.242,181.746
5.7448,128.181772,37.952533,6995.0947728,70.354,0.235,181.756
5.7615,128.181769,37.952485,6994.9064064,69.477,0.227,181.766
5.7782,128.181767,37.952437,6994.7174304,68.555,0.22,181.775
5.7949,128.181764,37.952389,6994.528149600001,67.596,0.213,181.784
5.8115,128.181761,37.952341,6994.3391736,66.794,0.191,181.797
5.8282,128.181758,37.952294,6994.149892800001,66.147,0.154,181.815
5.845,128.181755,37.952246,6993.959697600001,65.648,0.108,181.836
5.8617,128.181752,37.952198,6993.768283200001,65.277,0.061,181.858
5.8784,128.181749,37.95215,6993.5759544,65.015,0.017,181.88
5.8951,128.181746,37.952102,6993.382101600001,64.821,-0.02,181.898
5.9117,128.181743,37.952054,6993.1870296,64.648,-0.049,181.911
5.9285,128.18174,37.952006,6992.9910432,64.445,-0.068,181.92
5.9452,128.181737,37.951958,6992.794447200001,64.175,-0.078,181.925
5.9619,128.181734,37.951911,6992.5975464,63.837,-0.082,181.928
5.9786,128.181731,37.951863,6992.400645600001,63.426,-0.082,181.932
5.9952,128.181728,37.951815,6992.20344,62.943,-0.082,181.934
6.0119,128.181724,37.951767,6992.0065392,62.389,-0.083,181.935
6.0287,128.181721,37.951719,6991.8099432,61.767,-0.085,181.937
6.0454,128.181718,37.951671,6991.613652000001,61.079,-0.087,181.94
6.0621,128.181714,37.951623,6991.417360800001,60.33,-0.09,181.943
6.0788,128.181711,37.951575,6991.221374400001,59.52,-0.093,181.947
6.0954,128.181707,37.951527,6991.025997600001,58.654,-0.097,181.951
6.1121,128.181704,37.951479,6990.830620799999,57.734,-0.1,181.957
6.1289,128.1817,37.951431,6990.6355488,56.783,-0.104,181.964
6.1456,128.181696,37.951384,6990.4413912,55.781,-0.108,181.972
6.1623,128.181693,37.951336,6990.247538400001,54.733,-0.112,181.98
6.179,128.181689,37.951288,6990.053990400001,53.659,-0.117,181.989
6.1956,128.181685,37.95124,6989.8616616,52.541,-0.123,181.996
6.2124,128.181681,37.951192,6989.669942400001,51.381,-0.129,182.003
6.2291,128.181678,37.951144,6989.4791376,50.182,-0.136,182.007
6.2458,128.181674,37.951096,6989.289247200001,48.944,-0.143,182.011
6.2625,128.18167,37.951048,6989.100576,47.668,-0.151,182.016
6.2791,128.181666,37.951,6988.913124000001,46.357,-0.159,182.02
6.2958,128.181662,37.950952,6988.726891200001,45.012,-0.168,182.024
6.3126,128.181658,37.950904,6988.541877600001,43.634,-0.177,182.028
6.3293,128.181654,37.950856,6988.3586928,42.226,-0.186,182.033
6.346,128.181649,37.950808,6988.176727200001,40.787,-0.195,182.039
6.3627,128.181645,37.95076,6987.9965904,39.32,-0.204,182.044
6.3793,128.181641,37.950712,6987.8182824000005,37.826,-0.213,182.05
6.3961,128.181637,37.950664,6987.6411935999995,36.326,-0.223,182.057
6.4128,128.181633,37.950616,6987.466848,34.8,-0.234,182.064
6.4295,128.181628,37.950568,6987.2940264,33.251,-0.246,182.069
6.4462,128.181624,37.95052,6987.1236432,31.679,-0.258,182.074
6.4628,128.18162,37.950473,6986.9553936,30.084,-0.27,182.078
6.4795,128.181615,37.950425,6986.789582400001,28.467,-0.283,182.083
6.4963,128.181611,37.950377,6986.6262096,26.829,-0.296,182.088
6.513,128.181607,37.950329,6986.4652752,25.17,-0.308,182.093
6.5297,128.181602,37.950281,6986.307084000001,23.492,-0.321,182.098
6.5464,128.181598,37.950233,6986.1516360000005,21.793,-0.333,182.104
6.5631,128.181593,37.950185,6985.9989312,20.076,-0.345,182.11
6.5798,128.181589,37.950137,6985.8492744000005,18.341,-0.358,182.116
6.5965,128.181584,37.950089,6985.702665600001,16.588,-0.37,182.122
6.6132,128.18158,37.950041,6985.558800000001,14.818,-0.381,182.128
6.6299,128.181575,37.949993,6985.418592000001,13.032,-0.39,182.135
6.6466,128.181571,37.949945,6985.2811272,11.229,-0.397,182.142
6.6633,128.181566,37.949897,6985.147320000001,9.41,-0.403,182.15
6.68,128.181562,37.949849,6985.016560800001,7.575,-0.408,182.158
6.6967,128.181557,37.949801,6984.889459200001,5.724,-0.412,182.166
6.7134,128.181552,37.949753,6984.765710400001,3.859,-0.416,182.173
6.7301,128.181548,37.949705,6984.645314400001,1.978,-0.419,182.181
6.7468,128.181543,37.949657,6984.528576,0.083,-0.428,182.189
6.7635,128.181539,37.949609,6984.4151904,-1.826,-0.443,182.196
6.7802,128.181534,37.949561,6984.3051576,-3.751,-0.463,182.204
6.7969,128.18153,37.949513,6984.198782400001,-5.689,-0.485,182.212
6.8136,128.181525,37.949465,6984.09576,-7.641,-0.508,182.22
6.8303,128.181521,37.949416,6983.9960904,-9.607,-0.531,182.227
6.847,128.181516,37.949368,6983.900078400001,-11.588,-0.553,182.235
6.8637,128.181512,37.94932,6983.8074192,-13.583,-0.573,182.243
6.8804,128.181507,37.949272,6983.7181128,-15.592,-0.59,182.251
6.8971,128.181503,37.949224,6983.6318544000005,-17.616,-0.606,182.258
6.9138,128.181498,37.949176,6983.5489488,-19.654,-0.62,182.266
6.9305,128.181494,37.949128,6983.469396,-21.705,-0.631,182.272
6.9472,128.18149,37.94908,6983.3928912,-23.771,-0.64,182.278
6.9639,128.181485,37.949032,6983.3191295999995,-25.85,-0.646,182.282
6.9806,128.181481,37.948984,6983.2487208,-27.943,-0.65,182.285
6.9973,128.181477,37.948936,6983.181055200001,-30.049,-0.651,182.286
7.014,128.181473,37.948888,6983.116132800001,-32.168,-0.65,182.286
7.0307,128.181468,37.94884,6983.0527344,-34.259,-0.647,182.287
7.0474,128.181464,37.948792,6982.9929936,-36.365,-0.641,182.286
7.0641,128.18146,37.948744,6982.934472,-38.438,-0.633,182.285
7.0808,128.181456,37.948696,6982.8771696,-40.42,-0.621,182.287
7.0975,128.181452,37.948648,6982.8213912,-42.367,-0.607,182.288
7.1142,128.181448,37.9486,6982.7662224000005,-44.241,-0.591,182.289
7.1309,128.181444,37.948552,6982.7113584,-46.005,-0.573,182.291
7.1476,128.181441,37.948504,6982.6567992,-47.713,-0.553,182.29
7.1643,128.181437,37.948456,6982.6034592000005,-49.403,-0.536,182.283
7.181,128.181433,37.948408,6982.550424000001,-51.059,-0.519,182.27
7.1977,128.181429,37.94836,6982.4970840000005,-52.668,-0.502,182.256
7.2144,128.181425,37.948312,6982.4434392,-54.211,-0.484,182.242
7.2311,128.181422,37.948264,6982.3900992,-55.714,-0.466,182.226
7.2478,128.181418,37.948216,6982.3358448,-57.164,-0.449,182.21
7.2645,128.181415,37.948168,6982.280676,-58.548,-0.431,182.193
7.2812,128.181411,37.94812,6982.224288,-59.855,-0.414,182.179
7.2979,128.181407,37.948072,6982.1679,-61.113,-0.398,182.164
7.3146,128.181404,37.948024,6982.110292800001,-62.316,-0.383,182.146
7.3313,128.181401,37.947976,6982.052685600001,-63.486,-0.369,182.125
7.348,128.181397,37.947928,6981.993859200001,-64.618,-0.356,182.1
7.3647,128.181394,37.94788,6981.934728,-65.725,-0.344,182.07
7.3814,128.181391,37.947832,6981.8740728,-66.801,-0.331,182.036
7.3981,128.181387,37.947783,6981.8125032,-67.84,-0.319,182.001
7.4148,128.181384,37.947735,6981.7494096,-68.837,-0.307,181.968
7.4315,128.181381,37.947687,6981.685096800001,-69.788,-0.297,181.939
7.4482,128.181378,37.947639,6981.619869600001,-70.704,-0.287,181.909
7.4649,128.181375,37.947591,6981.5528136,-71.586,-0.279,181.878
7.4816,128.181372,37.947543,6981.484538400001,-72.429,-0.272,181.848
7.4983,128.181369,37.947495,6981.4147391999995,-73.235,-0.267,181.821
7.515,128.181366,37.947447,6981.343111200001,-73.997,-0.264,181.798
7.5317,128.181363,37.947399,6981.270264000001,-74.728,-0.261,181.772
7.5484,128.18136,37.947351,6981.1958928,-75.432,-0.257,181.738
7.5651,128.181357,37.947303,6981.119083200001,-76.057,-0.249,181.697
7.5818,128.181354,37.947255,6981.040749600001,-76.605,-0.238,181.651
7.5985,128.181351,37.947206,6980.9602824,-77.08,-0.225,181.605
7.6152,128.181348,37.947158,6980.877986400001,-77.498,-0.213,181.554
7.6319,128.181346,37.94711,6980.7938616,-77.865,-0.202,181.5
7.6486,128.181343,37.947062,6980.707908,-78.192,-0.194,181.447
7.6653,128.18134,37.947014,6980.6201256,-78.485,-0.189,181.397
7.682,128.181338,37.946966,6980.5308192,-78.754,-0.186,181.353
7.6987,128.181335,37.946918,6980.439684000001,-79.008,-0.186,181.308
7.7154,128.181333,37.946869,6980.3467200000005,-79.253,-0.188,181.262
7.7321,128.18133,37.946821,6980.2519272,-79.492,-0.191,181.217
7.7488,128.181328,37.946773,6980.1553056,-79.726,-0.196,181.175
7.7655,128.181325,37.946725,6980.0568552,-79.956,-0.202,181.139
7.7822,128.181323,37.946677,6979.9565760000005,-80.182,-0.209,181.107
7.7989,128.181321,37.946629,6979.854163200001,-80.403,-0.217,181.081
7.8156,128.181319,37.946581,6979.7505312,-80.625,-0.224,181.045
7.8323,128.181316,37.946532,6979.644765600001,-80.849,-0.23,180.993
7.849,128.181314,37.946484,6979.5371712,-81.073,-0.235,180.928
7.8657,128.181312,37.946436,6979.427748,-81.297,-0.239,180.856
7.8824,128.18131,37.946388,6979.3161912000005,-81.522,-0.243,180.782
7.8991,128.181308,37.94634,6979.203110400001,-81.747,-0.248,180.709
7.9158,128.181306,37.946292,6979.087896000001,-81.974,-0.252,180.626
7.9325,128.181304,37.946243,6978.9711576,-82.203,-0.256,180.535
7.9492,128.181302,37.946195,6978.8532000000005,-82.534,-0.27,180.45
7.9659,128.181301,37.946147,6978.7331088,-82.964,-0.297,180.386
7.9826,128.181299,37.946099,6978.611493599999,-83.494,-0.334,180.36
7.9993,128.181297,37.946051,6978.4877448,-84.127,-0.377,180.37
8.016,128.181296,37.946003,6978.362472,-84.859,-0.424,180.407
8.0327,128.181294,37.945954,6978.235065600001,-85.689,-0.472,180.459
8.0494,128.181293,37.945906,6978.1055256,-86.614,-0.519,180.517
8.0661,128.181291,37.945858,6977.973852000001,-87.63,-0.565,180.577
8.0828,128.18129,37.94581,6977.8400448,-88.734,-0.61,180.635
8.0994,128.181289,37.945762,6977.7037992000005,-89.922,-0.653,180.69
8.1161,128.181287,37.945713,6977.565115200001,-91.192,-0.694,180.741
8.1329,128.181286,37.945665,6977.423992800001,-92.541,-0.735,180.788
8.1496,128.181285,37.945617,6977.280127200001,-93.964,-0.773,180.83
8.1663,128.181284,37.945569,6977.1332136,-95.46,-0.811,180.864
8.183,128.181283,37.945521,6976.983556800001,-97.025,-0.849,180.886
8.1997,128.181282,37.945473,6976.8299376,-98.483,-0.878,180.879
8.2164,128.181282,37.945424,6976.673270400001,-99.856,-0.904,180.827
8.2331,128.181281,37.945376,6976.5135552,-101.187,-0.939,180.718
8.2498,128.18128,37.945328,6976.350792,-102.514,-0.993,180.539
8.2665,128.18128,37.94528,6976.1840664,-103.871,-1.074,180.285
8.2831,128.181279,37.945232,6976.013378400001,-105.288,-1.187,179.947
8.2998,128.181279,37.945184,6975.8381184,-106.764,-1.331,179.53
8.3166,128.181278,37.945135,6975.6579816,-108.298,-1.506,179.05
8.3333,128.181278,37.945087,6975.4726632,-109.887,-1.708,178.523
8.35,128.181278,37.945039,6975.2815536,-111.528,-1.934,177.966
8.3667,128.181278,37.944991,6975.084348,-113.216,-2.178,177.4
8.3834,128.181278,37.944943,6974.880741600001,-114.949,-2.436,176.845
8.4001,128.181278,37.944895,6974.670124800001,-116.724,-2.698,176.321
8.4168,128.181279,37.944847,6974.4521928,-118.538,-2.956,175.844
8.4335,128.181279,37.944798,6974.226336000001,-120.391,-3.207,175.419
8.4502,128.18128,37.94475,6973.9919448,-122.281,-3.453,175.041
8.4668,128.181281,37.944702,6973.7474952,-124.014,-3.675,174.688
8.4835,128.181281,37.944654,6973.494206400001,-125.598,-3.877,174.356
8.5003,128.181282,37.944606,6973.2317736,-127.028,-4.063,174.049
8.517,128.181283,37.944558,6972.960196800001,-128.303,-4.237,173.769
8.5337,128.181285,37.94451,6972.6791712,-129.425,-4.402,173.517
8.5504,128.181286,37.944462,6972.3893064,-130.399,-4.56,173.29
8.5671,128.181287,37.944414,6972.089992800001,-131.235,-4.71,173.088
8.5838,128.181289,37.944365,6971.7815352,-131.938,-4.854,172.906
8.6005,128.18129,37.944317,6971.463933600001,-132.517,-4.992,172.741
8.6172,128.181292,37.944269,6971.1374928000005,-132.978,-5.123,172.591
8.6339,128.181294,37.944221,6970.8022128,-133.329,-5.249,172.454
8.6505,128.181296,37.944173,6970.4583984,-133.574,-5.371,172.327
8.6672,128.181297,37.944125,6970.1057448,-133.719,-5.487,172.209
8.684,128.1813,37.944077,6969.7448616,-133.768,-5.6,172.098
8.7007,128.181302,37.944029,6969.3760536,-133.726,-5.71,171.992
8.7174,128.181304,37.943981,6968.999016,-133.597,-5.817,171.891
8.7341,128.181306,37.943933,6968.6143584,-133.384,-5.92,171.794
8.7508,128.181308,37.943885,6968.2220808,-133.092,-6.022,171.699
8.7675,128.181311,37.943836,6967.821878400001,-132.722,-6.121,171.606
8.7842,128.181313,37.943788,6967.4140560000005,-132.279,-6.219,171.513
8.8009,128.181316,37.94374,6966.9983088,-131.764,-6.314,171.421
8.8176,128.181318,37.943692,6966.5746368,-131.18,-6.409,171.329
8.8342,128.181321,37.943644,6966.1433448,-130.529,-6.502,171.235
8.8509,128.181324,37.943596,6965.704128,-129.814,-6.594,171.14
8.8676,128.181326,37.943548,6965.256986400001,-129.037,-6.684,171.043
8.8844,128.181329,37.9435,6964.802224800001,-128.199,-6.774,170.942
8.9011,128.181332,37.943452,6964.339233600001,-127.309,-6.863,170.839
8.9178,128.181335,37.943404,6963.8680128000005,-126.378,-6.952,170.733
8.9345,128.181339,37.943356,6963.3885624,-125.419,-7.041,170.623
8.9512,128.181342,37.943308,6962.9005776,-124.441,-7.131,170.509
8.9679,128.181345,37.943259,6962.405277600001,-123.596,-7.242,170.392
8.9846,128.181349,37.943211,6961.900833600001,-122.876,-7.376,170.269
9.0013,128.181353,37.943163,6961.387855200001,-122.286,-7.524,170.141
9.0179,128.181356,37.943115,6960.865428000001,-121.829,-7.679,170.009
9.0346,128.18136,37.943067,6960.333856800001,-121.506,-7.836,169.873
9.0513,128.181364,37.943019,6959.7928368,-121.313,-7.993,169.735
9.0681,128.181368,37.942972,6959.2420632,-121.245,-8.148,169.596
9.0848,128.181373,37.942924,6958.6812312,-121.299,-8.301,169.456
9.1015,128.181377,37.942876,6958.110645600001,-121.47,-8.451,169.318
9.1182,128.181382,37.942828,6957.5296968,-121.751,-8.6,169.18
9.1349,128.181386,37.94278,6956.93808,-122.139,-8.747,169.044
9.1516,128.181391,37.942732,6956.335795200001,-122.629,-8.893,168.91
9.1683,128.181396,37.942684,6955.722232800001,-123.217,-9.04,168.777
9.185,128.181401,37.942636,6955.097392800001,-123.898,-9.187,168.646
9.2016,128.181407,37.942589,6954.4612752,-124.669,-9.335,168.517
9.2183,128.181412,37.942541,6953.8135752,-125.528,-9.485,168.39
9.235,128.181418,37.942493,6953.153988000001,-126.469,-9.637,168.265
9.2518,128.181424,37.942446,6952.482818400001,-127.492,-9.793,168.142
9.2685,128.18143,37.942398,6951.799456800001,-128.592,-9.951,168.021
9.2852,128.181436,37.94235,6951.1035984,-129.769,-10.113,167.903
9.3019,128.181442,37.942303,6950.3955479999995,-131.018,-10.279,167.787
9.3186,128.181448,37.942255,6949.675000800001,-132.339,-10.449,167.675
9.3353,128.181455,37.942208,6948.941347200001,-133.728,-10.624,167.565
9.352,128.181461,37.94216,6948.194587200001,-135.185,-10.804,167.458
9.3687,128.181468,37.942113,6947.4347208,-136.708,-10.99,167.356
9.3854,128.181475,37.942066,6946.661138400001,-138.295,-11.181,167.257
9.402,128.181482,37.942018,6945.8735352,-139.761,-11.352,167.156
9.4187,128.181489,37.941971,6945.0731304,-141.112,-11.491,167.062
9.4355,128.181496,37.941924,6944.260533600001,-142.344,-11.593,166.989
9.4522,128.181503,37.941876,6943.4357448,-143.453,-11.666,166.938
9.4689,128.18151,37.941829,6942.598764,-144.625,-11.737,166.917
9.4856,128.181518,37.941782,6941.7480672,-145.856,-11.823,166.919
9.5023,128.181525,37.941735,6940.8839592,-147.153,-11.931,166.927
9.519,128.181533,37.941688,6940.0052208,-148.524,-12.068,166.929
9.5357,128.181541,37.94164,6939.1127664,-149.972,-12.241,166.919
9.5524,128.181549,37.941593,6938.2059864,-151.499,-12.445,166.896
9.5691,128.181556,37.941546,6937.2848808,-153.106,-12.679,166.863
9.5857,128.181564,37.941499,6936.3491448,-154.791,-12.936,166.824
9.6024,128.181572,37.941452,6935.399083200001,-156.547,-13.212,166.782
9.6192,128.181581,37.941406,6934.4350008,-158.335,-13.502,166.74
9.6359,128.181589,37.941359,6933.456897600001,-160.118,-13.8,166.698
9.6526,128.181597,37.941312,6932.4650784000005,-161.864,-14.104,166.659
9.6693,128.181605,37.941265,6931.4595432,-163.546,-14.409,166.624
9.686,128.181613,37.941218,6930.440596800001,-165.143,-14.715,166.595
9.7027,128.181622,37.941171,6929.408544,-166.64,-15.021,166.572
9.7194,128.18163,37.941125,6928.3633848,-168.03,-15.326,166.556
9.7361,128.181638,37.941078,6927.3051192,-169.309,-15.63,166.549
9.7528,128.181647,37.941031,6926.234356800001,-170.478,-15.932,166.55
9.7694,128.181655,37.940985,6925.151097600001,-171.541,-16.231,166.559
9.7861,128.181664,37.940938,6924.055646400001,-172.504,-16.528,166.576
9.8029,128.181672,37.940891,6922.948308,-173.376,-16.82,166.601
9.8196,128.181681,37.940845,6921.828777600001,-174.164,-17.109,166.632
9.8363,128.181689,37.940798,6920.697664800001,-174.877,-17.392,166.671
9.853,128.181698,37.940752,6919.554664800001,-175.525,-17.67,166.715
9.8697,128.181706,37.940705,6918.399168,-176.114,-17.943,166.764
9.8864,128.181715,37.940658,6917.230869600001,-176.653,-18.209,166.818
9.9031,128.181724,37.940612,6916.050074400001,-177.149,-18.47,166.874
9.9198,128.181732,37.940565,6914.8561728,-177.608,-18.725,166.932
9.9365,128.181741,37.940519,6913.649164800001,-178.035,-18.973,166.993
9.9531,128.18175,37.940473,6912.4290504,-178.435,-19.216,167.055
9.9698,128.181758,37.940426,6911.1952200000005,-178.811,-19.453,167.119
9.9865,128.181767,37.94038,6909.947673600001,-179.168,-19.685,167.182
10.0033,128.181776,37.940333,6908.686411200001,-179.508,-19.912,167.246
10.02,128.181784,37.940287,6907.411128000001,-179.834,-20.135,167.308
10.0367,128.181793,37.940241,6906.122128800001,179.85,-20.353,167.37
10.0534,128.181802,37.940195,6904.8191088,179.546,-20.567,167.431
10.0701,128.18181,37.940148,6903.502068000001,179.252,-20.778,167.492
10.0868,128.181819,37.940102,6902.170701600001,178.968,-20.985,167.551
10.1035,128.181828,37.940056,6900.825314400001,178.692,-21.189,167.61
10.1202,128.181836,37.94001,6899.465906400001,178.426,-21.391,167.669
10.1368,128.181845,37.939964,6898.091868,178.169,-21.589,167.728
10.1535,128.181854,37.939918,6896.7038088,177.921,-21.785,167.788
10.1702,128.181862,37.939872,6895.301424,177.681,-21.979,167.847
10.187,128.181871,37.939826,6893.8847136,177.45,-22.171,167.907
10.2037,128.18188,37.93978,6892.4539824,177.226,-22.361,167.968
10.2204,128.181888,37.939734,6891.0086208,177.011,-22.549,168.028
10.2371,128.181897,37.939688,6889.548628800001,176.804,-22.735,168.089
10.2538,128.181906,37.939642,6888.074616,176.604,-22.919,168.149
10.2705,128.181914,37.939596,6886.5862776,176.412,-23.102,168.21
10.2872,128.181923,37.93955,6885.0833088,176.228,-23.283,168.27
10.3039,128.181932,37.939505,6883.5660144,176.051,-23.462,168.331
10.3205,128.18194,37.939459,6882.0343944,175.883,-23.64,168.391
10.3372,128.181949,37.939413,6880.4884488,175.722,-23.817,168.451
10.3539,128.181957,37.939368,6878.928177600001,175.569,-23.993,168.511
10.3707,128.181966,37.939322,6877.353276,175.423,-24.168,168.571
10.3874,128.181975,37.939276,6875.7640488,175.286,-24.341,168.631
10.4041,128.181983,37.939231,6874.160496,175.156,-24.514,168.69
10.4208,128.181992,37.939185,6872.5426176,175.034,-24.685,168.749
10.4375,128.182,37.93914,6870.9104136000005,174.92,-24.856,168.808
10.4542,128.182009,37.939095,6869.263579200001,174.813,-25.026,168.866
10.4709,128.182017,37.939049,6867.6024192,174.714,-25.196,168.924
10.4876,128.182026,37.939004,6865.926933600001,174.622,-25.364,168.982
10.5042,128.182034,37.938959,6864.2371224,174.538,-25.532,169.039
10.5209,128.182043,37.938913,6862.5329856,174.461,-25.699,169.096
10.5376,128.182051,37.938868,6860.814218400001,174.391,-25.866,169.152
10.5544,128.18206,37.938823,6859.0814304,174.329,-26.032,169.208
10.5711,128.182068,37.938778,6857.334012,174.273,-26.197,169.264
10.5878,128.182077,37.938733,6855.572268,174.224,-26.363,169.318
10.6045,128.182085,37.938688,6853.7961984,174.181,-26.527,169.373
10.6212,128.182093,37.938643,6852.0054984,174.144,-26.691,169.427
10.6379,128.182102,37.938598,6850.2007776,174.114,-26.855,169.48
10.6546,128.18211,37.938553,6848.3814264,174.09,-27.018,169.533
10.6713,128.182119,37.938508,6846.5477496,174.071,-27.181,169.585
10.6879,128.182127,37.938463,6844.699747200001,174.058,-27.344,169.637
10.7046,128.182135,37.938418,6842.837419200001,174.05,-27.506,169.688
10.7213,128.182144,37.938373,6840.960460800001,174.047,-27.669,169.738
10.7381,128.182152,37.938329,6839.0694816000005,174.048,-27.83,169.788
10.7548,128.18216,37.938284,6837.163872,174.055,-27.992,169.837
10.7715,128.182168,37.93824,6835.2439368000005,174.065,-28.153,169.885
10.7882,128.182177,37.938195,6833.309676,174.08,-28.315,169.933
10.8049,128.182185,37.93815,6831.3610896,174.099,-28.476,169.98
10.8216,128.182193,37.938106,6829.3978728,174.121,-28.637,170.027
10.8383,128.182201,37.938062,6827.4206352,174.147,-28.798,170.073
10.855,128.182209,37.938017,6825.4287672,174.176,-28.958,170.118
10.8717,128.182217,37.937973,6823.422573600001,174.208,-29.119,170.162
10.8883,128.182225,37.937929,6821.4020544,174.243,-29.279,170.206
10.905,128.182234,37.937884,6819.3672096,174.281,-29.44,170.249
10.9218,128.182242,37.93784,6817.3180391999995,174.322,-29.601,170.291
10.9385,128.18225,37.937796,6815.2545432,174.364,-29.761,170.333
10.9552,128.182258,37.937752,6813.1767216,174.409,-29.922,170.374
10.9719,128.182266,37.937708,6811.084574400001,174.456,-30.082,170.415
10.9886,128.182274,37.937664,6808.977796800001,174.505,-30.243,170.454
11.0053,128.182282,37.93762,6806.8569984,174.555,-30.403,170.493
11.022,128.18229,37.937576,6804.7215696,174.607,-30.564,170.531
11.0387,128.182298,37.937532,6802.572120000001,174.661,-30.725,170.569
11.0554,128.182306,37.937489,6800.4083448,174.716,-30.885,170.606
11.072,128.182313,37.937445,6798.230244,174.772,-31.046,170.642
11.0887,128.182321,37.937401,6796.0375128000005,174.829,-31.207,170.678
11.1054,128.182329,37.937358,6793.8307608000005,174.887,-31.368,170.713
11.1222,128.182337,37.937314,6791.6096832,174.947,-31.529,170.747
11.1389,128.182345,37.937271,6789.37428,175.007,-31.691,170.78
11.1556,128.182353,37.937227,6787.124856,175.067,-31.852,170.813
11.1723,128.18236,37.937184,6784.860801600001,175.129,-32.013,170.846
11.189,128.182368,37.93714,6782.5827264,175.19,-32.175,170.877
11.2057,128.182376,37.937097,6780.2903256,175.253,-32.337,170.908
11.2224,128.182384,37.937054,6777.983904000001,175.316,-32.499,170.938
11.2391,128.182391,37.937011,6775.662852,175.379,-32.661,170.968
11.2557,128.182399,37.936968,6773.327779200001,175.443,-32.823,170.997
11.2724,128.182407,37.936924,6770.9786856,175.506,-32.985,171.026
11.2891,128.182414,37.936881,6768.6152664,175.571,-33.148,171.053
11.3059,128.182422,37.936839,6766.2375216,175.635,-33.311,171.081
11.3226,128.18243,37.936796,6763.845756000001,175.699,-33.473,171.107
11.3393,128.182437,37.936753,6761.4396648,175.764,-33.636,171.133
11.356,128.182445,37.93671,6759.0195527999995,175.829,-33.799,171.159
11.3727,128.182452,37.936667,6756.5851152000005,175.893,-33.962,171.183
11.3894,128.18246,37.936625,6754.136656800001,175.958,-34.126,171.208
11.4061,128.182467,37.936582,6751.674177600001,176.023,-34.289,171.231
11.4228,128.182475,37.93654,6749.1973728,176.087,-34.453,171.254
11.4394,128.182482,37.936497,6746.7065472,176.152,-34.617,171.277
11.4561,128.18249,37.936455,6744.2017008,176.217,-34.781,171.299
11.4728,128.182497,37.936412,6741.682833600001,176.281,-34.945,171.32
11.4896,128.182505,37.93637,6739.1499456,176.345,-35.109,171.341
11.5063,128.182512,37.936328,6736.602732,176.409,-35.273,171.362
11.523,128.18252,37.936286,6734.041497600001,176.472,-35.438,171.381
11.5397,128.182527,37.936244,6731.466547200001,176.535,-35.602,171.401
11.5564,128.182534,37.936202,6728.8772712,176.597,-35.767,171.42
11.5731,128.182542,37.93616,6726.273974400001,176.659,-35.932,171.438
11.5898,128.182549,37.936118,6723.6569616,176.72,-36.097,171.456
11.6065,128.182556,37.936076,6721.0256232,176.78,-36.262,171.473
11.6231,128.182564,37.936034,6718.3805688,176.84,-36.428,171.49
11.6398,128.182571,37.935992,6715.7214936,176.899,-36.593,171.507
11.6565,128.182578,37.935951,6713.0483976000005,176.957,-36.759,171.523
11.6733,128.182585,37.935909,6710.361585600001,177.015,-36.924,171.538
11.69,128.182593,37.935868,6707.6607527999995,177.072,-37.09,171.553
11.7067,128.1826,37.935826,6704.9458992,177.129,-37.256,171.568
11.7234,128.182607,37.935785,6702.2173296,177.185,-37.422,171.582
11.7401,128.182614,37.935743,6699.4747392,177.24,-37.588,171.596
11.7568,128.182621,37.935702,6696.7184328,177.295,-37.755,171.61
11.7735,128.182628,37.935661,6693.9481056,177.349,-37.921,171.623
11.7902,128.182635,37.93562,6691.1640624,177.402,-38.087,171.635
11.8068,128.182643,37.935579,6688.3663032,177.455,-38.254,171.647
11.8235,128.18265,37.935538,6685.554828,177.507,-38.421,171.659
11.8402,128.182657,37.935497,6682.729332000001,177.559,-38.588,171.671
11.857,128.182664,37.935456,6679.890120000001,177.61,-38.755,171.682
11.8737,128.182671,37.935415,6677.037496800001,177.66,-38.922,171.692
11.8904,128.182678,37.935375,6674.1708528,177.71,-39.089,171.703
11.9071,128.182685,37.935334,6671.290492800001,177.759,-39.256,171.712
11.9238,128.182692,37.935294,6668.3964168,177.808,-39.423,171.722
11.9405,128.182699,37.935253,6665.488624800001,177.857,-39.591,171.731
11.9572,128.182706,37.935213,6662.5674216,177.905,-39.758,171.74
11.9739,128.182713,37.935172,6659.6325024,177.952,-39.926,171.749
11.9905,128.182719,37.935132,6656.6838672,177.999,-40.093,171.757
12.0072,128.182726,37.935092,6653.721516,178.046,-40.261,171.765
12.0239,128.182733,37.935052,6650.7457536,178.092,-40.429,171.772
12.0407,128.18274,37.935012,6647.75658,178.137,-40.597,171.779
12.0574,128.182747,37.934972,6644.7536904,178.182,-40.765,171.786
12.0741,128.182754,37.934932,6641.7370848,178.227,-40.933,171.793
12.0908,128.182761,37.934892,6638.707068000001,178.272,-41.101,171.799
12.1075,128.182767,37.934852,6635.66364,178.316,-41.269,171.805
12.1242,128.182774,37.934813,6632.6068008,178.359,-41.437,171.811
12.1409,128.182781,37.934773,6629.5362456,178.402,-41.606,171.816
12.1576,128.182788,37.934733,6626.452584000001,178.445,-41.774,171.821
12.1743,128.182794,37.934694,6623.3552064000005,178.488,-41.942,171.826
12.1909,128.182801,37.934655,6620.2444176,178.53,-42.111,171.831
12.2076,128.182808,37.934615,6617.1205224000005,178.571,-42.279,171.835
12.2243,128.182814,37.934576,6613.982911200001,178.613,-42.448,171.839
12.2411,128.182821,37.934537,6610.8321936,178.654,-42.617,171.843
12.2578,128.182828,37.934498,6607.668064800001,178.695,-42.785,171.846
12.2745,128.182834,37.934459,6604.490829599999,178.735,-42.954,171.849
12.2912,128.182841,37.93442,6601.299878400001,178.775,-43.123,171.852
12.3079,128.182848,37.934381,6598.0961256,178.815,-43.292,171.855
12.3246,128.182854,37.934343,6594.8786568000005,178.854,-43.461,171.857
12.3413,128.182861,37.934304,6591.6483864,178.894,-43.63,171.86
12.358,128.182867,37.934265,6588.4047048,179.035,-43.783,171.849
12.3746,128.182874,37.934227,6585.149136,179.276,-43.905,171.826
12.3913,128.18288,37.934188,6581.8816799999995,179.614,-43.978,171.795
12.408,128.182887,37.93415,6578.6026416,-179.95,-43.988,171.76
12.4248,128.182893,37.934111,6575.3135448,-179.423,-43.919,171.724
12.4415,128.1829,37.934073,6572.0146944,-178.806,-43.757,171.689
12.4582,128.182906,37.934035,6568.7063952,-178.104,-43.522,171.658
12.4749,128.182913,37.933997,6565.389256800001,-177.319,-43.236,171.631
12.4916,128.182919,37.933958,6562.062974400001,-176.672,-42.921,171.642
12.5083,128.182926,37.93392,6558.7278528,-176.157,-42.597,171.689
12.525,128.182933,37.933882,6555.383892000001,-175.776,-42.287,171.756
12.5417,128.182939,37.933844,6552.031396800001,-175.529,-42.007,171.831
12.5583,128.182946,37.933806,6548.6703672,-175.412,-41.76,171.907
12.575,128.182952,37.933768,6545.3008032,-175.423,-41.541,171.98
12.5917,128.182959,37.93373,6541.9227048,-175.558,-41.344,172.05
12.6085,128.182965,37.933692,6538.536376800001,-175.812,-41.166,172.116
12.6252,128.182972,37.933654,6535.141819200001,-176.182,-41.002,172.179
12.6419,128.182978,37.933616,6531.739032,-176.663,-40.853,172.239
12.6586,128.182985,37.933578,6528.327710400001,-177.25,-40.715,172.296
12.6753,128.182991,37.93354,6524.908464,-177.94,-40.589,172.35
12.692,128.182998,37.933502,6521.4806832,-178.729,-40.473,172.401
12.7087,128.183004,37.933465,6518.044672800001,-179.613,-40.367,172.449
12.7254,128.183011,37.933427,6514.600432800001,179.411,-40.27,172.495
12.742,128.183017,37.933389,6511.1476584,178.349,-40.182,172.537
12.7587,128.183024,37.933352,6507.6863496000005,177.202,-40.102,172.578
12.7754,128.18303,37.933314,6504.217116,175.975,-40.03,172.615
12.7922,128.183037,37.933277,6500.7405672,174.911,-39.967,172.615
12.8089,128.183043,37.933239,6497.2570080000005,174.006,-39.913,172.578
12.8256,128.183049,37.933202,6493.767048,173.263,-39.866,172.52
12.8423,128.183056,37.933164,6490.2703824,172.683,-39.827,172.454
12.859,128.183062,37.933127,6486.7679256,172.263,-39.793,172.389
12.8757,128.183069,37.933089,6483.2596776,171.999,-39.764,172.328
12.8924,128.183075,37.933052,6479.7462479999995,171.882,-39.739,172.271
12.9091,128.183081,37.933014,6476.2279416,171.907,-39.72,172.217
12.9257,128.183088,37.932977,6472.7047584,172.067,-39.704,172.166
12.9424,128.183094,37.932939,6469.177308,172.354,-39.691,172.117
12.9591,128.1831,37.932902,6465.6458952,172.763,-39.681,172.07
12.9759,128.183107,37.932865,6462.110520000001,173.289,-39.673,172.025
12.9926,128.183113,37.932827,6458.5720968000005,173.926,-39.667,171.98
13.0093,128.18312,37.93279,6455.030016,174.67,-39.663,171.937
13.026,128.183126,37.932752,6451.485192000001,175.515,-39.659,171.896
13.0427,128.183132,37.932715,6447.937624800001,176.456,-39.656,171.856
13.0594,128.183139,37.932677,6444.387619200001,177.49,-39.653,171.817
13.0761,128.183145,37.93264,6440.83548,178.612,-39.651,171.779
13.0928,128.183152,37.932602,6437.2809024,179.817,-39.648,171.742
13.1095,128.183158,37.932564,6433.7235816,-178.897,-39.644,171.707
13.1262,128.183165,37.932527,6430.164127200001,-177.536,-39.641,171.672
13.1429,128.183171,37.932489,6426.6022344,-176.104,-39.636,171.639
13.1596,128.183177,37.932452,6423.037293599999,-174.857,-39.634,171.644
13.1763,128.183184,37.932414,6419.469,-173.789,-39.634,171.688
13.193,128.18319,37.932376,6415.8976584,-172.904,-39.635,171.753
13.2097,128.183197,37.932339,6412.3223544,-172.203,-39.637,171.823
13.2264,128.183203,37.932301,6408.743392800001,-171.682,-39.64,171.892
13.2431,128.18321,37.932263,6405.160468800001,-171.334,-39.644,171.956
13.2598,128.183216,37.932226,6401.5732776,-171.151,-39.648,172.016
13.2765,128.183223,37.932188,6397.9815144,-171.124,-39.653,172.071
13.2932,128.183229,37.93215,6394.3851792000005,-171.246,-39.661,172.125
13.3099,128.183236,37.932113,6390.7848816000005,-171.325,-39.683,172.143
13.3266,128.183242,37.932075,6387.1803168,-171.33,-39.738,172.119
13.3433,128.183248,37.932037,6383.5714848,-171.252,-39.844,172.065
13.36,128.183255,37.932,6379.9586904,-171.091,-40.018,171.992
13.3767,128.183261,37.931962,6376.3410192,-170.852,-40.273,171.903
13.3934,128.183268,37.931924,6372.7178616,-170.544,-40.621,171.798
13.4101,128.183274,37.931887,6369.0879984,-170.18,-41.066,171.675
13.4268,128.183281,37.931849,6365.450820000001,-169.772,-41.594,171.536
13.4435,128.183287,37.931812,6361.8057168,-169.336,-42.185,171.383
13.4602,128.183294,37.931774,6358.151774400001,-168.884,-42.818,171.216
13.4769,128.1833,37.931737,6354.4883832000005,-168.427,-43.47,171.039
13.4936,128.183307,37.931699,6350.814933600001,-167.975,-44.116,170.857
13.5103,128.183313,37.931662,6347.1311208,-167.538,-44.733,170.674
13.527,128.18332,37.931625,6343.4363352,-167.124,-45.299,170.495
13.5437,128.183326,37.931587,6339.7311864,-166.74,-45.79,170.33
13.5604,128.183333,37.93155,6336.0141504,-166.384,-46.216,170.18
13.5771,128.18334,37.931513,6332.2852272,-166.053,-46.592,170.041
13.5938,128.183346,37.931476,6328.5447216,-165.741,-46.934,169.909
13.6105,128.183353,37.931439,6324.792328800001,-165.447,-47.252,169.782
13.6272,128.18336,37.931402,6321.0274392,-165.168,-47.553,169.657
13.6439,128.183366,37.931366,6317.2506624,-164.902,-47.84,169.535
13.6606,128.183373,37.931329,6313.461388799999,-164.648,-48.116,169.414
13.6773,128.18338,37.931292,6309.6596184,-164.405,-48.382,169.295
13.694,128.183386,37.931256,6305.845351200001,-164.173,-48.638,169.177
13.7107,128.183393,37.931219,6302.018892000001,-163.95,-48.886,169.06
13.7274,128.1834,37.931183,6298.179631200001,-163.736,-49.126,168.944
13.7441,128.183407,37.931147,6294.3278736,-163.53,-49.359,168.829
13.7608,128.183414,37.931111,6290.463619200001,-163.452,-49.591,168.742
13.7775,128.18342,37.931075,6286.586258400001,-163.499,-49.823,168.683
13.7942,128.183427,37.931039,6282.6954864,-163.67,-50.053,168.64
13.8109,128.183434,37.931003,6278.7913032,-163.962,-50.281,168.606
13.8276,128.183441,37.930967,6274.873404,-164.373,-50.505,168.574
13.8443,128.183448,37.930932,6270.941179200001,-164.897,-50.726,168.543
13.861,128.183455,37.930896,6266.994933600001,-165.53,-50.945,168.513
13.8777,128.183462,37.930861,6263.0343624,-166.269,-51.162,168.486
13.8944,128.183469,37.930826,6259.0591608,-167.108,-51.378,168.464
13.9111,128.183476,37.930791,6255.069633600001,-168.045,-51.593,168.446
13.9278,128.183483,37.930756,6251.0657808,-169.075,-51.808,168.436
13.9445,128.183491,37.930721,6247.047297600001,-170.197,-52.022,168.432
13.9612,128.183498,37.930686,6243.0147936,-171.408,-52.237,168.436
13.9779,128.183505,37.930652,6238.967964,-172.705,-52.452,168.449
13.9946,128.183512,37.930618,6234.9065040000005,-174.086,-52.668,168.472
14.0113,128.183519,37.930583,6230.8310232,-175.549,-52.883,168.505
14.028,128.183526,37.930549,6226.7415216,-177.092,-53.1,168.549
14.0447,128.183533,37.930515,6222.6376944,-178.713,-53.316,168.605
14.0614,128.18354,37.930481,6218.519541600001,179.587,-53.533,168.674
14.0781,128.183547,37.930448,6214.3882824,178.066,-53.731,168.707
14.0948,128.183554,37.930414,6210.2439168,176.72,-53.895,168.703
14.1115,128.183561,37.93038,6206.0867496,175.544,-54.044,168.68
14.1282,128.183568,37.930347,6201.9170856,174.531,-54.195,168.66
14.1449,128.183575,37.930314,6197.7352296,173.672,-54.365,168.652
14.1616,128.183581,37.930281,6193.5411816000005,172.959,-54.559,168.66
14.1783,128.183588,37.930247,6189.335551200001,172.384,-54.771,168.684
14.195,128.183595,37.930214,6185.118033600001,171.942,-54.996,168.719
14.2117,128.183602,37.930182,6180.888933600001,171.627,-55.228,168.763
14.2284,128.183608,37.930149,6176.648556000001,171.435,-55.463,168.813
14.2451,128.183615,37.930116,6172.3972056,171.361,-55.697,168.866
14.2618,128.183622,37.930083,6168.134577600001,171.401,-55.928,168.921
14.2785,128.183628,37.930051,6163.8612816,171.551,-56.155,168.976
14.2952,128.183635,37.930018,6159.5773176,171.806,-56.378,169.031
14.3119,128.183641,37.929986,6155.2829904,172.163,-56.595,169.083
14.3286,128.183648,37.929954,6150.978300000001,172.619,-56.807,169.131
14.3453,128.183654,37.929922,6146.6632464,173.17,-57.015,169.175
14.362,128.183661,37.929889,6142.3381344,173.813,-57.216,169.214
14.3787,128.183667,37.929857,6138.0026592,174.546,-57.413,169.247
14.3954,128.183673,37.929825,6133.6568208,175.366,-57.605,169.272
14.4121,128.18368,37.929794,6129.3006192,176.269,-57.791,169.289
14.4288,128.183686,37.929762,6124.934054400001,177.255,-57.973,169.298
14.4455,128.183692,37.92973,6120.5571264,178.321,-58.15,169.298
14.4622,128.183698,37.929698,6116.1695303999995,179.465,-58.322,169.289
14.4789,128.183705,37.929667,6111.7715712,-179.313,-58.49,169.269
14.4956,128.183711,37.929635,6107.3632488,-178.019,-58.654,169.239
14.5123,128.183717,37.929604,6102.9442584,-176.651,-58.814,169.198
14.529,128.183723,37.929573,6098.5152096,-175.213,-58.95,169.148
14.5457,128.18373,37.929542,6094.0757976,-173.712,-59.044,169.094
14.5624,128.183736,37.929511,6089.6257176,-172.408,-59.119,169.091
14.5791,128.183742,37.92948,6085.1649696,-171.289,-59.195,169.135
14.5958,128.183748,37.929449,6080.6938584,-170.345,-59.288,169.197
14.6125,128.183755,37.929418,6076.2120792000005,-169.563,-59.406,169.254
14.6292,128.183761,37.929387,6071.7193272,-168.936,-59.546,169.294
14.6459,128.183767,37.929357,6067.214992800001,-168.459,-59.7,169.318
14.6626,128.183773,37.929326,6062.6996856000005,-168.124,-59.865,169.327
14.6793,128.183779,37.929296,6058.173100800001,-167.928,-60.035,169.326
14.696,128.183786,37.929266,6053.6346288,-167.864,-60.21,169.317
14.7127,128.183792,37.929236,6049.084269600001,-167.928,-60.388,169.304
14.7294,128.183798,37.929206,6044.522328000001,-168.115,-60.567,169.288
14.7461,128.183804,37.929176,6039.9481944,-168.421,-60.749,169.27
14.7628,128.183811,37.929147,6035.3621736000005,-168.841,-60.931,169.253
14.7795,128.183817,37.929117,6030.763656000001,-169.371,-61.115,169.237
14.7962,128.183823,37.929088,6026.1529464000005,-170.007,-61.3,169.224
14.8129,128.18383,37.929059,6021.5294352,-170.747,-61.486,169.215
14.8296,128.183836,37.92903,6016.893732,-171.587,-61.673,169.211
14.8463,128.183842,37.929001,6012.2449224,-172.525,-61.862,169.213
14.863,128.183848,37.928973,6007.5839208,-173.557,-62.052,169.222
14.8797,128.183855,37.928944,6002.9104224,-174.682,-62.243,169.24
14.8964,128.183861,37.928916,5998.224732000001,-175.898,-62.436,169.268
14.9131,128.183867,37.928887,5993.5265448,-177.203,-62.629,169.308
14.9298,128.183873,37.928859,5988.816165600001,-178.594,-62.824,169.359
14.9465,128.183879,37.928832,5984.0938992,179.927,-63.02,169.424
14.9632,128.183885,37.928804,5979.359136,178.366,-63.217,169.503
14.9799,128.183891,37.928776,5974.6130952,177.007,-63.397,169.527
14.9966,128.183897,37.928749,5969.855472,175.843,-63.579,169.498
15.0133,128.183903,37.928722,5965.086876,174.861,-63.77,169.446
15.03,128.183909,37.928694,5960.3073072,174.048,-63.969,169.398
15.0467,128.183915,37.928667,5955.5167656,173.393,-64.173,169.365
15.0634,128.183921,37.92864,5950.715860800001,172.887,-64.381,169.35
15.0801,128.183927,37.928614,5945.904288000001,172.525,-64.59,169.351
15.0968,128.183933,37.928587,5941.082656800001,172.3,-64.8,169.363
15.1135,128.183938,37.92856,5936.2506624,172.206,-65.01,169.383
15.1302,128.183944,37.928534,5931.408914400001,172.241,-65.218,169.407
15.1469,128.183949,37.928508,5926.5574128,172.397,-65.426,169.432
15.1636,128.183955,37.928482,5921.6964624,172.672,-65.631,169.458
15.1803,128.183961,37.928455,5916.8257584,173.061,-65.834,169.481
15.197,128.183966,37.928429,5911.945910400001,173.56,-66.035,169.501
