Time,Longitude,Latitude,Altitude,Roll (deg),Pitch (deg),Yaw (deg)
0.0,128.181881,37.923646,7000.146528,0.0,-0.003,0.0
0.0167,128.181881,37.923691,7000.1605488000005,0.0,-0.012,0.0
0.0334,128.181881,37.923736,7000.174264800001,0.0,-0.012,359.999
0.0501,128.181881,37.923781,7000.1876760000005,0.0,0.009,359.999
0.0668,128.181881,37.923825,7000.2007824,0.0,0.066,359.999
0.0834,128.181881,37.92387,7000.2144984,0.0,0.172,359.999
0.1002,128.181881,37.923915,7000.229128800001,0.0,0.337,359.999
0.1169,128.181881,37.92396,7000.244978400001,0.0,0.569,359.999
0.1336,128.181881,37.924005,7000.2629615999995,-0.001,0.876,359.999
0.1503,128.181881,37.92405,7000.283383200001,-0.001,1.257,359.999
0.1669,128.181881,37.924095,7000.3068528,-0.001,1.701,359.999
0.1837,128.181881,37.92414,7000.333370400001,-0.001,2.196,359.999
0.2004,128.181881,37.924185,7000.3635456,-0.002,2.727,359.999
0.2171,128.181881,37.924229,7000.3982928000005,-0.002,3.277,359.999
0.2338,128.181881,37.924274,7000.437612,-0.002,3.83,359.999
0.2505,128.181881,37.924319,7000.4821128,-0.003,4.369,359.999
0.2672,128.181881,37.924364,7000.5321,-0.003,4.878,359.999
0.2839,128.181881,37.924409,7000.5881832000005,-0.004,5.355,359.999
0.3006,128.181881,37.924453,7000.650972,-0.004,5.801,359.999
0.3172,128.181881,37.924498,7000.7201616,-0.005,6.218,359.999
0.3339,128.181881,37.924543,7000.7966664,-0.005,6.61,359.999
0.3507,128.181881,37.924588,7000.8807912,-0.006,6.977,359.999
0.3674,128.181881,37.924632,7000.972536,-0.007,7.323,359.999
0.3841,128.181881,37.924677,7001.0722056,-0.008,7.65,359.999
0.4008,128.181881,37.924722,7001.180104800001,-0.008,7.958,359.999
0.4175,128.181881,37.924767,7001.296233600001,-0.009,8.25,359.999
0.4342,128.181881,37.924811,7001.421201600001,-0.01,8.528,359.999
0.4509,128.181881,37.924856,7001.5550088,-0.011,8.792,359.998
0.4676,128.181881,37.924901,7001.697350400001,-0.012,9.044,359.998
0.4843,128.181881,37.924945,7001.848836,-0.014,9.285,359.998
0.501,128.181881,37.92499,7002.009465600001,-0.015,9.516,359.998
0.5176,128.181881,37.925034,7002.179544,-0.016,9.738,359.998
0.5344,128.181881,37.925079,7002.3587664,-0.018,9.952,359.998
0.5511,128.181881,37.925123,7002.5471328,-0.02,10.159,359.998
0.5678,128.181881,37.925168,7002.7452528,-0.022,10.36,359.998
0.5845,128.181881,37.925212,7002.9531264,-0.024,10.554,359.997
0.6012,128.181881,37.925257,7003.1704488000005,-0.026,10.744,359.997
0.6179,128.181881,37.925301,7003.397220000001,-0.028,10.928,359.997
0.6345,128.181881,37.925346,7003.6340496,-0.031,11.108,359.997
0.6513,128.181881,37.92539,7003.880328,-0.034,11.285,359.996
0.6679,128.181881,37.925434,7004.1366648,-0.037,11.457,359.996
0.6847,128.181881,37.925479,7004.402755200001,-0.04,11.627,359.996
0.7014,128.181881,37.925523,7004.6785992000005,-0.043,11.794,359.995
0.7181,128.181881,37.925567,7004.9645016,-0.047,11.958,359.995
0.7348,128.181881,37.925611,7005.2604624000005,-0.052,12.12,359.995
0.7514,128.181881,37.925656,7005.5661768,-0.056,12.28,359.994
0.7682,128.181881,37.9257,7005.881949600001,-0.061,12.439,359.994
0.7848,128.181881,37.925744,7006.2074760000005,-0.067,12.595,359.993
0.8016,128.181881,37.925788,7006.5433656000005,-0.072,12.75,359.993
0.8183,128.181881,37.925832,7006.8890088,-0.079,12.904,359.992
0.835,128.181881,37.925876,7007.2447104,-0.086,13.057,359.991
0.8517,128.181881,37.92592,7007.6107752,-0.093,13.208,359.99
0.8684,128.181881,37.925964,7007.9865936,-0.101,13.359,359.99
0.8851,128.181881,37.926008,7008.372470400001,-0.11,13.509,359.989
0.9018,128.181881,37.926052,7008.768710400001,-0.12,13.658,359.988
0.9185,128.181881,37.926096,7009.174704,-0.13,13.807,359.987
0.9352,128.181881,37.92614,7009.5910608,-0.142,13.955,359.985
0.9519,128.181881,37.926184,7010.017476,-0.154,14.102,359.984
0.9686,128.181881,37.926227,7010.453949600001,-0.167,14.249,359.983
0.9853,128.181881,37.926271,7010.900481600001,-0.182,14.396,359.981
1.002,128.181881,37.926315,7011.357072,-0.197,14.542,359.979
1.0187,128.181881,37.926358,7011.8240256,-0.214,14.689,359.977
1.0353,128.181881,37.926402,7012.3007328,-0.233,14.835,359.975
1.0521,128.181881,37.926446,7012.788108,-0.253,14.981,359.973
1.0688,128.181881,37.926489,7013.2852368,-0.275,15.126,359.971
1.0855,128.181881,37.926533,7013.792728800001,-0.298,15.272,359.968
1.1022,128.181881,37.926576,7014.310279200001,-0.324,15.418,359.965
1.1189,128.181881,37.92662,7014.837888000001,-0.352,15.563,359.962
1.1356,128.181881,37.926663,7015.375860000001,-0.382,15.709,359.959
1.1522,128.181881,37.926707,7015.9238904,-0.415,15.855,359.955
1.169,128.181881,37.92675,7016.482284000001,-0.451,16.0,359.951
1.1857,128.181881,37.926793,7017.050736,-0.49,16.146,359.947
1.2024,128.181881,37.926837,7017.629551200001,-0.532,16.292,359.942
1.2191,128.181881,37.92688,7018.218424800001,-0.577,16.438,359.937
1.2358,128.181881,37.926923,7018.8176616,-0.627,16.584,359.931
1.2525,128.181881,37.926966,7019.4272616,-0.68,16.731,359.925
1.2691,128.181881,37.927009,7020.046920000001,-0.739,16.877,359.919
1.2859,128.181881,37.927053,7020.676941600001,-0.802,17.024,359.911
1.3026,128.181881,37.927096,7021.3173264,-0.871,17.171,359.904
1.3193,128.181881,37.927139,7021.968074400001,-0.946,17.318,359.895
1.3359,128.181881,37.927182,7022.6291856,-1.027,17.466,359.886
1.3527,128.181881,37.927225,7023.300660000001,-1.114,17.613,359.876
1.3694,128.181881,37.927267,7023.982497600001,-1.21,17.761,359.864
1.386,128.181881,37.92731,7024.6746984,-1.313,17.909,359.852
1.4028,128.181881,37.927353,7025.3772624,-1.426,18.058,359.839
1.4195,128.181881,37.927396,7026.0907992,-1.548,18.207,359.825
1.4362,128.181881,37.927439,7026.8143944,-1.68,18.356,359.81
1.4528,128.18188,37.927481,7027.5489624,-1.824,18.506,359.793
1.4696,128.18188,37.927524,7028.2938936,-1.98,18.656,359.774
1.4863,128.18188,37.927567,7029.049797600001,-2.149,18.806,359.754
1.5029,128.18188,37.927609,7029.816369600001,-2.333,18.957,359.733
1.5197,128.18188,37.927652,7030.5936096000005,-2.534,19.108,359.71
1.5364,128.18188,37.927694,7031.381822400001,-2.752,19.26,359.686
1.5531,128.18188,37.927737,7032.1810080000005,-2.989,19.412,359.66
1.5697,128.18188,37.927779,7032.9911664,-3.247,19.565,359.633
1.5865,128.18188,37.927821,7033.812297600001,-3.527,19.718,359.603
1.6032,128.18188,37.927864,7034.645011200001,-3.831,19.871,359.572
1.6198,128.18188,37.927906,7035.488697600001,-4.162,20.026,359.538
1.6366,128.18188,37.927948,7036.3439664,-4.521,20.18,359.502
1.6533,128.181879,37.92799,7037.2108176,-4.912,20.336,359.464
1.67,128.181879,37.928032,7038.089251200001,-5.336,20.491,359.422
1.6867,128.181879,37.928074,7038.979572,-5.796,20.648,359.378
1.7034,128.181879,37.928116,7039.88178,-6.296,20.805,359.33
1.7201,128.181879,37.928158,7040.79618,-6.839,20.962,359.278
1.7368,128.181879,37.9282,7041.722772,-7.428,21.12,359.222
1.7535,128.181878,37.928242,7042.661860800001,-8.068,21.279,359.162
1.7702,128.181878,37.928284,7043.6137512000005,-8.763,21.438,359.097
1.7869,128.181878,37.928325,7044.5784432,-9.517,21.597,359.026
1.8036,128.181877,37.928367,7045.5559368,-10.332,21.757,358.95
1.8203,128.181877,37.928408,7046.5456224,-11.207,21.917,358.868
1.837,128.181877,37.92845,7047.5478048,-12.14,22.078,358.781
1.8537,128.181876,37.928491,7048.5627888,-13.13,22.239,358.689
1.8704,128.181876,37.928533,7049.589660000001,-14.177,22.4,358.591
1.8871,128.181875,37.928574,7050.6287232,-15.279,22.561,358.486
1.9038,128.181875,37.928616,7051.6802832,-16.435,22.721,358.376
1.9205,128.181874,37.928657,7052.7434256,-17.645,22.881,358.258
1.9372,128.181874,37.928698,7053.8184552,-18.907,23.041,358.134
1.9539,128.181873,37.928739,7054.905372,-20.22,23.199,358.002
1.9706,128.181872,37.92878,7056.0035664,-21.584,23.356,357.863
1.9873,128.181871,37.928821,7057.1133432,-22.997,23.511,357.716
2.004,128.181871,37.928862,7058.234092800001,-24.46,23.665,357.56
2.0207,128.18187,37.928903,7059.366120000001,-25.971,23.816,357.396
2.0374,128.181869,37.928944,7060.508815200001,-27.531,23.964,357.223
2.0541,128.181868,37.928984,7061.662483200001,-29.138,24.11,357.042
2.0707,128.181866,37.929025,7062.826209600001,-30.793,24.252,356.851
2.0875,128.181865,37.929066,7063.9999944,-32.494,24.391,356.652
2.1042,128.181864,37.929106,7065.1838376000005,-34.242,24.525,356.444
2.1208,128.181862,37.929147,7066.3771295999995,-36.036,24.654,356.226
2.1376,128.181861,37.929187,7067.579870400001,-37.876,24.779,355.999
2.1543,128.181859,37.929228,7068.7914504,-39.761,24.897,355.762
2.171,128.181858,37.929268,7070.011869600001,-41.692,25.01,355.516
2.1877,128.181856,37.929308,7071.240518400001,-43.668,25.116,355.26
2.2044,128.181854,37.929348,7072.477396800001,-45.688,25.214,354.995
2.2211,128.181852,37.929389,7073.7215904,-47.753,25.305,354.72
2.2378,128.18185,37.929429,7074.9730992,-49.863,25.388,354.435
2.2544,128.181847,37.929469,7076.2316184,-52.017,25.46,354.14
2.2712,128.181845,37.929509,7077.496538400001,-54.214,25.522,353.834
2.2879,128.181843,37.929549,7078.7672496000005,-56.455,25.571,353.517
2.3045,128.18184,37.929589,7080.0437520000005,-58.738,25.607,353.189
2.3213,128.181837,37.929629,7081.325436,-61.063,25.628,352.85
2.338,128.181834,37.929668,7082.6119968,-63.431,25.632,352.5
2.3546,128.181831,37.929708,7083.902520000001,-65.839,25.62,352.14
2.3714,128.181828,37.929748,7085.197005600001,-68.288,25.588,351.77
2.3881,128.181825,37.929787,7086.4945392,-70.777,25.536,351.391
2.4048,128.181821,37.929827,7087.794816,-73.305,25.463,351.004
2.4215,128.181818,37.929867,7089.0975312,-75.872,25.367,350.61
2.4382,128.181814,37.929906,7090.401770400001,-78.475,25.248,350.21
2.4549,128.18181,37.929946,7091.707228800001,-81.116,25.104,349.806
2.4716,128.181806,37.929985,7093.012992000001,-83.791,24.934,349.4
2.4882,128.181802,37.930024,7094.319364800001,-86.501,24.738,348.993
2.505,128.181798,37.930064,7095.624823200001,-89.244,24.515,348.587
2.5217,128.181793,37.930103,7096.929672,-92.018,24.265,348.184
2.5383,128.181789,37.930142,7098.2326920000005,-94.824,23.987,347.786
2.5551,128.181784,37.930182,7099.533578400001,-97.658,23.681,347.396
2.5718,128.181779,37.930221,7100.8317216000005,-100.521,23.348,347.016
2.5884,128.181774,37.93026,7102.126512,-103.41,22.987,346.648
2.6052,128.181769,37.930299,7103.41734,-106.325,22.6,346.293
2.6219,128.181764,37.930338,7104.704205600001,-109.265,22.186,345.955
2.6386,128.181759,37.930378,7105.9855848,-112.227,21.747,345.634
2.6553,128.181753,37.930417,7107.261782400001,-115.212,21.284,345.334
2.6719,128.181747,37.930456,7108.531884000001,-118.218,20.798,345.056
2.6887,128.181742,37.930495,7109.79528,-121.244,20.291,344.802
2.7054,128.181736,37.930534,7111.051360800001,-124.29,19.763,344.572
2.722,128.18173,37.930573,7112.3001264,-127.354,19.218,344.369
2.7388,128.181724,37.930612,7113.5403576,-130.437,18.657,344.194
2.7555,128.181717,37.930651,7114.7723592,-133.537,18.082,344.048
2.7721,128.181711,37.93069,7115.994912,-136.652,17.495,343.931
2.7889,128.181705,37.930729,7117.2083207999995,-139.78,16.899,343.844
2.8056,128.181698,37.930768,7118.411976,-142.919,16.296,343.787
2.8222,128.181692,37.930807,7119.6055728,-146.067,15.688,343.761
2.839,128.181685,37.930846,7120.788806400001,-149.223,15.078,343.764
2.8557,128.181678,37.930885,7121.9616768000005,-152.35,14.47,343.793
2.8724,128.181671,37.930924,7123.1244888,-155.405,13.866,343.844
2.8891,128.181664,37.930962,7124.2772424,-158.355,13.271,343.913
2.9057,128.181657,37.931001,7125.4202424000005,-161.183,12.685,343.997
2.9225,128.18165,37.93104,7126.553184000001,-163.894,12.11,344.094
2.9392,128.181643,37.931079,7127.676676800001,-166.492,11.547,344.203
2.9558,128.181636,37.931118,7128.7907208,-168.979,10.997,344.324
2.9726,128.181629,37.931157,7129.8956208,-171.361,10.458,344.454
2.9893,128.181622,37.931196,7130.9916816,-173.639,9.933,344.592
3.0059,128.181615,37.931235,7132.0789032,-175.817,9.419,344.739
3.0227,128.181608,37.931274,7133.1578952,-177.898,8.919,344.892
3.0394,128.181601,37.931313,7134.2289624000005,-179.885,8.431,345.052
3.056,128.181593,37.931352,7135.292104800001,178.219,7.955,345.216
3.0728,128.181586,37.931391,7136.347627200001,176.412,7.491,345.386
3.0895,128.181579,37.93143,7137.3955295999995,174.692,7.039,345.559
3.1062,128.181572,37.931469,7138.4367264,173.055,6.598,345.736
3.1229,128.181565,37.931508,7139.4712176,171.499,6.169,345.916
3.1395,128.181557,37.931547,7140.497784000001,170.022,5.751,346.098
3.1563,128.18155,37.931586,7141.5167304,168.618,5.344,346.281
3.173,128.181543,37.931625,7142.528056800001,167.288,4.947,346.464
3.1896,128.181536,37.931664,7143.531763200001,166.029,4.559,346.648
3.2064,128.181528,37.931703,7144.5275448,164.839,4.181,346.833
3.2231,128.181521,37.931742,7145.515096800001,163.716,3.813,347.018
3.2397,128.181514,37.931781,7146.4944192,162.659,3.454,347.204
3.2565,128.181507,37.93182,7147.465512,161.666,3.103,347.389
3.2732,128.181499,37.931859,7148.428070400001,160.737,2.762,347.576
3.2899,128.181492,37.931898,7149.3820944,159.87,2.428,347.763
3.3066,128.181485,37.931937,7150.327279200001,159.066,2.104,347.953
3.3233,128.181478,37.931976,7151.2639296,158.323,1.788,348.144
3.34,128.181471,37.932015,7152.191436,157.641,1.481,348.338
3.3567,128.181463,37.932054,7153.1101032,157.017,1.181,348.534
3.3734,128.181456,37.932094,7154.0193216,156.451,0.89,348.732
3.3901,128.181449,37.932133,7154.919700800001,155.941,0.607,348.931
3.4068,128.181442,37.932172,7155.8106312,155.484,0.331,349.131
3.4235,128.181435,37.932211,7156.6921128,155.081,0.063,349.332
3.4402,128.181428,37.93225,7157.5638408,154.729,-0.198,349.533
3.4569,128.181421,37.932289,7158.426424800001,154.426,-0.453,349.734
3.4736,128.181414,37.932328,7159.2789504,154.173,-0.701,349.934
3.4903,128.181407,37.932367,7160.1220272,153.967,-0.943,350.133
3.507,128.1814,37.932407,7160.955045600001,153.807,-1.18,350.331
3.5237,128.181393,37.932446,7161.778005600001,153.693,-1.411,350.527
3.5404,128.181386,37.932485,7162.5909071999995,153.624,-1.637,350.721
3.5571,128.181379,37.932524,7163.3937504000005,153.598,-1.858,350.912
3.5738,128.181372,37.932563,7164.1862304,153.615,-2.075,351.101
3.5905,128.181365,37.932602,7164.968042400001,153.67,-2.287,351.287
3.6072,128.181358,37.932642,7165.7385768,153.762,-2.496,351.47
3.6239,128.181351,37.932681,7166.498138400001,153.886,-2.702,351.65
3.6406,128.181345,37.93272,7167.246117600001,154.042,-2.904,351.828
3.6573,128.181338,37.932759,7167.982209600001,154.225,-3.104,352.002
3.674,128.181331,37.932798,7168.7067192,154.434,-3.302,352.174
3.6907,128.181324,37.932838,7169.419036800001,154.665,-3.498,352.342
3.7074,128.181318,37.932877,7170.1188576,154.917,-3.692,352.507
3.7241,128.181311,37.932916,7170.8061816,155.188,-3.885,352.668
3.7408,128.181305,37.932955,7171.4807040000005,155.475,-4.076,352.826
3.7575,128.181298,37.932994,7172.142424800001,155.777,-4.267,352.98
3.7742,128.181292,37.933034,7172.7910392,156.091,-4.456,353.131
3.7909,128.181285,37.933073,7173.426242400001,156.415,-4.645,353.279
3.8076,128.181279,37.933112,7174.0477296,156.749,-4.834,353.423
3.8243,128.181273,37.933151,7174.6558056,157.089,-5.022,353.563
3.841,128.181266,37.93319,7175.2501656,157.435,-5.209,353.7
3.8577,128.18126,37.93323,7175.8305048,157.784,-5.397,353.834
3.8744,128.181254,37.933269,7176.396823200001,158.136,-5.584,353.965
3.8911,128.181248,37.933308,7176.948816,158.488,-5.772,354.092
3.9078,128.181242,37.933347,7177.4864832,158.84,-5.96,354.216
3.9245,128.181236,37.933386,7178.009824800001,159.191,-6.148,354.336
3.9412,128.18123,37.933426,7178.5188408,159.54,-6.337,354.454
3.9579,128.181224,37.933465,7179.0129216000005,159.886,-6.526,354.568
3.9746,128.181218,37.933504,7179.492372000001,160.227,-6.716,354.679
3.9913,128.181212,37.933543,7179.956887200001,160.564,-6.906,354.787
4.008,128.181206,37.933582,7180.406772,160.896,-7.097,354.892
4.0247,128.1812,37.933622,7180.8417216,161.223,-7.289,354.994
4.0414,128.181195,37.933661,7181.2614312000005,161.543,-7.482,355.093
4.058,128.181189,37.9337,7181.6662056000005,161.857,-7.676,355.189
4.0748,128.181183,37.933739,7182.056044800001,162.164,-7.871,355.282
4.0915,128.181178,37.933778,7182.4303392,162.465,-8.066,355.372
4.1082,128.181172,37.933818,7182.7896984,162.759,-8.263,355.46
4.1249,128.181167,37.933857,7183.1338176,163.045,-8.461,355.545
4.1415,128.181161,37.933896,7183.4642208,163.373,-8.661,355.622
4.1583,128.181156,37.933935,7183.7802984,163.739,-8.864,355.692
4.175,128.18115,37.933974,7184.082660000001,164.14,-9.068,355.755
4.1917,128.181145,37.934013,7184.3719152,164.571,-9.274,355.814
4.2084,128.18114,37.934052,7184.648064000001,165.028,-9.482,355.87
4.2251,128.181134,37.934091,7184.9095824000005,165.507,-9.69,355.922
4.2417,128.181129,37.93413,7185.1567752,166.001,-9.898,355.972
4.2585,128.181124,37.93417,7185.3893376000005,166.507,-10.108,356.02
4.2752,128.181118,37.934209,7185.607269600001,167.019,-10.317,356.066
4.2919,128.181113,37.934248,7185.809656800001,167.533,-10.527,356.11
4.3086,128.181108,37.934287,7185.996804,168.046,-10.737,356.152
4.3252,128.181103,37.934326,7186.168406400001,168.553,-10.947,356.192
4.342,128.181098,37.934365,7186.324464,169.051,-11.157,356.23
4.3587,128.181093,37.934404,7186.4643672,169.539,-11.368,356.267
4.3754,128.181088,37.934443,7186.588116,170.012,-11.579,356.301
4.3921,128.181083,37.934482,7186.696015200001,170.47,-11.791,356.333
4.4088,128.181078,37.934521,7186.78776,170.912,-12.004,356.362
4.4254,128.181073,37.93456,7186.863350400001,171.335,-12.217,356.39
4.4422,128.181068,37.934598,7186.9224816000005,171.74,-12.431,356.415
4.4589,128.181063,37.934637,7186.9651536,172.126,-12.646,356.438
4.4756,128.181058,37.934676,7186.9916712,172.494,-12.862,356.459
4.4923,128.181053,37.934715,7187.0020343999995,172.843,-13.079,356.479
4.5089,128.181048,37.934754,7186.9956336000005,173.175,-13.296,356.498
4.5256,128.181044,37.934793,7186.973383200001,173.489,-13.515,356.515
4.5424,128.181039,37.934831,7186.934368800001,173.786,-13.734,356.53
4.5591,128.181034,37.93487,7186.8795048,174.065,-13.955,356.544
4.5758,128.181029,37.934909,7186.8081816,174.327,-14.176,356.556
4.5925,128.181024,37.934948,7186.7203992,174.574,-14.399,356.566
4.6091,128.18102,37.934986,7186.6167672,174.805,-14.622,356.574
4.6259,128.181015,37.935025,7186.496676,175.021,-14.847,356.581
4.6426,128.18101,37.935064,7186.3607352,175.224,-15.072,356.586
4.6593,128.181006,37.935102,7186.20864,175.414,-15.298,356.589
4.676,128.181001,37.935141,7186.0403904,175.592,-15.525,356.591
4.6927,128.180996,37.93518,7185.855986400001,175.758,-15.753,356.592
4.7093,128.180992,37.935218,7185.655732800001,175.914,-15.981,356.591
4.7261,128.180987,37.935257,7185.4396295999995,176.06,-16.211,356.589
4.7428,128.180983,37.935295,7185.207372,176.197,-16.441,356.585
4.7595,128.180978,37.935334,7184.959264800001,176.326,-16.671,356.581
4.7762,128.180974,37.935372,7184.695308,176.447,-16.903,356.575
4.7928,128.180969,37.93541,7184.4155016,176.56,-17.135,356.569
4.8096,128.180965,37.935449,7184.1198456,176.667,-17.367,356.562
4.8263,128.18096,37.935487,7183.8083400000005,176.767,-17.6,356.553
4.843,128.180956,37.935525,7183.4809847999995,176.862,-17.833,356.544
4.8597,128.180951,37.935564,7183.1380848,176.952,-18.067,356.535
4.8764,128.180947,37.935602,7182.7793352,177.037,-18.302,356.525
4.893,128.180942,37.93564,7182.4050408,177.117,-18.536,356.514
4.9098,128.180938,37.935678,7182.014592,177.193,-18.771,356.503
4.9265,128.180933,37.935717,7181.6089032,177.265,-19.007,356.491
4.9432,128.180929,37.935755,7181.187364800001,177.334,-19.243,356.479
4.9599,128.180925,37.935793,7180.750281600001,177.4,-19.479,356.466
4.9765,128.18092,37.935831,7180.2973488,177.462,-19.715,356.453
4.9932,128.180916,37.935869,7179.8288712,177.522,-19.952,356.44
5.01,128.180911,37.935907,7179.3448488,177.579,-20.189,356.427
5.0267,128.180907,37.935945,7178.8452816,177.634,-20.426,356.413
5.0434,128.180903,37.935983,7178.329864800001,177.687,-20.663,356.399
5.0601,128.180898,37.936021,7177.799208,177.737,-20.901,356.386
5.0767,128.180894,37.936059,7177.2527016,177.786,-21.139,356.371
5.0935,128.18089,37.936097,7176.690955200001,177.833,-21.377,356.357
5.1102,128.180885,37.936134,7176.113359200001,177.878,-21.615,356.343
5.1269,128.180881,37.936172,7175.5202184,177.921,-21.854,356.329
5.1436,128.180877,37.93621,7174.911837600001,177.963,-22.093,356.314
5.1602,128.180873,37.936248,7174.287912,178.004,-22.331,356.3
5.1769,128.180868,37.936285,7173.6484416,178.043,-22.57,356.285
5.1937,128.180864,37.936323,7172.9934264,178.081,-22.81,356.271
5.2104,128.18086,37.93636,7172.3228664,178.118,-23.049,356.256
5.2271,128.180856,37.936398,7171.6370664,178.153,-23.289,356.242
5.2438,128.180851,37.936435,7170.9357216,178.188,-23.528,356.228
5.2604,128.180847,37.936473,7170.2191368,178.222,-23.768,356.213
5.2772,128.180843,37.93651,7169.4870072,178.254,-24.008,356.199
5.2939,128.180839,37.936548,7168.739332800001,178.286,-24.249,356.184
5.3106,128.180835,37.936585,7167.9764184000005,178.317,-24.489,356.17
5.3273,128.180831,37.936622,7167.197959200001,178.347,-24.73,356.156
5.3439,128.180826,37.936659,7166.40426,178.376,-24.97,356.142
5.3606,128.180822,37.936697,7165.595016,178.404,-25.211,356.128
5.3774,128.180818,37.936734,7164.7705320000005,178.432,-25.452,356.114
5.3941,128.180814,37.936771,7163.930808,178.459,-25.693,356.1
5.4108,128.18081,37.936808,7163.075844,178.485,-25.935,356.086
5.4275,128.180806,37.936845,7162.2053352,178.51,-26.177,356.072
5.4441,128.180802,37.936882,7161.3195864,178.535,-26.419,356.059
5.4609,128.180798,37.936919,7160.418597600001,178.56,-26.661,356.045
5.4776,128.180793,37.936956,7159.5023688,178.583,-26.903,356.031
5.4943,128.180789,37.936993,7158.570900000001,178.607,-27.146,356.018
5.511,128.180785,37.937029,7157.6241912000005,178.629,-27.389,356.005
5.5277,128.180781,37.937066,7156.662242400001,178.652,-27.632,355.992
5.5443,128.180777,37.937103,7155.6850536,178.673,-27.875,355.979
5.5611,128.180773,37.93714,7154.692624800001,178.694,-28.119,355.966
5.5778,128.180769,37.937176,7153.684956000001,178.715,-28.363,355.953
5.5945,128.180765,37.937213,7152.662352000001,178.735,-28.607,355.94
5.6112,128.180761,37.937249,7151.624508,178.755,-28.851,355.927
5.6278,128.180757,37.937286,7150.571424000001,178.775,-29.096,355.915
5.6445,128.180753,37.937322,7149.503100000001,178.794,-29.341,355.902
5.6613,128.180749,37.937358,7148.4198408,178.812,-29.586,355.89
5.678,128.180745,37.937395,7147.321341600001,178.83,-29.831,355.878
5.6947,128.180741,37.937431,7146.2079072,178.848,-30.076,355.865
5.7114,128.180737,37.937467,7145.079537600001,178.866,-30.322,355.853
5.728,128.180733,37.937503,7143.935928000001,178.883,-30.568,355.841
5.7448,128.18073,37.937539,7142.7773832,178.9,-30.814,355.829
5.7615,128.180726,37.937575,7141.6035984,178.917,-31.061,355.818
5.7782,128.180722,37.937611,7140.414878400001,178.933,-31.307,355.806
5.7949,128.180718,37.937647,7139.211223200001,178.949,-31.554,355.795
5.8115,128.180714,37.937683,7137.992632800001,178.965,-31.801,355.783
5.8282,128.18071,37.937719,7136.7591072,178.98,-32.049,355.772
5.845,128.180706,37.937754,7135.510646400001,178.995,-32.296,355.761
5.8617,128.180702,37.93779,7134.247250400001,179.01,-32.544,355.749
5.8784,128.180698,37.937826,7132.968614400001,179.025,-32.793,355.738
5.8951,128.180695,37.937861,7131.6756528,179.04,-33.041,355.727
5.9117,128.180691,37.937897,7130.367451200001,179.054,-33.29,355.717
5.9285,128.180687,37.937932,7129.044314400001,179.068,-33.538,355.706
5.9452,128.180683,37.937968,7127.7065472,179.082,-33.787,355.695
5.9619,128.180679,37.938003,7126.354149600001,179.096,-34.037,355.685
5.9786,128.180676,37.938038,7124.986512,179.109,-34.286,355.674
5.9952,128.180672,37.938073,7123.6045488,179.123,-34.536,355.664
6.0119,128.180668,37.938109,7122.207345600001,179.136,-34.786,355.654
6.0287,128.180664,37.938144,7120.7958168000005,179.149,-35.037,355.643
6.0454,128.18066,37.938179,7119.366304800001,179.106,-35.278,355.647
6.0621,128.180657,37.938214,7117.9215527999995,179.009,-35.501,355.664
6.0788,128.180653,37.938249,7116.4600368,178.856,-35.698,355.692
6.0954,128.180649,37.938283,7114.9823664,178.646,-35.862,355.728
6.1121,128.180645,37.938318,7113.488236800001,178.381,-35.989,355.77
6.1289,128.180642,37.938353,7111.977038400001,178.061,-36.081,355.816
6.1456,128.180638,37.938387,7110.4487712,177.685,-36.141,355.865
6.1623,128.180634,37.938422,7108.9031304,177.256,-36.172,355.917
6.179,128.180631,37.938456,7107.3398112,176.774,-36.18,355.97
6.1956,128.180627,37.938491,7105.759728000001,176.24,-36.17,356.025
6.2124,128.180623,37.938525,7104.1628808000005,175.655,-36.144,356.081
6.2291,128.18062,37.93856,7102.549269600001,175.019,-36.107,356.137
6.2458,128.180616,37.938594,7100.919504,174.335,-36.06,356.195
6.2625,128.180612,37.938628,7099.2735840000005,173.602,-36.005,356.253
6.2791,128.180609,37.938662,7097.6115096,172.821,-35.944,356.312
6.2958,128.180605,37.938696,7095.933890400001,171.994,-35.878,356.372
6.3126,128.180602,37.93873,7094.2410312,171.12,-35.808,356.432
6.3293,128.180598,37.938764,7092.5326272,170.2,-35.734,356.492
6.346,128.180595,37.938798,7090.809592800001,169.236,-35.657,356.554
6.3627,128.180592,37.938831,7089.0716232,168.227,-35.578,356.615
6.3793,128.180588,37.938865,7087.3193280000005,167.173,-35.496,356.677
6.3961,128.180585,37.938899,7085.5527071999995,166.076,-35.411,356.738
6.4128,128.180582,37.938932,7083.772065600001,164.934,-35.325,356.8
6.4295,128.180578,37.938966,7081.9780128,163.75,-35.237,356.862
6.4462,128.180575,37.939,7080.170244,162.521,-35.147,356.924
6.4628,128.180572,37.939033,7078.349673600001,161.25,-35.057,356.986
6.4795,128.180569,37.939066,7076.515996800001,159.935,-34.966,357.048
6.4963,128.180566,37.9391,7074.669823200001,158.576,-34.875,357.11
6.513,128.180563,37.939133,7072.8111528,157.175,-34.784,357.172
6.5297,128.18056,37.939166,7070.940595200001,155.731,-34.692,357.234
6.5464,128.180557,37.9392,7069.0581504,154.243,-34.601,357.295
6.5631,128.180554,37.939233,7067.1641232,152.713,-34.509,357.356
6.5798,128.180551,37.939266,7065.258818400001,151.14,-34.417,357.417
6.5965,128.180549,37.939299,7063.3425408,149.525,-34.325,357.477
6.6132,128.180546,37.939332,7061.4159,147.867,-34.233,357.537
6.6299,128.180543,37.939365,7059.4776768,146.167,-34.141,357.596
6.6466,128.180541,37.939398,7057.5293952,144.425,-34.048,357.654
6.6633,128.180538,37.939431,7055.571055200001,142.641,-33.955,357.71
6.68,128.180536,37.939464,7053.602656800001,140.816,-33.861,357.765
6.6967,128.180533,37.939497,7051.624809600001,138.95,-33.767,357.819
6.7134,128.180531,37.93953,7049.637513600001,137.042,-33.672,357.871
6.7301,128.180529,37.939563,7047.641378400001,135.095,-33.577,357.921
6.7468,128.180527,37.939596,7045.636708800001,133.108,-33.482,357.969
6.7635,128.180524,37.939629,7043.623809600001,131.082,-33.387,358.014
6.7802,128.180522,37.939662,7041.6029856000005,129.018,-33.292,358.056
6.7969,128.18052,37.939694,7039.5742368,126.917,-33.196,358.096
6.8136,128.180519,37.939727,7037.5381728,124.779,-33.101,358.132
6.8303,128.180517,37.93976,7035.4947936,122.606,-33.006,358.166
6.847,128.180515,37.939793,7033.444708800001,120.398,-32.912,358.196
6.8637,128.180513,37.939826,7031.3882232000005,118.157,-32.818,358.222
6.8804,128.180512,37.939858,7029.3253368000005,115.883,-32.725,358.245
6.8971,128.18051,37.939891,7027.2566592,113.577,-32.633,358.264
6.9138,128.180509,37.939924,7025.1821904,111.241,-32.541,358.279
6.9305,128.180507,37.939957,7023.1022352,108.876,-32.451,358.291
6.9472,128.180506,37.939989,7021.0170984,106.483,-32.363,358.299
6.9639,128.180505,37.940022,7018.9270848,104.063,-32.276,358.303
6.9806,128.180503,37.940055,7016.8324992,101.619,-32.191,358.304
6.9973,128.180502,37.940088,7014.7333416,99.15,-32.108,358.301
7.014,128.180501,37.94012,7012.6302216,96.659,-32.027,358.294
7.0307,128.1805,37.940153,7010.5231392,94.147,-31.949,358.284
7.0474,128.180499,37.940186,7008.4120944,91.615,-31.873,358.271
7.0641,128.180498,37.940219,7006.2976968,89.064,-31.8,358.257
7.0808,128.180497,37.940251,7004.1802512,86.49,-31.729,358.249
7.0975,128.180496,37.940284,7002.0597576,83.893,-31.66,358.251
7.1142,128.180496,37.940317,6999.9365208,81.272,-31.591,358.266
7.1309,128.180495,37.94035,6997.8105408,78.626,-31.521,358.299
7.1476,128.180494,37.940382,6995.6824272,75.956,-31.45,358.351
7.1643,128.180494,37.940415,6993.55218,73.263,-31.374,358.422
7.181,128.180493,37.940448,6991.420104,70.549,-31.292,358.515
7.1977,128.180493,37.940481,6989.286504000001,67.814,-31.203,358.629
7.2144,128.180492,37.940514,6987.15138,65.062,-31.103,358.765
7.2311,128.180492,37.940547,6985.0153416,62.295,-30.992,358.921
7.2478,128.180492,37.94058,6982.8783888,59.516,-30.867,359.098
7.2645,128.180491,37.940612,6980.7408264000005,56.728,-30.726,359.294
7.2812,128.180491,37.940645,6978.6029592,53.934,-30.567,359.508
7.2979,128.180491,37.940678,6976.4653968,51.137,-30.387,359.739
7.3146,128.180491,37.940711,6974.3281392,48.341,-30.185,359.984
7.3313,128.180491,37.940744,6972.1914912,45.549,-29.958,0.243
7.348,128.180491,37.940777,6970.0563672,42.765,-29.705,0.512
7.3647,128.180491,37.94081,6967.9224624,39.99,-29.424,0.788
7.3814,128.180491,37.940843,6965.790996000001,37.228,-29.116,1.069
7.3981,128.180492,37.940876,6963.6616632000005,34.48,-28.779,1.349
7.4148,128.180492,37.94091,6961.535378400001,31.75,-28.415,1.626
7.4315,128.180492,37.940943,6959.4112272,29.049,-28.025,1.896
7.4482,128.180493,37.940976,6957.2898192,26.405,-27.61,2.161
7.4649,128.180493,37.941009,6955.171459200001,23.848,-27.177,2.419
7.4816,128.180494,37.941042,6953.0555376,21.401,-26.732,2.667
7.4983,128.180494,37.941076,6950.942664,19.107,-26.285,2.906
7.515,128.180495,37.941109,6948.831924000001,16.966,-25.845,3.13
7.5317,128.180495,37.941142,6946.7236224,14.971,-25.423,3.338
7.5484,128.180496,37.941176,6944.619892800001,13.017,-25.024,3.512
7.5651,128.180496,37.941209,6942.5204304,11.091,-24.659,3.649
7.5818,128.180497,37.941243,6940.42554,9.193,-24.34,3.75
7.5985,128.180498,37.941276,6938.3340024,7.429,-24.075,3.834
7.6152,128.180498,37.94131,6936.2455128,5.789,-23.873,3.907
7.6319,128.180499,37.941343,6934.1597664,4.281,-23.724,3.963
7.6486,128.1805,37.941377,6932.0761536,2.902,-23.623,4.005
7.6653,128.180501,37.941411,6929.994369600001,1.644,-23.559,4.035
7.682,128.180501,37.941444,6927.9138048,0.5,-23.519,4.058
7.6987,128.180502,37.941478,6925.8344592,-0.54,-23.496,4.076
7.7154,128.180503,37.941512,6923.755723200001,-1.484,-23.476,4.091
7.7321,128.180504,37.941546,6921.677292,-2.333,-23.452,4.103
7.7488,128.180505,37.94158,6919.598860800001,-3.093,-23.412,4.113
7.7655,128.180506,37.941614,6917.520124800001,-3.765,-23.347,4.119
7.7822,128.180506,37.941647,6915.441084000001,-4.355,-23.248,4.12
7.7989,128.180507,37.941681,6913.361433600001,-4.866,-23.106,4.115
7.8156,128.180508,37.941715,6911.282088000001,-5.303,-22.914,4.102
7.8323,128.180509,37.941749,6909.203047200001,-5.668,-22.672,4.082
7.849,128.18051,37.941783,6907.124616,-5.967,-22.387,4.055
7.8657,128.180511,37.941817,6905.0467944,-6.2,-22.068,4.021
7.8824,128.180511,37.941852,6902.969887200001,-6.372,-21.726,3.983
7.8991,128.180512,37.941886,6900.894504,-6.486,-21.367,3.94
7.9158,128.180513,37.94192,6898.82034,-6.543,-20.998,3.895
7.9325,128.180514,37.941954,6896.748004800001,-6.547,-20.623,3.848
7.9492,128.180515,37.941988,6894.6778032,-6.499,-20.247,3.799
7.9659,128.180516,37.942023,6892.6100400000005,-6.401,-19.872,3.75
7.9826,128.180517,37.942057,6890.544715200001,-6.257,-19.501,3.701
7.9993,128.180518,37.942091,6888.482438400001,-6.068,-19.136,3.653
8.016,128.180519,37.942126,6886.4238192,-5.836,-18.778,3.606
8.0327,128.180519,37.94216,6884.3685528,-5.563,-18.427,3.561
8.0494,128.18052,37.942195,6882.3175536,-5.253,-18.085,3.517
8.0661,128.180521,37.942229,6880.2705168,-4.907,-17.752,3.476
8.0828,128.180522,37.942264,6878.228052,-4.526,-17.428,3.437
8.0994,128.180523,37.942299,6876.191073600001,-4.116,-17.113,3.401
8.1161,128.180524,37.942333,6874.1592768,-3.677,-16.806,3.367
8.1329,128.180525,37.942368,6872.1329663999995,-3.211,-16.508,3.337
8.1496,128.180526,37.942403,6870.112752000001,-2.721,-16.217,3.31
8.1663,128.180527,37.942438,6868.0989384,-2.209,-15.934,3.286
8.183,128.180528,37.942473,6866.0915256,-1.676,-15.658,3.265
8.1997,128.180529,37.942508,6864.0908184,-1.125,-15.389,3.249
8.2164,128.18053,37.942543,6862.097426400001,-0.557,-15.126,3.235
8.2331,128.18053,37.942578,6860.111654400001,0.024,-14.869,3.225
8.2498,128.180531,37.942613,6858.1335024,0.618,-14.618,3.219
8.2665,128.180532,37.942648,6856.162970400001,1.223,-14.372,3.217
8.2831,128.180533,37.942683,6854.200668,1.838,-14.132,3.218
8.2998,128.180534,37.942718,6852.2469,2.459,-13.897,3.223
8.3166,128.180535,37.942754,6850.3016664,3.085,-13.666,3.231
8.3333,128.180536,37.942789,6848.365272,3.715,-13.441,3.243
8.35,128.180537,37.942824,6846.4380216,4.347,-13.219,3.259
8.3667,128.180538,37.94286,6844.5199152000005,4.979,-13.002,3.279
8.3834,128.180539,37.942895,6842.6112576,5.609,-12.788,3.302
8.4001,128.180541,37.942931,6840.7120488,6.237,-12.579,3.329
8.4168,128.180542,37.942966,6838.8225936,6.861,-12.373,3.359
8.4335,128.180543,37.943002,6836.9425872,7.481,-12.17,3.394
8.4502,128.180544,37.943038,6835.0723344,8.098,-11.971,3.432
8.4668,128.180545,37.943074,6833.2118352,8.711,-11.775,3.474
8.4835,128.180546,37.943109,6831.3616992,9.319,-11.582,3.519
8.5003,128.180547,37.943145,6829.521012,9.924,-11.391,3.569
8.517,128.180549,37.943181,6827.690383200001,10.525,-11.204,3.622
8.5337,128.18055,37.943217,6825.869812800001,11.122,-11.019,3.679
8.5504,128.180551,37.943253,6824.058996000001,11.716,-10.837,3.74
8.5671,128.180553,37.943289,6822.258237600001,12.308,-10.657,3.804
8.5838,128.180554,37.943325,6820.4675376000005,12.898,-10.48,3.873
8.6005,128.180555,37.943362,6818.686896,13.486,-10.305,3.945
8.6172,128.180557,37.943398,6816.916008,14.073,-10.132,4.02
8.6339,128.180558,37.943434,6815.154568800001,14.661,-9.962,4.099
8.6505,128.18056,37.94347,6813.403492800001,15.252,-9.794,4.183
8.6672,128.180562,37.943507,6811.661560800001,15.846,-9.629,4.27
8.684,128.180563,37.943543,6809.9287728,16.449,-9.47,4.36
8.7007,128.180565,37.943579,6808.204824,17.063,-9.32,4.452
8.7174,128.180566,37.943616,6806.4900192000005,17.689,-9.183,4.546
8.7341,128.180568,37.943652,6804.7831392,18.333,-9.059,4.64
8.7508,128.18057,37.943689,6803.0866224,18.947,-8.949,4.729
8.7675,128.180572,37.943726,6801.3995544,19.533,-8.852,4.812
8.7842,128.180574,37.943762,6799.722849600001,20.092,-8.768,4.89
8.8009,128.180576,37.943799,6798.056508,20.628,-8.693,4.967
8.8176,128.180578,37.943836,6796.4011392,21.147,-8.627,5.043
8.8342,128.18058,37.943872,6794.7552192,21.652,-8.57,5.118
8.8509,128.180582,37.943909,6793.1184432,22.15,-8.525,5.193
8.8676,128.180584,37.943946,6791.490201600001,22.649,-8.492,5.267
8.8844,128.180586,37.943983,6789.8701896,23.155,-8.471,5.341
8.9011,128.180589,37.94402,6788.257797600001,23.673,-8.463,5.415
8.9178,128.180591,37.944057,6786.6527208,24.213,-8.468,5.488
8.9345,128.180593,37.944094,6785.05374,24.783,-8.485,5.56
8.9512,128.180596,37.944131,6783.460855200001,25.392,-8.516,5.633
8.9679,128.180598,37.944168,6781.873456800001,26.049,-8.559,5.706
8.9846,128.180601,37.944205,6780.2903256,26.758,-8.614,5.778
9.0013,128.180603,37.944242,6778.7126808,27.518,-8.68,5.848
9.0179,128.180606,37.944279,6777.1393032,28.332,-8.758,5.917
9.0346,128.180608,37.944316,6775.570497600001,29.199,-8.845,5.983
9.0513,128.180611,37.944354,6774.005959200001,30.119,-8.941,6.047
9.0681,128.180614,37.944391,6772.445383200001,31.093,-9.047,6.107
9.0848,128.180616,37.944428,6770.888769600001,32.119,-9.161,6.165
9.1015,128.180619,37.944466,6769.3355088,33.198,-9.283,6.219
9.1182,128.180622,37.944503,6767.785600800001,34.328,-9.415,6.272
9.1349,128.180625,37.94454,6766.2387408,35.508,-9.554,6.322
9.1516,128.180628,37.944578,6764.6949288000005,36.739,-9.702,6.371
9.1683,128.180631,37.944615,6763.153250400001,38.019,-9.857,6.419
9.185,128.180634,37.944653,6761.6143152,39.35,-10.02,6.466
9.2016,128.180637,37.94469,6760.0772088,40.73,-10.191,6.512
9.2183,128.18064,37.944728,6758.5419312,42.159,-10.369,6.557
9.235,128.180643,37.944765,6757.008177600001,43.637,-10.555,6.603
9.2518,128.180647,37.944803,6755.4756431999995,45.164,-10.747,6.65
9.2685,128.18065,37.94484,6753.9443280000005,46.739,-10.946,6.699
9.2852,128.180653,37.944878,6752.4136224,48.364,-11.151,6.748
9.3019,128.180656,37.944916,6750.8838312,50.037,-11.363,6.799
9.3186,128.18066,37.944953,6749.35404,51.759,-11.582,6.851
9.3353,128.180663,37.944991,6747.8242488,53.53,-11.806,6.906
9.352,128.180667,37.945029,6746.2944576,55.351,-12.037,6.963
9.3687,128.18067,37.945066,6744.764056800001,57.22,-12.275,7.022
9.3854,128.180673,37.945104,6743.233046400001,59.139,-12.52,7.081
9.402,128.180677,37.945142,6741.7011216,61.107,-12.772,7.141
9.4187,128.180681,37.94518,6740.168282400001,63.125,-13.031,7.202
9.4355,128.180684,37.945218,6738.6339192000005,65.192,-13.297,7.262
9.4522,128.180688,37.945256,6737.098336800001,67.31,-13.57,7.322
9.4689,128.180691,37.945293,6735.5609256,69.476,-13.85,7.38
9.4856,128.180695,37.945331,6734.0219904000005,71.676,-14.136,7.436
9.5023,128.180699,37.945369,6732.4815312,73.891,-14.424,7.488
9.519,128.180703,37.945407,6730.939548,76.002,-14.698,7.544
9.5357,128.180706,37.945445,6729.3960408,78.01,-14.957,7.617
9.5524,128.18071,37.945483,6727.851009600001,79.915,-15.198,7.719
9.5691,128.180714,37.945521,6726.3044544,81.716,-15.42,7.862
9.5857,128.180718,37.945559,6724.7563752,83.415,-15.625,8.054
9.6024,128.180722,37.945597,6723.2067720000005,85.027,-15.814,8.305
9.6192,128.180726,37.945635,6721.6556448,86.574,-15.992,8.617
9.6359,128.18073,37.945673,6720.102384000001,88.088,-16.165,8.981
9.6526,128.180735,37.945711,6718.5469896,89.61,-16.337,9.388
9.6693,128.180739,37.945749,6716.9894616,91.189,-16.517,9.825
9.686,128.180744,37.945787,6715.4291904,92.827,-16.704,10.28
9.7027,128.180748,37.945825,6713.8658712,94.522,-16.899,10.742
9.7194,128.180753,37.945863,6712.2998088,96.275,-17.103,11.204
9.7361,128.180757,37.945901,6710.7303936,98.085,-17.314,11.663
9.7528,128.180762,37.945939,6709.1573208,99.95,-17.533,12.114
9.7694,128.180767,37.945977,6707.580895200001,101.858,-17.758,12.555
9.7861,128.180772,37.946015,6706.000507199999,103.785,-17.987,12.984
9.8029,128.180777,37.946053,6704.415852000001,105.718,-18.218,13.402
9.8196,128.180782,37.946091,6702.826624800001,107.646,-18.45,13.807
9.8363,128.180787,37.946129,6701.232215999999,109.567,-18.682,14.2
9.853,128.180792,37.946167,6699.6326256,111.481,-18.915,14.58
9.8697,128.180797,37.946205,6698.0278536000005,113.39,-19.149,14.948
9.8864,128.180803,37.946243,6696.417290400001,115.293,-19.386,15.302
9.9031,128.180808,37.946281,6694.8012408,117.193,-19.629,15.641
9.9198,128.180814,37.946319,6693.1794,119.092,-19.88,15.966
9.9365,128.180819,37.946357,6691.5520728,120.994,-20.14,16.275
9.9531,128.180825,37.946394,6689.9183448,122.906,-20.41,16.568
9.9698,128.180831,37.946432,6688.2788256,124.833,-20.691,16.844
9.9865,128.180837,37.94647,6686.6332104,126.781,-20.982,17.104
10.0033,128.180843,37.946508,6684.9811944,128.756,-21.283,17.347
10.02,128.180849,37.946546,6683.3227776,130.762,-21.595,17.573
10.0367,128.180855,37.946584,6681.6582648,132.806,-21.917,17.782
10.0534,128.180861,37.946622,6679.986741600001,134.891,-22.25,17.972
10.0701,128.180867,37.946659,6678.3091224,137.018,-22.593,18.143
10.0868,128.180873,37.946697,6676.624492800001,139.192,-22.947,18.292
10.1035,128.18088,37.946735,6674.9334624,141.414,-23.313,18.419
10.1202,128.180886,37.946773,6673.2351168,143.684,-23.689,18.522
10.1368,128.180893,37.946811,6671.530065600001,146.002,-24.076,18.6
10.1535,128.180899,37.946848,6669.8173944,148.369,-24.472,18.652
10.1702,128.180906,37.946886,6668.0977128,150.784,-24.878,18.676
10.187,128.180912,37.946924,6666.3704112000005,153.248,-25.292,18.671
10.2037,128.180919,37.946962,6664.6354896,155.761,-25.714,18.636
10.2204,128.180925,37.946999,6662.8926432,158.324,-26.142,18.569
10.2371,128.180932,37.947037,6661.1421768,160.938,-26.575,18.47
10.2538,128.180939,37.947075,6659.3837856,163.603,-27.011,18.336
10.2705,128.180946,37.947113,6657.617774400001,166.32,-27.449,18.168
10.2872,128.180953,37.94715,6655.8432288,169.089,-27.886,17.964
10.3039,128.180959,37.947188,6654.0607584,171.91,-28.322,17.723
10.3205,128.180966,37.947226,6652.2700584,174.785,-28.753,17.444
10.3372,128.180973,37.947263,6650.471433600001,177.713,-29.178,17.128
10.3539,128.18098,37.947301,6648.6633600000005,-179.462,-29.582,16.796
10.3707,128.180987,37.947339,6646.846752,-176.74,-29.955,16.451
10.3874,128.180994,37.947376,6645.021000000001,-174.117,-30.283,16.094
10.4041,128.181001,37.947414,6643.1851896,-171.593,-30.579,15.73
10.4208,128.181008,37.947451,6641.3393208,-169.164,-30.857,15.357
10.4375,128.181015,37.947489,6639.4830888,-166.826,-31.127,14.974
10.4542,128.181022,37.947526,6637.6161888,-164.576,-31.403,14.578
10.4709,128.181028,37.947564,6635.737706400001,-162.409,-31.688,14.168
10.4876,128.181035,37.947601,6633.848251200001,-160.324,-31.979,13.745
10.5042,128.181042,37.947639,6631.9469088000005,-158.318,-32.272,13.31
10.5209,128.181049,37.947676,6630.033679200001,-156.391,-32.562,12.866
10.5376,128.181056,37.947713,6628.1082576,-154.542,-32.848,12.414
10.5544,128.181062,37.947751,6626.1703392,-152.768,-33.127,11.957
10.5711,128.181069,37.947788,6624.219619200001,-151.069,-33.399,11.495
10.5878,128.181076,37.947825,6622.2560976,-149.444,-33.663,11.031
10.6045,128.181082,37.947862,6620.279469600001,-147.892,-33.918,10.566
10.6212,128.181088,37.9479,6618.2897352,-146.411,-34.164,10.101
10.6379,128.181095,37.947937,6616.2862847999995,-145.0,-34.403,9.637
10.6546,128.181101,37.947974,6614.270032800001,-143.659,-34.633,9.175
10.6713,128.181107,37.948011,6612.240674400001,-142.385,-34.856,8.716
10.6879,128.181113,37.948048,6610.198514400001,-141.177,-35.072,8.261
10.7046,128.181119,37.948085,6608.1435528,-140.035,-35.282,7.81
10.7213,128.181125,37.948122,6606.0760944,-138.957,-35.486,7.364
10.7381,128.181131,37.948159,6603.9958344,-137.943,-35.685,6.924
10.7548,128.181136,37.948195,6601.9030776,-136.99,-35.879,6.491
10.7715,128.181142,37.948232,6599.797824,-136.097,-36.069,6.063
10.7882,128.181147,37.948269,6597.6803784,-135.265,-36.255,5.643
10.8049,128.181153,37.948306,6595.5507408,-134.491,-36.439,5.23
10.8216,128.181158,37.948342,6593.408606400001,-133.774,-36.621,4.825
10.8383,128.181163,37.948379,6591.25428,-133.113,-36.8,4.428
10.855,128.181168,37.948415,6589.0880664,-132.508,-36.979,4.039
10.8717,128.181173,37.948452,6586.909660800001,-131.957,-37.157,3.659
10.8883,128.181178,37.948488,6584.719368,-131.459,-37.335,3.287
10.905,128.181182,37.948525,6582.516883200001,-131.014,-37.513,2.923
10.9218,128.181187,37.948561,6580.302206400001,-130.623,-37.69,2.566
10.9385,128.181191,37.948598,6578.075642400001,-130.286,-37.865,2.215
10.9552,128.181195,37.948634,6575.8368864,-130.004,-38.037,1.868
10.9719,128.181199,37.94867,6573.586243199999,-129.776,-38.207,1.526
10.9886,128.181203,37.948706,6571.323408,-129.602,-38.374,1.188
11.0053,128.181207,37.948742,6569.0483808,-129.482,-38.538,0.854
11.022,128.181211,37.948779,6566.7611615999995,-129.413,-38.7,0.524
11.0387,128.181214,37.948815,6564.462055200001,-129.396,-38.859,0.199
11.0554,128.181218,37.948851,6562.150756800001,-129.429,-39.016,359.877
11.072,128.181221,37.948886,6559.8272664,-129.512,-39.172,359.559
11.0887,128.181224,37.948922,6557.4912792000005,-129.643,-39.326,359.247
11.1054,128.181227,37.948958,6555.1434048,-129.822,-39.479,358.939
11.1222,128.18123,37.948994,6552.783033600001,-130.048,-39.632,358.635
11.1389,128.181233,37.94903,6550.410470400001,-130.321,-39.784,358.337
11.1556,128.181235,37.949065,6548.0254104000005,-130.639,-39.935,358.045
11.1723,128.181238,37.949101,6545.6278536,-131.003,-40.087,357.757
11.189,128.18124,37.949136,6543.2178,-131.411,-40.24,357.476
11.2057,128.181242,37.949172,6540.7952496,-131.863,-40.393,357.2
11.2224,128.181244,37.949207,6538.359897600001,-132.358,-40.546,356.93
11.2391,128.181246,37.949243,6535.911744,-132.897,-40.702,356.666
11.2557,128.181248,37.949278,6533.4507888,-133.478,-40.858,356.408
11.2724,128.18125,37.949313,6530.977032000001,-134.102,-41.017,356.157
11.2891,128.181251,37.949348,6528.489864,-134.768,-41.177,355.912
11.3059,128.181253,37.949383,6525.9898944,-135.475,-41.34,355.674
11.3226,128.181254,37.949418,6523.4768184,-136.225,-41.504,355.443
11.3393,128.181255,37.949453,6520.9500264,-137.015,-41.672,355.218
11.356,128.181256,37.949488,6518.410128,-137.847,-41.842,355.0
11.3727,128.181257,37.949523,6515.856513600001,-138.721,-42.015,354.79
11.3894,128.181258,37.949558,6513.289488,-139.635,-42.191,354.587
11.4061,128.181259,37.949592,6510.708746400001,-140.591,-42.37,354.392
11.4228,128.181259,37.949627,6508.1139840000005,-141.588,-42.553,354.204
11.4394,128.18126,37.949661,6505.505505600001,-142.626,-42.739,354.024
11.4561,128.18126,37.949696,6502.8830064,-143.705,-42.929,353.853
11.4728,128.18126,37.94973,6500.2461816,-144.826,-43.122,353.689
11.4896,128.181261,37.949764,6497.595336,-145.988,-43.319,353.535
11.5063,128.181261,37.949798,6494.930164800001,-147.193,-43.52,353.389
11.523,128.181261,37.949832,6492.250668000001,-148.44,-43.724,353.252
11.5397,128.18126,37.949866,6489.5565408,-149.729,-43.933,353.125
11.5564,128.18126,37.9499,6486.848088000001,-151.06,-44.146,353.008
11.5731,128.18126,37.949934,6484.1247,-152.435,-44.362,352.901
11.5898,128.18126,37.949967,6481.386986400001,-153.852,-44.583,352.804
11.6065,128.181259,37.950001,6478.6343376,-155.313,-44.808,352.718
11.6231,128.181259,37.950034,6475.8667536,-156.817,-45.036,352.644
11.6398,128.181258,37.950068,6473.0842344,-158.365,-45.269,352.581
11.6565,128.181257,37.950101,6470.2870848,-159.958,-45.505,352.531
11.6733,128.181257,37.950134,6467.475,-161.596,-45.746,352.494
11.69,128.181256,37.950167,6464.6476752,-163.28,-45.99,352.47
11.7067,128.181255,37.9502,6461.805720000001,-165.009,-46.237,352.46
11.7234,128.181254,37.950233,6458.948524800001,-166.786,-46.488,352.464
11.7401,128.181253,37.950266,6456.0763944,-168.609,-46.742,352.484
11.7568,128.181252,37.950298,6453.189328800001,-170.481,-46.999,352.52
11.7735,128.181251,37.950331,6450.2876328,-172.402,-47.258,352.572
11.7902,128.18125,37.950363,6447.370696800001,-174.372,-47.52,352.642
11.8068,128.181249,37.950396,6444.4391304,-176.393,-47.784,352.73
11.8235,128.181248,37.950428,6441.493848,-178.299,-48.036,352.805
11.8402,128.181247,37.95046,6438.5351544000005,179.906,-48.265,352.868
11.857,128.181246,37.950492,6435.5636592,178.223,-48.459,352.924
11.8737,128.181246,37.950524,6432.579972,176.65,-48.604,352.976
11.8904,128.181245,37.950556,6429.583788000001,175.186,-48.717,353.028
11.9071,128.181244,37.950588,6426.5760216,173.826,-48.809,353.083
11.9238,128.181243,37.95062,6423.5569776,172.566,-48.894,353.145
11.9405,128.181242,37.950652,6420.527265600001,171.399,-48.985,353.217
11.9572,128.181241,37.950683,6417.4868856,170.318,-49.093,353.3
11.9739,128.18124,37.950715,6414.435837600001,169.316,-49.233,353.4
11.9905,128.181239,37.950746,6411.3753408,168.385,-49.412,353.52
12.0072,128.181238,37.950778,6408.3044808,167.522,-49.628,353.66
12.0239,128.181237,37.950809,6405.224172,166.725,-49.873,353.817
12.0407,128.181237,37.950841,6402.1347192,165.992,-50.137,353.99
12.0574,128.181236,37.950872,6399.0358176,165.322,-50.413,354.177
12.0741,128.181235,37.950903,6395.927772,164.714,-50.696,354.374
12.0908,128.181234,37.950935,6392.811192000001,164.167,-50.982,354.58
12.1075,128.181233,37.950966,6389.6857728,163.681,-51.267,354.794
12.1242,128.181233,37.950997,6386.5512096,163.254,-51.549,355.013
12.1409,128.181232,37.951028,6383.407502399999,162.886,-51.827,355.236
12.1576,128.181231,37.951059,6380.254651200001,162.576,-52.099,355.463
12.1743,128.18123,37.951091,6377.092656000001,162.323,-52.366,355.691
12.1909,128.18123,37.951122,6373.921212,162.127,-52.625,355.92
12.2076,128.181229,37.951153,6370.7403192,161.987,-52.878,356.147
12.2243,128.181228,37.951184,6367.549977600001,161.903,-53.125,356.374
12.2411,128.181228,37.951214,6364.349882400001,161.873,-53.364,356.597
12.2578,128.181227,37.951245,6361.1403384000005,161.898,-53.597,356.818
12.2745,128.181227,37.951276,6357.9210408,161.978,-53.823,357.034
12.2912,128.181226,37.951307,6354.6919896,162.11,-54.044,357.245
12.3079,128.181225,37.951337,6351.4531848,162.296,-54.258,357.451
12.3246,128.181225,37.951368,6348.2043216,162.533,-54.466,357.65
12.3413,128.181225,37.951399,6344.9454000000005,162.823,-54.67,357.844
12.358,128.181224,37.951429,6341.676724800001,163.164,-54.868,358.031
12.3746,128.181224,37.95146,6338.397686400001,163.556,-55.062,358.21
12.3913,128.181223,37.95149,6335.1085896,163.998,-55.251,358.381
12.408,128.181223,37.95152,6331.8094344,164.491,-55.436,358.544
12.4248,128.181223,37.951551,6328.499916,165.033,-55.618,358.699
12.4415,128.181222,37.951581,6325.1803392,165.626,-55.798,358.844
12.4582,128.181222,37.951611,6321.8503992000005,166.268,-55.974,358.98
12.4749,128.181222,37.951641,6318.5097912,166.96,-56.148,359.107
12.4916,128.181222,37.951671,6315.1591248,167.702,-56.32,359.223
12.5083,128.181221,37.951701,6311.7980952,168.493,-56.49,359.328
12.525,128.181221,37.951731,6308.426397600001,169.334,-56.658,359.423
12.5417,128.181221,37.95176,6305.044336800001,170.224,-56.825,359.506
12.5583,128.181221,37.95179,6301.651608,171.164,-56.989,359.578
12.575,128.181221,37.95182,6298.248516,172.152,-57.152,359.638
12.5917,128.18122,37.951849,6294.834756000001,173.19,-57.313,359.685
12.6085,128.18122,37.951879,6291.410632800001,174.276,-57.473,359.72
12.6252,128.18122,37.951908,6287.9758416,175.412,-57.631,359.743
12.6419,128.18122,37.951938,6284.5303824,176.596,-57.788,359.752
12.6586,128.18122,37.951967,6281.074560000001,177.829,-57.943,359.747
12.6753,128.18122,37.951996,6277.608069600001,179.111,-58.097,359.729
12.692,128.18122,37.952025,6274.130911200001,-179.557,-58.248,359.696
12.7087,128.18122,37.952054,6270.6433896,-178.177,-58.399,359.649
12.7254,128.18122,37.952083,6267.1452,-176.749,-58.547,359.587
12.742,128.18122,37.952112,6263.636952000001,-175.273,-58.68,359.513
12.7587,128.18122,37.952141,6260.118036,-173.753,-58.783,359.428
12.7754,128.181219,37.95217,6256.5893664,-172.193,-58.842,359.339
12.7922,128.181219,37.952198,6253.0500288,-170.771,-58.877,359.288
12.8089,128.181219,37.952227,6249.5000232,-169.478,-58.9,359.273
12.8256,128.181219,37.952256,6245.9393496,-168.308,-58.926,359.275
12.8423,128.181219,37.952284,6242.368008,-167.249,-58.967,359.281
12.859,128.181219,37.952312,6238.7853888,-166.291,-59.034,359.277
12.8757,128.181218,37.952341,6235.192101600001,-165.428,-59.131,359.256
12.8924,128.181218,37.952369,6231.587232000001,-164.656,-59.251,359.217
12.9091,128.181218,37.952397,6227.97078,-163.973,-59.389,359.162
12.9257,128.181217,37.952425,6224.343050400001,-163.375,-59.54,359.092
12.9424,128.181217,37.952452,6220.703433600001,-162.863,-59.7,359.009
12.9591,128.181217,37.95248,6217.0519296,-162.432,-59.867,358.914
12.9759,128.181216,37.952508,6213.3885384000005,-162.081,-60.039,358.809
12.9926,128.181216,37.952535,6209.712955200001,-161.808,-60.214,358.695
13.0093,128.181215,37.952563,6206.02518,-161.61,-60.391,358.574
13.026,128.181214,37.95259,6202.324908,-161.484,-60.571,358.447
13.0427,128.181214,37.952617,6198.612444,-161.43,-60.753,358.314
13.0594,128.181213,37.952644,6194.8871784,-161.445,-60.936,358.178
13.0761,128.181212,37.952671,6191.149111200001,-161.527,-61.121,358.039
13.0928,128.181211,37.952697,6187.398852000001,-161.674,-61.307,357.898
13.1095,128.18121,37.952724,6183.636096,-161.886,-61.495,357.757
13.1262,128.181209,37.95275,6179.8608432,-162.161,-61.684,357.616
13.1429,128.181209,37.952777,6176.0733984,-162.497,-61.875,357.476
13.1596,128.181207,37.952803,6172.2737615999995,-162.894,-62.067,357.338
13.1763,128.181206,37.952829,6168.461932800001,-163.351,-62.261,357.203
13.193,128.181205,37.952855,6164.637912,-163.867,-62.456,357.073
13.2097,128.181204,37.95288,6160.8016992,-164.441,-62.653,356.947
13.2264,128.181203,37.952906,6156.9532944,-165.074,-62.851,356.828
13.2431,128.181202,37.952932,6153.092697600001,-165.764,-63.051,356.715
13.2598,128.1812,37.952957,6149.2202136000005,-166.511,-63.252,356.611
13.2765,128.181199,37.952982,6145.335842400001,-167.315,-63.454,356.515
13.2932,128.181198,37.953007,6141.439584000001,-168.177,-63.657,356.429
13.3099,128.181196,37.953032,6137.5311336,-169.095,-63.861,356.354
13.3266,128.181195,37.953057,6133.610796000001,-170.07,-64.066,356.29
13.3433,128.181194,37.953081,6129.6785712,-171.103,-64.273,356.239
13.36,128.181192,37.953106,6125.734764000001,-172.193,-64.48,356.201
13.3767,128.181191,37.95313,6121.779069600001,-173.34,-64.688,356.178
13.3934,128.181189,37.953155,6117.811792800001,-174.546,-64.897,356.17
13.4101,128.181188,37.953179,6113.832628800001,-175.811,-65.107,356.178
13.4268,128.181186,37.953203,6109.842492000001,-176.932,-65.301,356.147
13.4435,128.181185,37.953226,6105.8410776,-177.913,-65.468,356.078
13.4602,128.181183,37.95325,6101.8293,-178.763,-65.593,355.988
13.4769,128.181182,37.953274,6097.8077688,-179.489,-65.665,355.891
13.4936,128.181181,37.953297,6093.776484000001,179.902,-65.668,355.795
13.5103,128.181179,37.953321,6089.736360000001,179.409,-65.593,355.703
13.527,128.181178,37.953344,6085.687092,179.026,-65.455,355.616
13.5437,128.181176,37.953367,6081.6292895999995,178.749,-65.272,355.534
13.5604,128.181175,37.95339,6077.5629528,178.573,-65.06,355.457
13.5771,128.181174,37.953413,6073.4886912,178.496,-64.834,355.384
13.5938,128.181172,37.953436,6069.4068096,178.513,-64.609,355.315
13.6105,128.181171,37.953459,6065.3176128000005,178.62,-64.401,355.251
13.6272,128.181169,37.953482,6061.2214056,178.814,-64.224,355.191
13.6439,128.181168,37.953505,6057.118492800001,179.092,-64.091,355.135
13.6606,128.181167,37.953528,6053.0088744,179.453,-64.013,355.082
13.6773,128.181165,37.95355,6048.8931600000005,179.894,-64.0,355.031
13.694,128.181164,37.953573,6044.771349600001,-179.584,-64.063,354.981
13.7107,128.181162,37.953596,6040.643138400001,-178.982,-64.207,354.927
13.7274,128.181161,37.953618,6036.5082216,-178.301,-64.421,354.867
13.7441,128.18116,37.953641,6032.3662944,-177.538,-64.69,354.798
13.7608,128.181158,37.953663,6028.217356800001,-176.695,-65.004,354.718
13.7775,128.181157,37.953686,6024.061104,-175.773,-65.349,354.623
13.7942,128.181155,37.953708,6019.8972312000005,-174.772,-65.709,354.512
13.8109,128.181154,37.953731,6015.726043199999,-173.696,-66.069,354.385
13.8276,128.181153,37.953753,6011.5469304,-172.549,-66.413,354.244
13.8443,128.181151,37.953775,6007.3605024,-171.338,-66.725,354.095
13.861,128.18115,37.953797,6003.1664544000005,-170.071,-66.99,353.942
13.8777,128.181148,37.953819,5998.965091200001,-168.76,-67.192,353.798
13.8944,128.181147,37.953842,5994.7570224,-167.418,-67.318,353.674
13.9111,128.181146,37.953864,5990.5419432,-166.06,-67.352,353.587
13.9278,128.181144,37.953885,5986.3195488,-164.909,-67.319,353.597
13.9445,128.181143,37.953907,5982.0895344,-163.953,-67.234,353.696
13.9612,128.181141,37.953929,5977.8522048,-163.172,-67.113,353.856
13.9779,128.18114,37.953951,5973.6078648,-162.545,-66.969,354.049
13.9946,128.181138,37.953973,5969.355904800001,-162.054,-66.817,354.253
14.0113,128.181137,37.953994,5965.0966296,-161.68,-66.672,354.452
14.028,128.181135,37.954016,5960.8297344,-161.408,-66.548,354.631
14.0447,128.181133,37.954037,5956.555828800001,-161.223,-66.459,354.778
14.0614,128.181132,37.954059,5952.274608,-161.11,-66.418,354.882
14.0781,128.18113,37.95408,5947.9857672,-161.059,-66.433,354.937
14.0948,128.181128,37.954101,5943.689915999999,-161.057,-66.518,354.931
14.1115,128.181127,37.954122,5939.3861400000005,-161.095,-66.676,354.86
14.1282,128.181125,37.954143,5935.0744392,-161.178,-66.899,354.733
14.1449,128.181123,37.954164,5930.754508800001,-161.31,-67.172,354.559
14.1616,128.181121,37.954185,5926.4257392,-161.496,-67.486,354.347
14.1783,128.18112,37.954206,5922.0881303999995,-161.741,-67.828,354.107
14.195,128.181118,37.954226,5917.7413776,-162.055,-68.183,353.854
14.2117,128.181116,37.954247,5913.3857856,-162.447,-68.536,353.601
14.2284,128.181114,37.954267,5909.0210496,-162.922,-68.88,353.358
14.2451,128.181112,37.954287,5904.647169600001,-163.48,-69.214,353.128
14.2618,128.18111,37.954307,5900.2641456,-164.12,-69.538,352.912
14.2785,128.181108,37.954327,5895.872282400001,-164.839,-69.852,352.713
14.2952,128.181106,37.954347,5891.4712752,-165.638,-70.159,352.531
14.3119,128.181104,37.954366,5887.061124000001,-166.515,-70.459,352.368
14.3286,128.181101,37.954386,5882.6421336,-167.47,-70.752,352.224
14.3453,128.181099,37.954405,5878.2136944,-168.501,-71.039,352.102
14.362,128.181097,37.954424,5873.776416,-169.609,-71.321,352.002
14.3787,128.181095,37.954443,5869.3302984,-170.794,-71.598,351.926
14.3954,128.181093,37.954462,5864.8750368,-171.812,-71.851,351.802
14.4121,128.181091,37.954481,5860.4112408,-172.672,-72.065,351.635
14.4288,128.181089,37.9545,5855.939215200001,-173.395,-72.226,351.456
14.4455,128.181086,37.954518,5851.459264800001,-174.002,-72.321,351.292
14.4622,128.181084,37.954537,5846.9716944,-174.508,-72.335,351.159
14.4789,128.181082,37.954555,5842.4771136,-174.922,-72.259,351.066
14.4956,128.18108,37.954573,5837.9752176,-175.243,-72.111,351.005
14.5123,128.181078,37.954592,5833.466311200001,-175.469,-71.909,350.969
14.529,128.181076,37.95461,5828.9503944,-175.599,-71.671,350.95
14.5457,128.181074,37.954628,5824.4280768,-175.629,-71.414,350.941
14.5624,128.181071,37.954646,5819.8993584,-175.56,-71.156,350.935
14.5791,128.181069,37.954664,5815.3648488,-175.39,-70.912,350.929
14.5958,128.181067,37.954682,5810.8242432,-175.12,-70.694,350.918
14.6125,128.181065,37.954699,5806.2778464,-174.755,-70.498,350.904
14.6292,128.181063,37.954717,5801.7259632000005,-174.298,-70.321,350.888
14.6459,128.181061,37.954735,5797.1688984,-173.754,-70.157,350.871
14.6626,128.181059,37.954753,5792.606652,-173.127,-70.005,350.854
14.6793,128.181057,37.954771,5788.039224000001,-172.421,-69.861,350.838
14.696,128.181054,37.954788,5783.4666144,-171.639,-69.725,350.824
14.7127,128.181052,37.954806,5778.889128000001,-170.784,-69.596,350.812
14.7294,128.18105,37.954824,5774.306764800001,-169.859,-69.473,350.801
14.7461,128.181048,37.954842,5769.719524800001,-168.865,-69.355,350.793
14.7628,128.181046,37.954859,5765.1277128,-167.806,-69.243,350.787
14.7795,128.181044,37.954877,5760.530719200001,-166.684,-69.136,350.783
14.7962,128.181041,37.954895,5755.9291536,-165.501,-69.034,350.782
14.8129,128.181039,37.954912,5751.323015999999,-164.259,-68.936,350.782
14.8296,128.181037,37.95493,5746.712001600001,-162.96,-68.843,350.784
14.8463,128.181035,37.954948,5742.0967200000005,-161.606,-68.754,350.787
14.863,128.181033,37.954966,5737.4765615999995,-160.448,-68.694,350.847
14.8797,128.18103,37.954983,5732.851831200001,-159.464,-68.677,350.942
14.8964,128.181028,37.955001,5728.222224000001,-158.621,-68.715,351.029
14.9131,128.181026,37.955018,5723.58774,-157.894,-68.814,351.071
14.9298,128.181024,37.955036,5718.948379200001,-157.255,-68.982,351.039
14.9465,128.181021,37.955053,5714.304141600001,-156.681,-69.227,350.909
14.9632,128.181019,37.955071,5709.6544176,-156.157,-69.547,350.673
14.9799,128.181017,37.955088,5704.9989024,-155.683,-69.929,350.339
14.9966,128.181014,37.955105,5700.336986400001,-155.261,-70.359,349.916
15.0133,128.181012,37.955123,5695.668669600001,-154.894,-70.825,349.415
15.03,128.181009,37.95514,5690.993647200001,-154.593,-71.308,348.856
15.0467,128.181007,37.955157,5686.3119192,-154.373,-71.794,348.262
15.0634,128.181005,37.955174,5681.622876,-154.253,-72.264,347.66
15.0801,128.181002,37.955191,5676.9265176,-154.258,-72.704,347.082
15.0968,128.180999,37.955207,5672.2225392,-154.396,-73.109,346.543
15.1135,128.180997,37.955224,5667.511245600001,-154.662,-73.483,346.043
15.1302,128.180994,37.95524,5662.792636800001,-155.049,-73.834,345.577
15.1469,128.180991,37.955256,5658.0661032,-155.548,-74.167,345.143
