Time,Longitude,Latitude,Altitude,Roll (deg),Pitch (deg),Yaw (deg)
0.0,128.181881,37.968463,7002.830292000001,0.0,-0.003,179.999
0.0167,128.181881,37.968418,7002.8116992000005,0.0,-0.012,180.0
0.0334,128.181881,37.968374,7002.7912776,0.087,-0.026,180.011
0.0501,128.181881,37.968329,7002.7690272,0.258,-0.042,180.034
0.0668,128.181881,37.968284,7002.744033600001,0.516,-0.061,180.064
0.0834,128.181881,37.968239,7002.7193448,0.689,-0.068,180.074
0.1002,128.181881,37.968194,7002.694046400001,0.783,-0.05,180.064
0.1169,128.181881,37.968149,7002.6690528,0.789,0.006,180.04
0.1336,128.181881,37.968104,7002.645583200001,0.702,0.115,180.009
0.1503,128.181881,37.968059,7002.6239424000005,0.518,0.284,179.975
0.1669,128.181881,37.968014,7002.6050448000005,0.238,0.524,179.94
0.1837,128.181881,37.967969,7002.5873664,0.038,0.82,179.927
0.2004,128.181881,37.967924,7002.5715168,-0.083,1.162,179.938
0.2171,128.181881,37.967879,7002.5571912000005,-0.119,1.531,179.962
0.2338,128.181881,37.967834,7002.5446944000005,-0.06,1.913,179.995
0.2505,128.181881,37.967789,7002.5337216,0.094,2.291,180.032
0.2672,128.181881,37.967744,7002.5242728,0.346,2.649,180.07
0.2839,128.181881,37.967699,7002.515738400001,0.691,2.972,180.109
0.3006,128.181881,37.967654,7002.5111664,0.955,3.272,180.125
0.3172,128.181881,37.967609,7002.509947200001,1.139,3.562,180.12
0.3339,128.181881,37.967564,7002.5136048,1.234,3.852,180.101
0.3507,128.181881,37.967519,7002.5227488,1.235,4.157,180.075
0.3674,128.181881,37.967474,7002.5382936,1.139,4.486,180.045
0.3841,128.181881,37.967429,7002.5608488,0.946,4.84,180.015
0.4008,128.181881,37.967384,7002.591024,0.66,5.21,179.984
0.4175,128.181881,37.967339,7002.6269904,0.453,5.578,179.974
0.4342,128.181881,37.967294,7002.6693576,0.324,5.931,179.986
0.4509,128.181881,37.967249,7002.7181256,0.28,6.251,180.012
0.4676,128.181881,37.967204,7002.77238,0.328,6.526,180.045
0.4843,128.181881,37.967159,7002.831816,0.467,6.738,180.082
0.501,128.181881,37.967114,7002.896128800001,0.699,6.874,180.12
0.5176,128.181881,37.967069,7002.9637944,1.019,6.92,180.157
0.5344,128.181881,37.967024,7003.037860800001,1.261,6.891,180.171
0.5511,128.18188,37.966979,7003.1171088,1.426,6.802,180.163
0.5678,128.18188,37.966934,7003.201538400001,1.507,6.67,180.14
0.5845,128.18188,37.966889,7003.292064,1.499,6.51,180.107
0.6012,128.18188,37.966844,7003.3886856,1.399,6.337,180.071
0.6179,128.18188,37.966799,7003.488660000001,1.375,6.153,180.053
0.6345,128.18188,37.966754,7003.592901600001,1.424,5.964,180.055
0.6513,128.18188,37.966709,7003.700496,1.552,5.773,180.072
0.6679,128.18188,37.966664,7003.810528800001,1.766,5.584,180.097
0.6847,128.18188,37.966619,7003.9223904,2.067,5.399,180.126
0.7014,128.18188,37.966574,7004.035776,2.457,5.219,180.156
0.7181,128.18188,37.966529,7004.1497712,2.934,5.046,180.187
0.7348,128.18188,37.966484,7004.2640712,3.496,4.879,180.218
0.7514,128.18188,37.966439,7004.3780664,4.142,4.718,180.247
0.7682,128.18188,37.966394,7004.4911472,4.868,4.563,180.275
0.7848,128.18188,37.966349,7004.6039232,5.673,4.414,180.302
0.8016,128.18188,37.966304,7004.7157848,6.554,4.27,180.327
0.8183,128.18188,37.966259,7004.826732,7.508,4.131,180.351
0.835,128.18188,37.966214,7004.936460000001,8.533,3.998,180.372
0.8517,128.18188,37.966168,7005.045273600001,9.627,3.869,180.393
0.8684,128.18188,37.966123,7005.1522584,10.787,3.744,180.411
0.8851,128.18188,37.966078,7005.258024000001,12.011,3.623,180.428
0.9018,128.18188,37.966033,7005.361960800001,13.298,3.505,180.443
0.9185,128.181879,37.965988,7005.464373600001,14.645,3.391,180.456
0.9352,128.181879,37.965943,7005.5649576,16.05,3.28,180.468
0.9519,128.181879,37.965898,7005.6637128,17.512,3.173,180.477
0.9686,128.181879,37.965853,7005.7603344,19.028,3.068,180.485
0.9853,128.181879,37.965807,7005.854822400001,20.597,2.966,180.492
1.002,128.181879,37.965762,7005.9471768,22.218,2.867,180.496
1.0187,128.181879,37.965717,7006.038312,23.711,2.792,180.485
1.0353,128.181879,37.965672,7006.1285328,25.085,2.754,180.465
1.0521,128.181879,37.965627,7006.2184488,26.332,2.764,180.449
1.0688,128.181879,37.965581,7006.308669600001,27.448,2.826,180.449
1.0855,128.181878,37.965536,7006.4001096,28.432,2.947,180.476
1.1022,128.181878,37.965491,7006.4936832,29.286,3.131,180.537
1.1189,128.181878,37.965446,7006.5896952,30.013,3.385,180.639
1.1356,128.181878,37.9654,7006.688755200001,30.617,3.698,180.778
1.1522,128.181877,37.965355,7006.7914728000005,31.104,4.057,180.95
1.169,128.181877,37.96531,7006.8975432,31.651,4.44,181.168
1.1857,128.181877,37.965265,7007.0066615999995,32.257,4.835,181.426
1.2024,128.181876,37.96522,7007.1191328,32.931,5.23,181.708
1.2191,128.181876,37.965174,7007.234652000001,33.679,5.615,182.0
1.2358,128.181876,37.965129,7007.3529144,34.502,5.978,182.29
1.2525,128.181875,37.965084,7007.474224800001,35.401,6.306,182.567
1.2691,128.181875,37.965039,7007.5976688,36.372,6.588,182.819
1.2859,128.181874,37.964994,7007.723246400001,37.411,6.81,183.036
1.3026,128.181873,37.964948,7007.850348,38.513,6.962,183.207
1.3193,128.181873,37.964903,7007.979583200001,39.674,7.032,183.32
1.3359,128.181872,37.964858,7008.1097328000005,40.89,7.015,183.365
1.3527,128.181871,37.964813,7008.2414064,42.16,6.921,183.348
1.3694,128.181871,37.964767,7008.3739944,43.485,6.765,183.278
1.386,128.18187,37.964722,7008.507192000001,44.867,6.562,183.164
1.4028,128.181869,37.964677,7008.6406944,46.309,6.326,183.016
1.4195,128.181868,37.964631,7008.774196800001,47.812,6.07,182.844
1.4362,128.181868,37.964586,7008.9073944,49.38,5.807,182.658
1.4528,128.181867,37.964541,7009.0402872,51.015,5.548,182.47
1.4696,128.181866,37.964496,7009.172265600001,52.719,5.305,182.292
1.4863,128.181865,37.96445,7009.303329599999,54.492,5.088,182.137
1.5029,128.181864,37.964405,7009.433174400001,56.335,4.897,182.006
1.5197,128.181863,37.96436,7009.5614952000005,58.246,4.728,181.896
1.5364,128.181862,37.964314,7009.688292000001,60.222,4.577,181.802
1.5531,128.181861,37.964269,7009.813260000001,62.263,4.44,181.718
1.5697,128.18186,37.964224,7009.936704000001,64.364,4.315,181.642
1.5865,128.181859,37.964178,7010.057709600001,66.525,4.198,181.572
1.6032,128.181858,37.964133,7010.1768864000005,68.741,4.09,181.507
1.6198,128.181857,37.964087,7010.2939295999995,71.012,3.989,181.446
1.6366,128.181856,37.964042,7010.409144,73.334,3.894,181.388
1.6533,128.181855,37.963997,7010.521920000001,75.707,3.805,181.334
1.67,128.181854,37.963951,7010.6322576,78.127,3.72,181.282
1.6867,128.181853,37.963906,7010.7407664,80.515,3.646,181.231
1.7034,128.181852,37.96386,7010.8468368,82.869,3.581,181.182
1.7201,128.181851,37.963815,7010.9513832,85.195,3.522,181.136
1.7368,128.18185,37.963769,7011.053796,87.497,3.468,181.093
1.7535,128.181849,37.963724,7011.15438,89.783,3.417,181.053
1.7702,128.181848,37.963678,7011.2528304,92.058,3.367,181.017
1.7869,128.181847,37.963633,7011.349452000001,94.328,3.318,180.983
1.8036,128.181846,37.963587,7011.44394,96.597,3.269,180.952
1.8203,128.181845,37.963542,7011.5365992,98.87,3.222,180.923
1.837,128.181844,37.963496,7011.627124800001,101.15,3.174,180.897
1.8537,128.181843,37.963451,7011.7158216,103.438,3.128,180.872
1.8704,128.181842,37.963405,7011.8029944,105.736,3.082,180.85
1.8871,128.181842,37.963359,7011.888033600001,108.045,3.036,180.83
1.9038,128.181841,37.963314,7011.9715488,110.364,2.991,180.811
1.9205,128.18184,37.963268,7012.0532352,112.693,2.946,180.793
1.9372,128.181839,37.963223,7012.133092800001,115.032,2.903,180.777
1.9539,128.181838,37.963177,7012.2117312,117.378,2.859,180.762
1.9706,128.181837,37.963131,7012.2885408,119.731,2.816,180.748
1.9873,128.181836,37.963086,7012.3638264,122.087,2.774,180.735
2.004,128.181835,37.96304,7012.437588000001,124.444,2.733,180.723
2.0207,128.181834,37.962994,7012.5098256,126.8,2.692,180.711
2.0374,128.181833,37.962949,7012.580234399999,129.15,2.651,180.701
2.0541,128.181832,37.962903,7012.649424000001,131.493,2.611,180.691
2.0707,128.181832,37.962857,7012.7170896,133.825,2.572,180.683
2.0875,128.181831,37.962812,7012.7832312,136.14,2.533,180.674
2.1042,128.18183,37.962766,7012.847544,138.437,2.495,180.667
2.1208,128.181829,37.96272,7012.910332800001,140.712,2.457,180.66
2.1376,128.181828,37.962674,7012.971292800001,142.96,2.419,180.653
2.1543,128.181827,37.962629,7013.0307288,145.181,2.382,180.647
2.171,128.181826,37.962583,7013.088336000001,147.372,2.345,180.642
2.1877,128.181826,37.962537,7013.144114400001,149.531,2.308,180.636
2.2044,128.181825,37.962491,7013.198368800001,151.658,2.272,180.631
2.2211,128.181824,37.962445,7013.2507944,153.753,2.235,180.625
2.2378,128.181823,37.9624,7013.301696,155.817,2.199,180.619
2.2544,128.181822,37.962354,7013.350768800001,157.851,2.163,180.613
2.2712,128.181821,37.962308,7013.3986224,159.857,2.127,180.606
2.2879,128.181821,37.962262,7013.444647200001,161.838,2.091,180.598
2.3045,128.18182,37.962216,7013.4897576,163.798,2.055,180.589
2.3213,128.181819,37.96217,7013.5336488,165.741,2.02,180.579
2.338,128.181818,37.962124,7013.5763208,167.671,1.986,180.568
2.3546,128.181817,37.962079,7013.618078400001,169.595,1.952,180.556
2.3714,128.181816,37.962033,7013.6592264,171.516,1.918,180.543
2.3881,128.181816,37.961987,7013.699764800001,173.441,1.886,180.528
2.4048,128.181815,37.961941,7013.7396936,175.374,1.855,180.512
2.4215,128.181814,37.961895,7013.7796224,177.321,1.825,180.494
2.4382,128.181813,37.961849,7013.8192464,179.289,1.796,180.475
2.4549,128.181812,37.961803,7013.858870400001,-178.719,1.77,180.455
2.4716,128.181812,37.961757,7013.8987992,-176.699,1.745,180.434
2.4882,128.181811,37.961711,7013.9384232,-174.65,1.722,180.413
2.505,128.18181,37.961665,7013.978047200001,-172.572,1.701,180.391
2.5217,128.181809,37.961619,7014.0173664,-170.468,1.682,180.369
2.5383,128.181808,37.961573,7014.0563808,-168.338,1.665,180.348
2.5551,128.181807,37.961527,7014.0953952,-166.186,1.65,180.328
2.5718,128.181806,37.961481,7014.1338000000005,-164.012,1.637,180.308
2.5884,128.181806,37.961435,7014.1715952,-161.819,1.626,180.29
2.6052,128.181805,37.961389,7014.2090856,-159.607,1.617,180.272
2.6219,128.181804,37.961343,7014.2456616,-157.38,1.61,180.255
2.6386,128.181803,37.961296,7014.281628000001,-155.138,1.605,180.24
2.6553,128.181802,37.96125,7014.3169848,-152.882,1.602,180.226
2.6719,128.181801,37.961204,7014.3514272,-150.615,1.601,180.214
2.6887,128.1818,37.961158,7014.3846504,-148.337,1.601,180.203
2.7054,128.181799,37.961112,7014.416959200001,-146.05,1.603,180.193
2.722,128.181798,37.961066,7014.4480488,-143.754,1.606,180.185
2.7388,128.181798,37.961019,7014.478224,-141.451,1.611,180.18
2.7555,128.181797,37.960973,7014.5068752,-139.142,1.617,180.175
2.7721,128.181796,37.960927,7014.5340024,-136.828,1.62,180.17
2.7889,128.181795,37.960881,7014.5593008000005,-134.51,1.616,180.158
2.8056,128.181794,37.960834,7014.5830752,-132.189,1.601,180.135
2.8222,128.181793,37.960788,7014.604716,-129.866,1.573,180.098
2.839,128.181792,37.960742,7014.6242232,-127.541,1.533,180.045
2.8557,128.181791,37.960695,7014.641292,-125.217,1.481,179.975
2.8724,128.18179,37.960649,7014.6559224,-122.893,1.419,179.887
2.8891,128.181789,37.960603,7014.6681144,-120.572,1.349,179.781
2.9057,128.181788,37.960556,7014.6769536,-118.267,1.273,179.661
2.9225,128.181787,37.96051,7014.6824400000005,-115.989,1.194,179.527
2.9392,128.181786,37.960464,7014.6845736000005,-113.748,1.113,179.382
2.9558,128.181785,37.960417,7014.6830496,-111.55,1.033,179.228
2.9726,128.181784,37.960371,7014.677868000001,-109.4,0.957,179.069
2.9893,128.181783,37.960324,7014.669028800001,-107.298,0.885,178.906
3.0059,128.181782,37.960278,7014.656532,-105.247,0.82,178.742
3.0227,128.181782,37.960232,7014.640377600001,-103.244,0.761,178.578
3.0394,128.181781,37.960185,7014.620565600001,-101.284,0.711,178.417
3.056,128.18178,37.960139,7014.597705600001,-99.366,0.669,178.261
3.0728,128.181779,37.960092,7014.571492800001,-97.484,0.635,178.11
3.0895,128.181779,37.960046,7014.5419272,-95.634,0.608,177.966
3.1062,128.181778,37.959999,7014.5093136000005,-93.814,0.589,177.828
3.1229,128.181778,37.959953,7014.473652000001,-92.021,0.577,177.698
3.1395,128.181777,37.959906,7014.435247200001,-90.253,0.57,177.574
3.1563,128.181777,37.95986,7014.3940992,-88.508,0.57,177.457
3.173,128.181777,37.959813,7014.350208,-86.785,0.574,177.346
3.1896,128.181776,37.959767,7014.304183200001,-85.082,0.582,177.241
3.2064,128.181776,37.95972,7014.255720000001,-83.399,0.594,177.142
3.2231,128.181776,37.959674,7014.205428,-81.735,0.611,177.048
3.2397,128.181776,37.959627,7014.153002399999,-80.092,0.63,176.959
3.2565,128.181776,37.959581,7014.098747999999,-78.466,0.652,176.873
3.2732,128.181776,37.959534,7014.042969600001,-76.86,0.678,176.792
3.2899,128.181776,37.959487,7013.9856672000005,-75.272,0.706,176.714
3.3066,128.181776,37.959441,7013.927145600001,-73.704,0.736,176.639
3.3233,128.181776,37.959394,7013.8677096,-72.153,0.769,176.567
3.34,128.181776,37.959348,7013.8070544,-70.62,0.804,176.498
3.3567,128.181777,37.959301,7013.7457896,-69.117,0.835,176.446
3.3734,128.181777,37.959254,7013.6833056000005,-67.635,0.858,176.423
3.3901,128.181777,37.959208,7013.6199072,-66.164,0.865,176.444
3.4068,128.181778,37.959161,7013.5552896,-64.696,0.852,176.514
3.4235,128.181778,37.959115,7013.4894527999995,-63.221,0.824,176.62
3.4402,128.181779,37.959068,7013.4227016,-61.731,0.786,176.749
3.4569,128.18178,37.959021,7013.3544264,-60.218,0.741,176.889
3.4736,128.18178,37.958975,7013.284627200001,-58.669,0.694,177.033
3.4903,128.181781,37.958928,7013.213304,-57.076,0.645,177.178
3.507,128.181781,37.958881,7013.140152000001,-55.433,0.595,177.319
3.5237,128.181782,37.958834,7013.065476,-53.739,0.546,177.455
3.5404,128.181783,37.958788,7012.9889712,-51.995,0.496,177.586
3.5571,128.181783,37.958741,7012.910942400001,-50.203,0.446,177.71
3.5738,128.181784,37.958694,7012.83078,-48.364,0.396,177.828
3.5905,128.181785,37.958647,7012.7487888,-46.479,0.346,177.939
3.6072,128.181786,37.958601,7012.664968800001,-44.551,0.295,178.045
3.6239,128.181786,37.958554,7012.578710400001,-42.58,0.245,178.144
3.6406,128.181787,37.958507,7012.4921472000005,-40.77,0.187,178.23
3.6573,128.181788,37.95846,7012.403755200001,-39.117,0.123,178.302
3.674,128.181789,37.958414,7012.314144,-37.622,0.056,178.364
3.6907,128.181789,37.958367,7012.2233136,-36.284,-0.01,178.419
3.7074,128.18179,37.95832,7012.1318736,-35.102,-0.076,178.468
3.7241,128.181791,37.958273,7012.0395192000005,-34.072,-0.14,178.514
3.7408,128.181792,37.958226,7011.946860000001,-33.189,-0.202,178.556
3.7575,128.181793,37.958179,7011.8542008,-32.447,-0.26,178.595
3.7742,128.181794,37.958132,7011.7612368,-31.843,-0.315,178.631
3.7909,128.181795,37.958086,7011.6685776,-31.371,-0.368,178.665
3.8076,128.181795,37.958039,7011.5743944000005,-30.822,-0.41,178.705
3.8243,128.181796,37.957992,7011.479296800001,-30.198,-0.44,178.75
3.841,128.181797,37.957945,7011.38298,-29.495,-0.459,178.797
3.8577,128.181798,37.957898,7011.285444,-28.71,-0.469,178.84
3.8744,128.181799,37.957851,7011.185774400001,-27.844,-0.472,178.879
3.8911,128.1818,37.957804,7011.084276,-26.899,-0.467,178.914
3.9078,128.181801,37.957757,7010.9803392,-25.877,-0.456,178.943
3.9245,128.181802,37.95771,7010.8736592000005,-24.782,-0.44,178.969
3.9412,128.181803,37.957663,7010.764540800001,-23.617,-0.419,178.991
3.9579,128.181804,37.957616,7010.652069600001,-22.387,-0.394,179.011
3.9746,128.181805,37.957569,7010.537160000001,-21.093,-0.367,179.029
3.9913,128.181806,37.957522,7010.4195072,-19.74,-0.337,179.045
4.008,128.181807,37.957475,7010.299416,-18.329,-0.306,179.061
4.0247,128.181808,37.957428,7010.1768864000005,-16.864,-0.274,179.076
4.0414,128.181809,37.957381,7010.0519184,-15.347,-0.241,179.092
4.058,128.18181,37.957334,7009.924512,-13.78,-0.208,179.107
4.0748,128.181811,37.957287,7009.794972000001,-12.166,-0.174,179.122
4.0915,128.181812,37.95724,7009.6632984,-10.506,-0.139,179.138
4.1082,128.181813,37.957193,7009.529491200001,-8.802,-0.105,179.155
4.1249,128.181814,37.957146,7009.393855200001,-7.057,-0.07,179.172
4.1415,128.181815,37.957099,7009.2563904,-5.272,-0.035,179.19
4.1583,128.181816,37.957051,7009.117096800001,-3.447,-0.001,179.209
4.175,128.181817,37.957004,7008.975974400001,-1.585,0.033,179.229
4.1917,128.181818,37.956957,7008.833328000001,0.312,0.067,179.251
4.2084,128.181819,37.95691,7008.6891576,2.244,0.102,179.273
4.2251,128.18182,37.956863,7008.5437680000005,4.211,0.136,179.297
4.2417,128.181821,37.956815,7008.3968544,6.21,0.171,179.323
4.2585,128.181822,37.956768,7008.2487216,8.24,0.205,179.35
4.2752,128.181823,37.956721,7008.1005888,10.287,0.24,179.378
4.2919,128.181824,37.956674,7007.952151200001,12.342,0.275,179.406
4.3086,128.181825,37.956626,7007.8040184,14.394,0.311,179.435
4.3252,128.181826,37.956579,7007.6561904,16.435,0.348,179.465
4.342,128.181827,37.956532,7007.5092768,18.457,0.385,179.496
4.3587,128.181828,37.956485,7007.3629728000005,20.454,0.423,179.528
4.3754,128.181829,37.956437,7007.2175832,22.422,0.462,179.562
4.3921,128.18183,37.95639,7007.0731080000005,24.357,0.501,179.597
4.4088,128.181831,37.956343,7006.929852000001,26.257,0.54,179.634
4.4254,128.181832,37.956295,7006.7878152,28.121,0.578,179.674
4.4422,128.181833,37.956248,7006.646997600001,29.949,0.616,179.715
4.4589,128.181833,37.956201,7006.5070944,31.742,0.652,179.759
4.4756,128.181834,37.956153,7006.3684104,33.502,0.688,179.804
4.4923,128.181835,37.956106,7006.2306408,35.23,0.721,179.852
4.5089,128.181836,37.956058,7006.0940904,36.927,0.753,179.901
4.5256,128.181837,37.956011,7005.9581496,38.596,0.782,179.952
4.5424,128.181837,37.955964,7005.823123200001,40.238,0.802,179.998
4.5591,128.181838,37.955916,7005.688706400001,41.854,0.812,180.038
4.5758,128.181839,37.955869,7005.555204,43.446,0.814,180.075
4.5925,128.181839,37.955821,7005.422006400001,45.013,0.811,180.11
4.6091,128.18184,37.955774,7005.2897232000005,46.555,0.806,180.143
4.6259,128.181841,37.955726,7005.158049600001,48.066,0.8,180.177
4.6426,128.181841,37.955679,7005.0272904,49.544,0.793,180.212
4.6593,128.181842,37.955632,7004.897140800001,50.987,0.789,180.248
4.676,128.181842,37.955584,7004.767600800001,52.391,0.787,180.285
4.6927,128.181842,37.955537,7004.6389752,53.752,0.788,180.324
4.7093,128.181843,37.955489,7004.5106544,55.068,0.79,180.364
4.7261,128.181843,37.955442,7004.3829432,56.338,0.793,180.407
4.7428,128.181843,37.955394,7004.2555368,57.563,0.797,180.451
4.7595,128.181844,37.955347,7004.12874,58.745,0.8,180.497
4.7762,128.181844,37.955299,7004.001638400001,59.889,0.802,180.543
4.7928,128.181844,37.955252,7003.874841600001,60.996,0.803,180.591
4.8096,128.181844,37.955204,7003.748044800001,62.072,0.802,180.639
4.8263,128.181844,37.955156,7003.6212479999995,63.119,0.8,180.687
4.843,128.181844,37.955109,7003.4938416,64.14,0.796,180.736
4.8597,128.181844,37.955061,7003.3664352000005,65.139,0.79,180.784
4.8764,128.181844,37.955014,7003.238419200001,66.116,0.783,180.831
4.893,128.181844,37.954966,7003.1097936,67.074,0.774,180.878
4.9098,128.181844,37.954919,7002.9808632,68.014,0.764,180.925
4.9265,128.181844,37.954871,7002.851018400001,68.935,0.753,180.97
4.9432,128.181843,37.954823,7002.7208688,69.834,0.741,181.015
4.9599,128.181843,37.954776,7002.590109600001,70.703,0.729,181.059
4.9765,128.181843,37.954728,7002.458436,71.54,0.716,181.101
4.9932,128.181842,37.954681,7002.3261528,72.348,0.703,181.142
5.01,128.181842,37.954633,7002.193260000001,73.121,0.689,181.182
5.0267,128.181842,37.954585,7002.0594528,73.856,0.675,181.221
5.0434,128.181841,37.954538,7001.9247312,74.549,0.661,181.261
5.0601,128.18184,37.95449,7001.789400000001,75.199,0.648,181.302
5.0767,128.18184,37.954442,7001.6531544,75.805,0.635,181.343
5.0935,128.181839,37.954395,7001.5156896,76.366,0.622,181.386
5.1102,128.181838,37.954347,7001.377615200001,76.883,0.609,181.43
5.1269,128.181837,37.9543,7001.2380168,77.396,0.594,181.474
5.1436,128.181837,37.954252,7001.0971992,77.9,0.577,181.52
5.1602,128.181836,37.954204,7000.9551624,78.384,0.559,181.565
5.1769,128.181835,37.954156,7000.811906400001,78.841,0.541,181.594
5.1937,128.181834,37.954109,7000.6671264,79.263,0.52,181.603
5.2104,128.181833,37.954061,7000.520822400001,79.647,0.499,181.596
5.2271,128.181831,37.954013,7000.3732992000005,79.992,0.478,181.579
5.2438,128.18183,37.953966,7000.224252000001,80.303,0.458,181.558
5.2604,128.181829,37.953918,7000.0739856,80.583,0.437,181.537
5.2772,128.181828,37.95387,6999.9218904,80.832,0.418,181.515
5.2939,128.181827,37.953823,6999.7682712,81.048,0.4,181.497
5.3106,128.181825,37.953775,6999.613432800001,81.23,0.384,181.482
5.3273,128.181824,37.953727,6999.456765600001,81.374,0.37,181.471
5.3439,128.181822,37.953679,6999.298574400001,81.477,0.358,181.465
5.3606,128.181821,37.953632,6999.1388592,81.528,0.349,181.464
5.3774,128.181819,37.953584,6998.977620000001,81.524,0.342,181.465
5.3941,128.181818,37.953536,6998.8151616,81.462,0.338,181.47
5.4108,128.181816,37.953488,6998.650874400001,81.342,0.335,181.479
5.4275,128.181814,37.953441,6998.485368000001,81.167,0.333,181.49
5.4441,128.181812,37.953393,6998.3186424000005,80.941,0.331,181.504
5.4609,128.181811,37.953345,6998.150088,80.659,0.328,181.519
5.4776,128.181809,37.953297,6997.980314400001,80.328,0.326,181.535
5.4943,128.181807,37.95325,6997.8090168,79.955,0.323,181.552
5.511,128.181805,37.953202,6997.6365000000005,79.545,0.319,181.569
5.5277,128.181803,37.953154,6997.4624592,79.106,0.314,181.587
5.5443,128.181801,37.953106,6997.2871992,78.644,0.308,181.605
5.5611,128.181799,37.953059,6997.110415200001,78.146,0.302,181.622
5.5778,128.181796,37.953011,6996.932412,77.616,0.296,181.639
5.5945,128.181794,37.952963,6996.7531896,77.056,0.29,181.654
5.6112,128.181792,37.952915,6996.5730528,76.448,0.285,181.667
5.6278,128.18179,37.952867,6996.3916968,75.794,0.28,181.68
5.6445,128.181787,37.95282,6996.2091216,75.1,0.276,181.691
5.6613,128.181785,37.952772,6996.025632000001,74.373,0.27,181.702
5.678,128.181782,37.952724,6995.841228,73.62,0.264,181.713
5.6947,128.18178,37.952676,6995.6559096,72.851,0.257,181.725
5.7114,128.181777,37.952628,6995.4696768,72.047,0.249,181.736
5.728,128.181775,37.95258,6995.2825296,71.213,0.242,181.746
5.7448,128.181772,37.952533,6995.0947728,70.354,0.235,181.756
5.7615,128.181769,37.952485,6994.9064064,69.477,0.227,181.766
5.7782,128.181767,37.952437,6994.7174304,68.555,0.22,181.775
5.7949,128.181764,37.952389,6994.528149600001,67.596,0.213,181.784
5.8115,128.181761,37.952341,6994.3391736,66.794,0.191,181.797
5.8282,128.181758,37.952294,6994.149892800001,66.147,0.154,181.815
5.845,128.181755,37.952246,6993.959697600001,65.648,0.108,181.836
5.8617,128.181752,37.952198,6993.768283200001,65.277,0.061,181.858
5.8784,128.181749,37.95215,6993.5759544,65.015,0.017,181.88
5.8951,128.181746,37.952102,6993.382101600001,64.821,-0.02,181.898
5.9117,128.181743,37.952054,6993.1870296,64.648,-0.049,181.911
5.9285,128.18174,37.952006,6992.9910432,64.445,-0.068,181.92
5.9452,128.181737,37.951958,6992.794447200001,64.175,-0.078,181.925
5.9619,128.181734,37.951911,6992.5975464,63.837,-0.082,181.928
5.9786,128.181731,37.951863,6992.400645600001,63.426,-0.082,181.932
5.9952,128.181728,37.951815,6992.20344,62.943,-0.082,181.934
6.0119,128.181724,37.951767,6992.0065392,62.389,-0.083,181.935
6.0287,128.181721,37.951719,6991.8099432,61.767,-0.085,181.937
6.0454,128.181718,37.951671,6991.613652000001,61.079,-0.087,181.94
6.0621,128.181714,37.951623,6991.417360800001,60.33,-0.09,181.943
6.0788,128.181711,37.951575,6991.221374400001,59.52,-0.093,181.947
6.0954,128.181707,37.951527,6991.025997600001,58.654,-0.097,181.951
6.1121,128.181704,37.951479,6990.830620799999,57.734,-0.1,181.957
6.1289,128.1817,37.951431,6990.6355488,56.783,-0.104,181.964
6.1456,128.181696,37.951384,6990.4413912,55.781,-0.108,181.972
6.1623,128.181693,37.951336,6990.247538400001,54.733,-0.112,181.98
6.179,128.181689,37.951288,6990.053990400001,53.659,-0.117,181.989
6.1956,128.181685,37.95124,6989.8616616,52.541,-0.123,181.996
6.2124,128.181681,37.951192,6989.669942400001,51.381,-0.129,182.003
6.2291,128.181678,37.951144,6989.4791376,50.182,-0.136,182.007
6.2458,128.181674,37.951096,6989.289247200001,48.944,-0.143,182.011
6.2625,128.18167,37.951048,6989.100576,47.668,-0.151,182.016
6.2791,128.181666,37.951,6988.913124000001,46.357,-0.159,182.02
6.2958,128.181662,37.950952,6988.726891200001,45.012,-0.168,182.024
6.3126,128.181658,37.950904,6988.541877600001,43.634,-0.177,182.028
6.3293,128.181654,37.950856,6988.3586928,42.226,-0.186,182.033
6.346,128.181649,37.950808,6988.176727200001,40.787,-0.195,182.039
6.3627,128.181645,37.95076,6987.9965904,39.32,-0.204,182.044
6.3793,128.181641,37.950712,6987.8182824000005,37.826,-0.213,182.05
6.3961,128.181637,37.950664,6987.6411935999995,36.326,-0.223,182.057
6.4128,128.181633,37.950616,6987.466848,34.8,-0.234,182.064
6.4295,128.181628,37.950568,6987.2940264,33.251,-0.246,182.069
6.4462,128.181624,37.95052,6987.1236432,31.679,-0.258,182.074
6.4628,128.18162,37.950473,6986.9553936,30.084,-0.27,182.078
6.4795,128.181615,37.950425,6986.789582400001,28.467,-0.283,182.083
6.4963,128.181611,37.950377,6986.6262096,26.829,-0.296,182.088
6.513,128.181607,37.950329,6986.4652752,25.17,-0.308,182.093
6.5297,128.181602,37.950281,6986.307084000001,23.492,-0.321,182.098
6.5464,128.181598,37.950233,6986.1516360000005,21.793,-0.333,182.104
6.5631,128.181593,37.950185,6985.9989312,20.076,-0.345,182.11
6.5798,128.181589,37.950137,6985.8492744000005,18.341,-0.358,182.116
6.5965,128.181584,37.950089,6985.702665600001,16.588,-0.37,182.122
6.6132,128.18158,37.950041,6985.558800000001,14.818,-0.381,182.128
6.6299,128.181575,37.949993,6985.418592000001,13.032,-0.39,182.135
6.6466,128.181571,37.949945,6985.2811272,11.229,-0.397,182.142
6.6633,128.181566,37.949897,6985.147320000001,9.41,-0.403,182.15
6.68,128.181562,37.949849,6985.016560800001,7.575,-0.408,182.158
6.6967,128.181557,37.949801,6984.889459200001,5.724,-0.412,182.166
6.7134,128.181552,37.949753,6984.765710400001,3.859,-0.416,182.173
6.7301,128.181548,37.949705,6984.645314400001,1.978,-0.419,182.181
6.7468,128.181543,37.949657,6984.528576,0.083,-0.428,182.189
6.7635,128.181539,37.949609,6984.4151904,-1.826,-0.443,182.196
6.7802,128.181534,37.949561,6984.3051576,-3.751,-0.463,182.204
6.7969,128.18153,37.949513,6984.198782400001,-5.689,-0.485,182.212
6.8136,128.181525,37.949465,6984.09576,-7.641,-0.508,182.22
6.8303,128.181521,37.949416,6983.9960904,-9.607,-0.531,182.227
6.847,128.181516,37.949368,6983.900078400001,-11.588,-0.553,182.235
6.8637,128.181512,37.94932,6983.8074192,-13.583,-0.573,182.243
6.8804,128.181507,37.949272,6983.7181128,-15.592,-0.59,182.251
6.8971,128.181503,37.949224,6983.6318544000005,-17.616,-0.606,182.258
6.9138,128.181498,37.949176,6983.5489488,-19.654,-0.62,182.266
6.9305,128.181494,37.949128,6983.469396,-21.705,-0.631,182.272
6.9472,128.18149,37.94908,6983.3928912,-23.771,-0.64,182.278
6.9639,128.181485,37.949032,6983.3191295999995,-25.85,-0.646,182.282
6.9806,128.181481,37.948984,6983.2487208,-27.943,-0.65,182.285
6.9973,128.181477,37.948936,6983.181055200001,-30.049,-0.651,182.286
7.014,128.181473,37.948888,6983.116132800001,-32.168,-0.65,182.286
7.0307,128.181468,37.94884,6983.0527344,-34.259,-0.647,182.287
7.0474,128.181464,37.948792,6982.9929936,-36.365,-0.641,182.286
7.0641,128.18146,37.948744,6982.934472,-38.438,-0.633,182.285
7.0808,128.181456,37.948696,6982.8771696,-40.42,-0.621,182.287
7.0975,128.181452,37.948648,6982.8213912,-42.367,-0.607,182.288
7.1142,128.181448,37.9486,6982.7662224000005,-44.241,-0.591,182.289
7.1309,128.181444,37.948552,6982.7113584,-46.005,-0.573,182.291
7.1476,128.181441,37.948504,6982.6567992,-47.713,-0.553,182.29
7.1643,128.181437,37.948456,6982.6034592000005,-49.403,-0.536,182.283
7.181,128.181433,37.948408,6982.550424000001,-51.059,-0.519,182.27
7.1977,128.181429,37.94836,6982.4970840000005,-52.668,-0.502,182.256
7.2144,128.181425,37.948312,6982.4434392,-54.211,-0.484,182.242
7.2311,128.181422,37.948264,6982.3900992,-55.714,-0.466,182.226
7.2478,128.181418,37.948216,6982.3358448,-57.164,-0.449,182.21
7.2645,128.181415,37.948168,6982.280676,-58.548,-0.431,182.193
7.2812,128.181411,37.94812,6982.224288,-59.855,-0.414,182.179
7.2979,128.181407,37.948072,6982.1679,-61.113,-0.398,182.164
7.3146,128.181404,37.948024,6982.110292800001,-62.316,-0.383,182.146
7.3313,128.181401,37.947976,6982.052685600001,-63.486,-0.369,182.125
7.348,128.181397,37.947928,6981.993859200001,-64.618,-0.356,182.1
7.3647,128.181394,37.94788,6981.934728,-65.725,-0.344,182.07
7.3814,128.181391,37.947832,6981.8740728,-66.801,-0.331,182.036
7.3981,128.181387,37.947783,6981.8125032,-67.84,-0.319,182.001
7.4148,128.181384,37.947735,6981.7494096,-68.837,-0.307,181.968
7.4315,128.181381,37.947687,6981.685096800001,-69.788,-0.297,181.939
7.4482,128.181378,37.947639,6981.619869600001,-70.704,-0.287,181.909
7.4649,128.181375,37.947591,6981.5528136,-71.586,-0.279,181.878
7.4816,128.181372,37.947543,6981.484538400001,-72.429,-0.272,181.848
7.4983,128.181369,37.947495,6981.4147391999995,-73.235,-0.267,181.821
7.515,128.181366,37.947447,6981.343111200001,-73.997,-0.264,181.798
7.5317,128.181363,37.947399,6981.270264000001,-74.728,-0.261,181.772
7.5484,128.18136,37.947351,6981.1958928,-75.432,-0.257,181.738
7.5651,128.181357,37.947303,6981.119083200001,-76.057,-0.249,181.697
7.5818,128.181354,37.947255,6981.040749600001,-76.605,-0.238,181.651
7.5985,128.181351,37.947206,6980.9602824,-77.08,-0.225,181.605
7.6152,128.181348,37.947158,6980.877986400001,-77.498,-0.213,181.554
7.6319,128.181346,37.94711,6980.7938616,-77.865,-0.202,181.5
7.6486,128.181343,37.947062,6980.707908,-78.192,-0.194,181.447
7.6653,128.18134,37.947014,6980.6201256,-78.485,-0.189,181.397
7.682,128.181338,37.946966,6980.5308192,-78.754,-0.186,181.353
7.6987,128.181335,37.946918,6980.439684000001,-79.008,-0.186,181.308
7.7154,128.181333,37.946869,6980.3467200000005,-79.253,-0.188,181.262
7.7321,128.18133,37.946821,6980.2519272,-79.492,-0.191,181.217
7.7488,128.181328,37.946773,6980.1553056,-79.726,-0.196,181.175
7.7655,128.181325,37.946725,6980.0568552,-79.956,-0.202,181.139
7.7822,128.181323,37.946677,6979.9565760000005,-80.182,-0.209,181.107
7.7989,128.181321,37.946629,6979.854163200001,-80.403,-0.217,181.081
7.8156,128.181319,37.946581,6979.7505312,-80.625,-0.224,181.045
7.8323,128.181316,37.946532,6979.644765600001,-80.849,-0.23,180.993
7.849,128.181314,37.946484,6979.5371712,-81.073,-0.235,180.928
7.8657,128.181312,37.946436,6979.427748,-81.297,-0.239,180.856
7.8824,128.18131,37.946388,6979.3161912000005,-81.522,-0.243,180.782
7.8991,128.181308,37.94634,6979.203110400001,-81.747,-0.248,180.709
7.9158,128.181306,37.946292,6979.087896000001,-81.974,-0.252,180.626
7.9325,128.181304,37.946243,6978.9711576,-82.203,-0.256,180.535
7.9492,128.181302,37.946195,6978.8532000000005,-82.534,-0.27,180.45
7.9659,128.181301,37.946147,6978.7331088,-82.964,-0.297,180.386
7.9826,128.181299,37.946099,6978.611493599999,-83.494,-0.334,180.36
7.9993,128.181297,37.946051,6978.4877448,-84.127,-0.377,180.37
8.016,128.181296,37.946003,6978.362472,-84.859,-0.424,180.407
8.0327,128.181294,37.945954,6978.235065600001,-85.689,-0.472,180.459
8.0494,128.181293,37.945906,6978.1055256,-86.614,-0.519,180.517
8.0661,128.181291,37.945858,6977.973852000001,-87.63,-0.565,180.577
8.0828,128.18129,37.94581,6977.8400448,-88.734,-0.61,180.635
8.0994,128.181289,37.945762,6977.7037992000005,-89.922,-0.653,180.69
8.1161,128.181287,37.945713,6977.565115200001,-91.192,-0.694,180.741
8.1329,128.181286,37.945665,6977.423992800001,-92.541,-0.735,180.788
8.1496,128.181285,37.945617,6977.280127200001,-93.964,-0.773,180.83
8.1663,128.181284,37.945569,6977.1332136,-95.46,-0.811,180.867
8.183,128.181283,37.945521,6976.983556800001,-97.025,-0.847,180.901
8.1997,128.181282,37.945473,6976.8299376,-98.481,-0.874,180.912
8.2164,128.181282,37.945424,6976.673270400001,-99.853,-0.897,180.886
8.2331,128.181281,37.945376,6976.513860000001,-101.183,-0.926,180.809
8.2498,128.18128,37.945328,6976.351096800001,-102.509,-0.974,180.668
8.2665,128.18128,37.94528,6976.184676,-103.868,-1.046,180.454
8.2831,128.181279,37.945232,6976.0142928000005,-105.287,-1.149,180.16
8.2998,128.181279,37.945184,6975.8393376,-106.765,-1.286,179.779
8.3166,128.181278,37.945135,6975.659505600001,-108.302,-1.454,179.323
8.3333,128.181278,37.945087,6975.474492,-109.896,-1.653,178.81
8.35,128.181278,37.945039,6975.283992000001,-111.541,-1.879,178.255
8.3667,128.181278,37.944991,6975.087396000001,-113.235,-2.128,177.677
8.3834,128.181278,37.944943,6974.8843992,-114.972,-2.395,177.099
8.4001,128.181278,37.944895,6974.674392000001,-116.75,-2.673,176.538
8.4168,128.181278,37.944847,6974.457069600001,-118.567,-2.954,176.015
8.4335,128.181279,37.944798,6974.2318224,-120.421,-3.226,175.547
8.4502,128.181279,37.94475,6973.9983456,-122.311,-3.487,175.135
8.4668,128.18128,37.944702,6973.755724800001,-124.237,-3.74,174.774
8.4835,128.181281,37.944654,6973.5027408000005,-126.005,-3.966,174.442
8.5003,128.181282,37.944606,6973.240308,-127.624,-4.168,174.135
8.517,128.181283,37.944558,6972.9684264,-129.088,-4.351,173.855
8.5337,128.181284,37.94451,6972.686791200001,-130.397,-4.52,173.603
8.5504,128.181285,37.944462,6972.3957072,-131.554,-4.678,173.38
8.5671,128.181287,37.944414,6972.0951744,-132.563,-4.828,173.181
8.5838,128.181288,37.944365,6971.785192800001,-133.434,-4.97,173.005
8.6005,128.18129,37.944317,6971.4654576,-134.173,-5.105,172.848
8.6172,128.181291,37.944269,6971.136578400001,-134.787,-5.235,172.706
8.6339,128.181293,37.944221,6970.798555200001,-135.284,-5.358,172.579
8.6505,128.181295,37.944173,6970.451388,-135.67,-5.477,172.462
8.6672,128.181297,37.944125,6970.0956864,-135.95,-5.592,172.354
8.684,128.181299,37.944077,6969.7308408,-136.13,-5.702,172.254
8.7007,128.181301,37.944029,6969.3580704000005,-136.214,-5.81,172.16
8.7174,128.181303,37.943981,6968.976765600001,-136.207,-5.914,172.071
8.7341,128.181305,37.943933,6968.587536,-136.111,-6.016,171.986
8.7508,128.181307,37.943885,6968.1903816,-135.933,-6.115,171.903
8.7675,128.18131,37.943837,6967.785912,-135.673,-6.212,171.823
8.7842,128.181312,37.943788,6967.3735176,-135.336,-6.308,171.744
8.8009,128.181315,37.94374,6966.9528936,-134.925,-6.402,171.665
8.8176,128.181317,37.943692,6966.5246496,-134.442,-6.496,171.587
8.8342,128.18132,37.943644,6966.0884808,-133.889,-6.588,171.507
8.8509,128.181322,37.943596,6965.644692000001,-133.27,-6.679,171.426
8.8676,128.181325,37.943548,6965.1926736000005,-132.586,-6.77,171.344
8.8844,128.181328,37.9435,6964.7330352,-131.839,-6.86,171.259
8.9011,128.181331,37.943452,6964.265472,-131.031,-6.949,171.171
8.9178,128.181334,37.943404,6963.7902888,-130.163,-7.038,171.08
8.9345,128.181337,37.943356,6963.3071808,-129.239,-7.127,170.985
8.9512,128.18134,37.943308,6962.8158432,-128.265,-7.215,170.886
8.9679,128.181343,37.94326,6962.3162760000005,-127.253,-7.304,170.783
8.9846,128.181347,37.943211,6961.808174400001,-126.217,-7.393,170.676
9.0013,128.18135,37.943163,6961.2927576,-125.315,-7.506,170.565
9.0179,128.181354,37.943115,6960.7685016000005,-124.542,-7.642,170.446
9.0346,128.181357,37.943067,6960.235406400001,-123.901,-7.796,170.319
9.0513,128.181361,37.943019,6959.6931672,-123.397,-7.959,170.185
9.0681,128.181365,37.942971,6959.1414792000005,-123.028,-8.124,170.046
9.0848,128.181369,37.942923,6958.580037600001,-122.792,-8.29,169.904
9.1015,128.181373,37.942875,6958.0091472,-122.684,-8.454,169.761
9.1182,128.181377,37.942827,6957.4281984,-122.7,-8.616,169.617
9.1349,128.181382,37.94278,6956.8368864,-122.835,-8.775,169.475
9.1516,128.181386,37.942732,6956.235516,-123.082,-8.931,169.334
9.1683,128.181391,37.942684,6955.6231728,-123.438,-9.086,169.195
9.185,128.181396,37.942636,6955.0001616,-123.898,-9.239,169.059
9.2016,128.181401,37.942588,6954.3658728,-124.457,-9.392,168.924
9.2183,128.181406,37.94254,6953.720001600001,-125.111,-9.544,168.792
9.235,128.181411,37.942493,6953.0622432,-125.857,-9.698,168.663
9.2518,128.181417,37.942445,6952.3929024,-126.69,-9.852,168.535
9.2685,128.181422,37.942397,6951.7116744,-127.608,-10.009,168.41
9.2852,128.181428,37.942349,6951.0179496,-128.608,-10.168,168.288
9.3019,128.181434,37.942302,6950.3123376,-129.687,-10.33,168.168
9.3186,128.18144,37.942254,6949.593924000001,-130.843,-10.496,168.05
9.3353,128.181446,37.942207,6948.8630136,-132.072,-10.665,167.936
9.352,128.181452,37.942159,6948.118996800001,-133.373,-10.838,167.824
9.3687,128.181458,37.942112,6947.361873600001,-134.744,-11.015,167.716
9.3854,128.181465,37.942064,6946.591644,-136.183,-11.198,167.612
9.402,128.181472,37.942017,6945.8080032,-137.689,-11.385,167.511
9.4187,128.181478,37.941969,6945.0103416,-139.258,-11.578,167.415
9.4355,128.181485,37.941922,6944.1986592,-140.707,-11.75,167.316
9.4522,128.181492,37.941875,6943.373870400001,-142.041,-11.891,167.223
9.4689,128.181499,37.941827,6942.5368896,-143.257,-11.992,167.152
9.4856,128.181506,37.94178,6941.6883264,-144.352,-12.046,167.115
9.5023,128.181514,37.941733,6940.8281808,-145.329,-12.044,167.121
9.519,128.181521,37.941685,6939.9579768,-146.193,-11.972,167.18
9.5357,128.181528,37.941638,6939.0777144,-146.945,-11.842,167.282
9.5524,128.181536,37.941591,6938.1876984,-147.591,-11.668,167.415
9.5691,128.181543,37.941544,6937.289148,-148.132,-11.466,167.567
9.5857,128.181551,37.941497,6936.3823680000005,-148.572,-11.253,167.726
9.6024,128.181558,37.941449,6935.467968,-148.915,-11.044,167.88
9.6192,128.181566,37.941402,6934.5465576,-149.165,-10.853,168.022
9.6359,128.181573,37.941355,6933.618441600001,-149.325,-10.681,168.151
9.6526,128.181581,37.941308,6932.6848392,-149.4,-10.527,168.267
9.6693,128.181589,37.941261,6931.7460552,-149.393,-10.388,168.372
9.686,128.181597,37.941214,6930.8023944,-149.308,-10.261,168.469
9.7027,128.181604,37.941166,6929.8547712,-149.148,-10.146,168.559
9.7194,128.181612,37.941119,6928.9031856,-148.915,-10.039,168.643
9.7361,128.18162,37.941072,6927.947942400001,-148.613,-9.941,168.721
9.7528,128.181628,37.941025,6926.988736800001,-148.243,-9.851,168.795
9.7694,128.181635,37.940978,6926.0264832,-147.808,-9.767,168.865
9.7861,128.181643,37.940931,6925.060572,-147.311,-9.69,168.932
9.8029,128.181651,37.940883,6924.0916128,-146.754,-9.618,168.995
9.8196,128.181659,37.940836,6923.119605600001,-146.14,-9.551,169.056
9.8363,128.181667,37.940789,6922.1445504,-145.469,-9.488,169.115
9.853,128.181675,37.940742,6921.166752000001,-144.744,-9.43,169.171
9.8697,128.181683,37.940694,6920.1859056,-143.968,-9.375,169.226
9.8864,128.18169,37.940647,6919.202316,-143.141,-9.324,169.279
9.9031,128.181698,37.9406,6918.2162880000005,-142.267,-9.275,169.331
9.9198,128.181706,37.940553,6917.2275168,-141.346,-9.23,169.382
9.9365,128.181714,37.940505,6916.2360024,-140.379,-9.187,169.432
9.9531,128.181722,37.940458,6915.2420496,-139.37,-9.146,169.481
9.9698,128.18173,37.940411,6914.2456584,-138.318,-9.108,169.53
9.9865,128.181738,37.940364,6913.247133600001,-137.437,-9.086,169.594
10.0033,128.181746,37.940316,6912.245865600001,-136.718,-9.082,169.676
10.02,128.181754,37.940269,6911.2412448000005,-136.167,-9.091,169.767
10.0367,128.181762,37.940222,6910.2329664,-135.787,-9.106,169.861
10.0534,128.18177,37.940174,6909.2207256,-135.579,-9.124,169.956
10.0701,128.181778,37.940127,6908.2048272,-135.539,-9.143,170.047
10.0868,128.181787,37.94008,6907.1849664,-135.661,-9.164,170.135
10.1035,128.181795,37.940032,6906.160533600001,-135.939,-9.186,170.219
10.1202,128.181803,37.939985,6905.132138400001,-136.364,-9.21,170.298
10.1368,128.181811,37.939938,6904.0988664,-136.932,-9.235,170.374
10.1535,128.181819,37.939891,6903.0610224,-137.634,-9.261,170.445
10.1702,128.181828,37.939843,6902.018301600001,-138.466,-9.289,170.513
10.187,128.181836,37.939796,6900.9703992,-139.422,-9.319,170.576
10.2037,128.181844,37.939749,6899.917620000001,-140.496,-9.35,170.636
10.2204,128.181853,37.939701,6898.859049600001,-141.684,-9.383,170.692
10.2371,128.181861,37.939654,6897.794992800001,-142.98,-9.418,170.745
10.2538,128.18187,37.939607,6896.7254496000005,-144.381,-9.454,170.795
10.2705,128.181878,37.93956,6895.6495056,-145.881,-9.493,170.841
10.2872,128.181887,37.939512,6894.56838,-147.477,-9.533,170.885
10.3039,128.181895,37.939465,6893.481463200001,-149.165,-9.575,170.926
10.3205,128.181904,37.939418,6892.388755200001,-150.94,-9.619,170.965
10.3372,128.181912,37.939371,6891.290865600001,-152.798,-9.664,171.001
10.3539,128.181921,37.939324,6890.1871848,-154.736,-9.712,171.036
10.3707,128.181929,37.939277,6889.078322400001,-156.75,-9.76,171.069
10.3874,128.181938,37.939229,6887.963973600001,-158.836,-9.811,171.101
10.4041,128.181947,37.939182,6886.844138400001,-160.99,-9.862,171.131
10.4208,128.181955,37.939135,6885.7191216,-163.209,-9.915,171.161
10.4375,128.181964,37.939088,6884.588923200001,-165.267,-9.962,171.167
10.4542,128.181973,37.939041,6883.4544576,-167.169,-10.004,171.146
10.4709,128.181981,37.938994,6882.3160296,-168.907,-10.043,171.109
10.4876,128.18199,37.938947,6881.173944,-170.472,-10.083,171.067
10.5042,128.181999,37.938899,6880.0285056,-171.862,-10.123,171.024
10.5209,128.182008,37.938852,6878.880324000001,-173.081,-10.165,170.983
10.5376,128.182016,37.938805,6877.7293992,-174.134,-10.21,170.944
10.5544,128.182025,37.938758,6876.5763408,-175.027,-10.255,170.908
10.5711,128.182034,37.938711,6875.4211488,-175.768,-10.303,170.874
10.5878,128.182042,37.938664,6874.264128000001,-176.363,-10.351,170.842
10.6045,128.182051,37.938617,6873.105888000001,-176.818,-10.4,170.81
10.6212,128.18206,37.93857,6871.946733600001,-177.138,-10.448,170.78
10.6379,128.182069,37.938522,6870.786664800001,-177.33,-10.497,170.751
10.6546,128.182077,37.938475,6869.6259864,-177.398,-10.545,170.723
10.6713,128.182086,37.938428,6868.4650032,-177.347,-10.591,170.696
10.6879,128.182095,37.938381,6867.304324800001,-177.183,-10.637,170.67
10.7046,128.182104,37.938334,6866.143646400001,-176.91,-10.681,170.645
10.7213,128.182112,37.938286,6864.9835776,-176.534,-10.722,170.62
10.7381,128.182121,37.938239,6863.8235088,-176.058,-10.762,170.597
10.7548,128.18213,37.938192,6862.66344,-175.488,-10.8,170.574
10.7715,128.182139,37.938145,6861.5030664,-174.827,-10.836,170.551
10.7882,128.182148,37.938097,6860.342997600001,-174.079,-10.87,170.529
10.8049,128.182156,37.93805,6859.1823192,-173.25,-10.901,170.508
10.8216,128.182165,37.938003,6858.021640800001,-172.342,-10.93,170.487
10.8383,128.182174,37.937955,6856.8606576,-171.36,-10.957,170.467
10.855,128.182183,37.937908,6855.699064800001,-170.307,-10.982,170.448
10.8717,128.182192,37.937861,6854.5371672,-169.186,-11.004,170.429
10.8883,128.1822,37.937813,6853.37466,-168.0,-11.023,170.411
10.905,128.182209,37.937766,6852.2115432,-166.754,-11.041,170.394
10.9218,128.182218,37.937718,6851.047512,-165.45,-11.056,170.378
10.9385,128.182227,37.937671,6849.8828712,-164.09,-11.068,170.362
10.9552,128.182236,37.937624,6848.717316,-162.679,-11.079,170.348
10.9719,128.182244,37.937576,6847.5511512,-161.218,-11.087,170.334
10.9886,128.182253,37.937529,6846.3834624,-159.71,-11.094,170.321
11.0053,128.182262,37.937481,6845.215164,-158.157,-11.098,170.31
11.022,128.182271,37.937434,6844.045341600001,-156.562,-11.1,170.3
11.0387,128.18228,37.937386,6842.8743,-155.151,-11.111,170.314
11.0554,128.182288,37.937339,6841.701124800001,-153.914,-11.132,170.353
11.072,128.182297,37.937291,6840.5255112,-152.86,-11.158,170.407
11.0887,128.182306,37.937243,6839.3471544,-151.993,-11.187,170.468
11.1054,128.182315,37.937196,6838.1654448,-151.314,-11.215,170.529
11.1222,128.182324,37.937148,6836.9800776,-150.818,-11.244,170.587
11.1389,128.182333,37.937101,6835.7913576,-150.496,-11.271,170.644
11.1556,128.182342,37.937053,6834.598370400001,-150.342,-11.299,170.697
11.1723,128.18235,37.937006,6833.401116,-150.346,-11.327,170.748
11.189,128.182359,37.936958,6832.1995944,-150.501,-11.356,170.797
11.2057,128.182368,37.936911,6830.9935008,-150.801,-11.386,170.843
11.2224,128.182377,37.936863,6829.7822256,-151.238,-11.417,170.888
11.2391,128.182386,37.936816,6828.5657688,-151.806,-11.448,170.931
11.2557,128.182395,37.936768,6827.3441304,-152.5,-11.481,170.972
11.2724,128.182404,37.936721,6826.1167008,-153.314,-11.515,171.011
11.2891,128.182413,37.936673,6824.8834799999995,-154.243,-11.551,171.049
11.3059,128.182422,37.936626,6823.6438584,-155.281,-11.587,171.085
11.3226,128.182431,37.936578,6822.3981408,-156.424,-11.625,171.119
11.3393,128.18244,37.936531,6821.1463272,-157.666,-11.663,171.152
11.356,128.182449,37.936483,6819.8887224,-159.003,-11.703,171.183
11.3727,128.182458,37.936436,6818.6250216,-160.431,-11.744,171.213
11.3894,128.182468,37.936388,6817.3555295999995,-161.946,-11.786,171.243
11.4061,128.182477,37.936341,6816.079941600001,-163.542,-11.828,171.271
11.4228,128.182486,37.936294,6814.7985624,-165.217,-11.872,171.299
11.4394,128.182495,37.936246,6813.511392,-166.965,-11.916,171.327
11.4561,128.182504,37.936199,6812.2184304,-168.784,-11.96,171.354
11.4728,128.182513,37.936151,6810.919677600001,-170.669,-12.005,171.38
11.4896,128.182523,37.936104,6809.615133600001,-172.616,-12.051,171.407
11.5063,128.182532,37.936057,6808.3047983999995,-174.623,-12.096,171.433
11.523,128.182541,37.936009,6806.988672,-176.685,-12.141,171.46
11.5397,128.18255,37.935962,6805.667668800001,-178.569,-12.185,171.459
11.5564,128.182559,37.935915,6804.3420936,179.718,-12.229,171.43
11.5731,128.182568,37.935867,6803.011946400001,178.188,-12.272,171.385
11.5898,128.182578,37.93582,6801.6778368000005,176.848,-12.315,171.334
11.6065,128.182587,37.935773,6800.340069600001,175.698,-12.359,171.284
11.6231,128.182596,37.935725,6798.9989496,174.735,-12.403,171.237
11.6398,128.182605,37.935678,6797.6547816,173.951,-12.448,171.194
11.6565,128.182614,37.935631,6796.307870400001,173.338,-12.493,171.154
11.6733,128.182623,37.935584,6794.9588256,172.887,-12.54,171.116
11.69,128.182633,37.935536,6793.607342400001,172.592,-12.586,171.08
11.7067,128.182642,37.935489,6792.2543352,172.445,-12.632,171.045
11.7234,128.182651,37.935442,6790.899804000001,172.44,-12.678,171.011
11.7401,128.18266,37.935394,6789.544053600001,172.571,-12.723,170.978
11.7568,128.182669,37.935347,6788.1876936,172.831,-12.767,170.946
11.7735,128.182679,37.935299,6786.8304192000005,173.214,-12.81,170.914
11.7902,128.182688,37.935252,6785.4731448,173.716,-12.852,170.884
11.8068,128.182697,37.935205,6784.115565600001,174.33,-12.892,170.854
11.8235,128.182706,37.935157,6782.758596000001,175.052,-12.93,170.824
11.8402,128.182716,37.93511,6781.4010168,175.875,-12.966,170.795
11.857,128.182725,37.935062,6780.0434376,176.795,-13.0,170.766
11.8737,128.182734,37.935015,6778.6855536,177.808,-13.032,170.738
11.8904,128.182743,37.934967,6777.3273648,178.908,-13.062,170.71
11.9071,128.182753,37.93492,6775.9688712,-179.907,-13.09,170.682
11.9238,128.182762,37.934872,6774.609768,-178.644,-13.116,170.655
11.9405,128.182771,37.934825,6773.250360000001,-177.307,-13.14,170.629
11.9572,128.18278,37.934777,6771.890647200001,-175.898,-13.161,170.602
11.9739,128.18279,37.93473,6770.530020000001,-174.423,-13.18,170.577
11.9905,128.182799,37.934682,6769.169088000001,-172.883,-13.197,170.551
12.0072,128.182808,37.934635,6767.8072416,-171.283,-13.212,170.527
12.0239,128.182818,37.934587,6766.4447856,-169.627,-13.224,170.503
12.0407,128.182827,37.934539,6765.081415200001,-167.916,-13.234,170.48
12.0574,128.182836,37.934492,6763.7171304,-166.155,-13.243,170.458
12.0741,128.182846,37.934444,6762.3516264,-164.579,-13.256,170.463
12.0908,128.182855,37.934396,6760.9839888,-163.179,-13.275,170.498
12.1075,128.182864,37.934349,6759.6139128,-161.965,-13.299,170.548
12.1242,128.182873,37.934301,6758.2413983999995,-160.943,-13.323,170.605
12.1409,128.182883,37.934253,6756.8655312,-160.113,-13.347,170.661
12.1576,128.182892,37.934206,6755.486616,-159.471,-13.37,170.715
12.1743,128.182901,37.934158,6754.103738400001,-159.006,-13.394,170.765
12.1909,128.182911,37.93411,6752.7165936,-158.712,-13.417,170.812
12.2076,128.18292,37.934063,6751.3254864,-158.579,-13.442,170.857
12.2243,128.182929,37.934015,6749.929502399999,-158.6,-13.467,170.9
12.2411,128.182939,37.933967,6748.528946400001,-158.767,-13.493,170.941
12.2578,128.182948,37.93392,6747.123208800001,-159.074,-13.52,170.981
12.2745,128.182958,37.933872,6745.71168,-159.515,-13.549,171.02
12.2912,128.182967,37.933824,6744.2949696000005,-160.083,-13.578,171.057
12.3079,128.182976,37.933777,6742.872163200001,-160.772,-13.609,171.093
12.3246,128.182986,37.933729,6741.442956000001,-161.578,-13.641,171.127
12.3413,128.182995,37.933681,6740.007348,-162.495,-13.674,171.16
12.358,128.183005,37.933634,6738.5650344,-163.518,-13.708,171.192
12.3746,128.183014,37.933586,6737.116624800001,-164.641,-13.743,171.222
12.3913,128.183024,37.933538,6735.6618144,-165.861,-13.779,171.252
12.408,128.183033,37.933491,6734.2006032,-167.172,-13.815,171.281
12.4248,128.183043,37.933443,6732.733296,-168.571,-13.852,171.309
12.4415,128.183052,37.933396,6731.259892800001,-170.052,-13.89,171.337
12.4582,128.183062,37.933348,6729.7800888,-171.612,-13.929,171.364
12.4749,128.183071,37.9333,6728.2941888,-173.247,-13.968,171.391
12.4916,128.183081,37.933253,6726.801888000001,-174.952,-14.007,171.418
12.5083,128.18309,37.933205,6725.303796,-176.724,-14.046,171.445
12.525,128.1831,37.933158,6723.799608,-178.558,-14.085,171.472
12.5417,128.183109,37.93311,6722.2890192,179.547,-14.124,171.498
12.5583,128.183119,37.933063,6720.7726391999995,177.597,-14.163,171.525
12.575,128.183128,37.933015,6719.251077600001,175.832,-14.203,171.521
12.5917,128.183138,37.932968,6717.7246392,174.247,-14.245,171.485
12.6085,128.183147,37.93292,6716.193324000001,172.854,-14.288,171.433
12.6252,128.183157,37.932873,6714.658046400001,171.661,-14.331,171.377
12.6419,128.183166,37.932825,6713.118501600001,170.668,-14.375,171.323
12.6586,128.183176,37.932778,6711.5752992,169.87,-14.418,171.273
12.6753,128.183185,37.93273,6710.0290488,169.257,-14.462,171.228
12.692,128.183194,37.932683,6708.4794456,168.82,-14.506,171.185
12.7087,128.183204,37.932635,6706.927404,168.551,-14.55,171.145
12.7254,128.183213,37.932588,6705.373228800001,168.441,-14.595,171.106
12.742,128.183223,37.93254,6703.816920000001,168.484,-14.639,171.068
12.7587,128.183232,37.932492,6702.2587824,168.671,-14.683,171.032
12.7754,128.183242,37.932445,6700.6994256,168.998,-14.726,170.996
12.7922,128.183251,37.932397,6699.1388496,169.456,-14.768,170.961
12.8089,128.183261,37.93235,6697.577664,170.041,-14.809,170.926
12.8256,128.183271,37.932302,6696.016173600001,170.746,-14.849,170.893
12.8423,128.18328,37.932254,6694.454073600001,171.565,-14.887,170.859
12.859,128.18329,37.932207,6692.8925832,172.492,-14.923,170.826
12.8757,128.183299,37.932159,6691.3301784000005,173.523,-14.957,170.794
12.8924,128.183309,37.932111,6689.7677736000005,174.652,-14.989,170.762
12.9091,128.183318,37.932064,6688.204759200001,175.874,-15.019,170.73
12.9257,128.183328,37.932016,6686.6417448,177.185,-15.048,170.699
12.9424,128.183337,37.931968,6685.077816,178.578,-15.074,170.668
12.9591,128.183347,37.93192,6683.513887200001,-179.948,-15.098,170.637
12.9759,128.183357,37.931873,6681.947215200001,-178.654,-15.137,170.629
12.9926,128.183366,37.931825,6680.378714400001,-177.532,-15.208,170.643
13.0093,128.183376,37.931777,6678.8068608,-176.579,-15.329,170.673
13.026,128.183385,37.931729,6677.2310448,-175.799,-15.515,170.708
13.0427,128.183395,37.931681,6675.650047200001,-175.193,-15.779,170.74
13.0594,128.183405,37.931633,6674.0629536,-174.756,-16.132,170.763
13.0761,128.183414,37.931586,6672.4679352,-174.483,-16.583,170.773
13.0928,128.183424,37.931538,6670.8668208,-174.127,-17.113,170.736
13.1095,128.183434,37.93149,6669.2580864,-173.691,-17.704,170.655
13.1262,128.183443,37.931442,6667.6414272,-173.157,-18.336,170.546
13.1429,128.183453,37.931395,6666.0168432,-172.517,-18.985,170.424
13.1596,128.183462,37.931347,6664.383724800001,-171.791,-19.63,170.298
13.1763,128.183472,37.931299,6662.739938400001,-171.005,-20.247,170.175
13.193,128.183482,37.931251,6661.085484000001,-170.187,-20.815,170.059
13.2097,128.183491,37.931204,6659.419447200001,-169.361,-21.315,169.953
13.2264,128.183501,37.931156,6657.740608800001,-168.547,-21.756,169.854
13.2431,128.183511,37.931108,6656.048664000001,-167.757,-22.152,169.759
13.2598,128.18352,37.93106,6654.3423936,-166.998,-22.513,169.666
13.2765,128.18353,37.931013,6652.621492800001,-166.274,-22.849,169.573
13.2932,128.18354,37.930965,6650.8862664,-165.587,-23.165,169.478
13.3099,128.18355,37.930918,6649.1358,-164.936,-23.464,169.383
13.3266,128.183559,37.93087,6647.3703984,-164.321,-23.75,169.286
13.3433,128.183569,37.930823,6645.5900616,-163.74,-24.023,169.188
13.36,128.183579,37.930775,6643.79418,-163.192,-24.285,169.089
13.3767,128.183589,37.930728,6641.9827536,-162.675,-24.538,168.989
13.3934,128.183599,37.930681,6640.156087200001,-162.187,-24.781,168.888
13.4101,128.183609,37.930634,6638.3147904,-161.636,-25.015,168.779
13.4268,128.183619,37.930586,6636.4588632,-161.028,-25.239,168.663
13.4435,128.183629,37.930539,6634.588610400001,-160.376,-25.456,168.543
13.4602,128.183639,37.930492,6632.7046416,-159.695,-25.666,168.423
13.4769,128.183649,37.930445,6630.805128000001,-158.999,-25.871,168.305
13.4936,128.18366,37.930398,6628.890374400001,-158.302,-26.072,168.189
13.5103,128.18367,37.930351,6626.960076,-157.615,-26.268,168.074
13.527,128.18368,37.930304,6625.014537600001,-156.948,-26.46,167.96
13.5437,128.18369,37.930257,6623.0531496,-156.308,-26.648,167.846
13.5604,128.183701,37.93021,6621.075912,-155.701,-26.832,167.732
13.5771,128.183711,37.930164,6619.082824800001,-155.129,-27.013,167.617
13.5938,128.183722,37.930117,6617.074192800001,-154.594,-27.191,167.5
13.6105,128.183732,37.93007,6615.049711200001,-154.095,-27.366,167.382
13.6272,128.183743,37.930024,6613.0093799999995,-153.632,-27.539,167.263
13.6439,128.183753,37.929977,6610.953504,-153.202,-27.709,167.142
13.6606,128.183764,37.929931,6608.8817784,-152.805,-27.877,167.019
13.6773,128.183775,37.929884,6606.7948128,-152.435,-28.045,166.898
13.694,128.183786,37.929838,6604.6923024,-152.09,-28.211,166.776
13.7107,128.183797,37.929792,6602.574247200001,-151.77,-28.377,166.655
13.7274,128.183808,37.929746,6600.440952000001,-151.472,-28.541,166.533
13.7441,128.183819,37.9297,6598.2924168,-151.195,-28.704,166.41
13.7608,128.18383,37.929654,6596.1286416,-150.938,-28.866,166.286
13.7775,128.183841,37.929608,6593.9493216,-150.697,-29.026,166.162
13.7942,128.183852,37.929562,6591.7553712,-150.472,-29.185,166.037
13.8109,128.183864,37.929516,6589.545876,-150.261,-29.343,165.911
13.8276,128.183875,37.92947,6587.3214456000005,-150.061,-29.5,165.785
13.8443,128.183886,37.929424,6585.08208,-149.872,-29.657,165.658
13.861,128.183898,37.929379,6582.827779200001,-149.692,-29.812,165.531
13.8777,128.18391,37.929333,6580.5585432,-149.521,-29.966,165.404
13.8944,128.183921,37.929287,6578.274372,-149.357,-30.12,165.276
13.9111,128.183933,37.929242,6575.975570400001,-149.199,-30.273,165.148
13.9278,128.183945,37.929197,6573.6615288,-149.048,-30.425,165.02
13.9445,128.183957,37.929151,6571.3331616,-148.902,-30.577,164.892
13.9612,128.183968,37.929106,6568.9898592,-148.76,-30.728,164.764
13.9779,128.18398,37.929061,6566.6316216000005,-148.623,-30.879,164.636
13.9946,128.183993,37.929016,6564.2590584,-148.49,-31.029,164.507
14.0113,128.184005,37.928971,6561.8715600000005,-148.36,-31.178,164.379
14.028,128.184017,37.928926,6559.4694312,-148.234,-31.327,164.25
14.0447,128.184029,37.928881,6557.052672,-148.11,-31.476,164.122
14.0614,128.184041,37.928836,6554.6215872,-147.99,-31.625,163.993
14.0781,128.184054,37.928791,6552.175872,-147.872,-31.773,163.864
14.0948,128.184066,37.928746,6549.7155264,-147.756,-31.92,163.736
14.1115,128.184079,37.928702,6547.240855200001,-147.643,-32.068,163.607
14.1282,128.184091,37.928657,6544.7515536,-147.532,-32.215,163.478
14.1449,128.184104,37.928613,6542.2479264,-147.423,-32.361,163.349
14.1616,128.184117,37.928568,6539.729668800001,-147.315,-32.508,163.22
14.1783,128.18413,37.928524,6537.197390400001,-147.21,-32.654,163.091
14.195,128.184143,37.92848,6534.650481600001,-147.105,-32.8,162.961
14.2117,128.184156,37.928436,6532.0892472000005,-147.003,-32.946,162.832
14.2284,128.184169,37.928392,6529.513992,-146.902,-33.092,162.703
14.2451,128.184182,37.928347,6526.924106400001,-146.802,-33.237,162.573
14.2618,128.184195,37.928304,6524.3202,-146.704,-33.382,162.443
14.2785,128.184208,37.92826,6521.701968,-146.607,-33.528,162.314
14.2952,128.184222,37.928216,6519.069715200001,-146.512,-33.673,162.184
14.3119,128.184235,37.928172,6516.4231368,-146.417,-33.818,162.054
14.3286,128.184248,37.928128,6513.7625376000005,-146.323,-33.962,161.924
14.3453,128.184262,37.928085,6511.0879176,-146.231,-34.107,161.793
14.362,128.184276,37.928041,6508.398972,-146.139,-34.252,161.663
14.3787,128.184289,37.927998,6505.696005600001,-146.049,-34.396,161.533
14.3954,128.184303,37.927955,6502.9790184,-145.959,-34.541,161.402
14.4121,128.184317,37.927911,6500.2483152,-145.87,-34.685,161.272
14.4288,128.184331,37.927868,6497.5032864,-145.781,-34.83,161.141
14.4455,128.184345,37.927825,6494.7445416,-145.694,-34.975,161.011
14.4622,128.184359,37.927782,6491.971776,-145.607,-35.12,160.881
14.4789,128.184373,37.927739,6489.1849896,-145.521,-35.264,160.75
14.4956,128.184387,37.927696,6486.384487200001,-145.435,-35.409,160.62
14.5123,128.184401,37.927654,6483.5702688,-145.35,-35.554,160.489
14.529,128.184416,37.927611,6480.7420296,-145.266,-35.699,160.359
14.5457,128.18443,37.927568,6477.9000744,-145.183,-35.844,160.228
14.5624,128.184444,37.927526,6475.0444032,-145.1,-35.989,160.098
14.5791,128.184459,37.927483,6472.175016,-145.018,-36.135,159.967
14.5958,128.184474,37.927441,6469.291608,-144.937,-36.28,159.836
14.6125,128.184488,37.927399,6466.3947888,-144.856,-36.425,159.706
14.6292,128.184503,37.927357,6463.4842536,-144.776,-36.57,159.575
14.6459,128.184518,37.927315,6460.5600024,-144.696,-36.716,159.444
14.6626,128.184533,37.927273,6457.62234,-144.616,-36.861,159.312
14.6793,128.184548,37.927231,6454.6709616,-144.538,-37.007,159.181
14.696,128.184563,37.927189,6451.7058672,-144.459,-37.152,159.05
14.7127,128.184578,37.927147,6448.7273616,-144.381,-37.298,158.918
14.7294,128.184593,37.927105,6445.735444800001,-144.304,-37.443,158.786
14.7461,128.184608,37.927064,6442.729812,-144.226,-37.589,158.654
14.7628,128.184624,37.927022,6439.711072800001,-144.149,-37.735,158.522
14.7795,128.184639,37.926981,6436.6786176000005,-144.073,-37.88,158.39
14.7962,128.184654,37.92694,6433.632751200001,-143.997,-38.026,158.257
14.8129,128.18467,37.926898,6430.5734736,-143.921,-38.172,158.124
14.8296,128.184685,37.926857,6427.5010896,-143.845,-38.318,157.991
14.8463,128.184701,37.926816,6424.4149896,-143.769,-38.463,157.858
14.863,128.184717,37.926775,6421.315783200001,-143.694,-38.609,157.724
14.8797,128.184733,37.926734,6418.203165600001,-143.618,-38.755,157.591
14.8964,128.184749,37.926694,6415.0774416,-143.543,-38.901,157.457
14.9131,128.184765,37.926653,6411.9383064,-143.468,-39.047,157.322
14.9298,128.184781,37.926612,6408.7860648000005,-143.393,-39.193,157.188
14.9465,128.184797,37.926572,6405.6207168,-143.318,-39.339,157.053
14.9632,128.184813,37.926531,6402.4419576,-143.243,-39.485,156.918
14.9799,128.184829,37.926491,6399.250396800001,-143.168,-39.631,156.783
14.9966,128.184845,37.926451,6396.045424800001,-143.093,-39.777,156.647
15.0133,128.184862,37.926411,6392.8273464,-143.018,-39.923,156.511
15.03,128.184878,37.926371,6389.5964664,-142.943,-40.069,156.375
15.0467,128.184895,37.926331,6386.3521752,-142.868,-40.215,156.238
15.0634,128.184911,37.926291,6383.0950824,-142.793,-40.361,156.101
15.0801,128.184928,37.926251,6379.824883200001,-142.717,-40.507,155.964
15.0968,128.184944,37.926212,6376.541882400001,-142.642,-40.653,155.826
15.1135,128.184961,37.926172,6373.2457752,-142.567,-40.799,155.688
15.1302,128.184978,37.926133,6369.9368664,-142.491,-40.945,155.55
15.1469,128.184995,37.926093,6366.614851200001,-142.415,-41.091,155.411
15.1636,128.185012,37.926054,6363.2800344,-142.339,-41.237,155.272
15.1803,128.185029,37.926015,6359.932416,-142.263,-41.383,155.133
