Time,Longitude,Latitude,Altitude,Roll (deg),Pitch (deg),Yaw (deg)
0.0,128.181881,37.968463,7002.830292000001,0.0,-0.003,179.999
0.0167,128.181881,37.968418,7002.8116992000005,0.0,-0.012,180.0
0.0334,128.181881,37.968374,7002.792496800001,0.0,-0.025,180.0
0.0501,128.181881,37.968329,7002.7720752,0.0,-0.04,180.0
0.0668,128.181881,37.968284,7002.751044,0.0,-0.057,180.0
0.0834,128.181881,37.968239,7002.7287936,0.0,-0.075,180.0
0.1002,128.181881,37.968194,7002.705933600001,0.0,-0.094,180.0
0.1169,128.181881,37.968149,7002.682159200001,0.001,-0.112,180.0
0.1336,128.181881,37.968104,7002.657470400001,0.001,-0.131,180.0
0.1503,128.181881,37.968059,7002.6315624,0.001,-0.149,180.0
0.1669,128.181881,37.968014,7002.6050448000005,0.002,-0.167,180.0
0.1837,128.181881,37.967969,7002.5776128,0.002,-0.185,180.0
0.2004,128.181881,37.967924,7002.5489615999995,0.002,-0.203,180.0
0.2171,128.181881,37.96788,7002.519396000001,0.003,-0.22,180.0
0.2338,128.181881,37.967835,7002.488916,0.003,-0.237,180.0
0.2505,128.181881,37.96779,7002.4575216,0.004,-0.254,180.0
0.2672,128.181881,37.967745,7002.4252128,0.004,-0.271,180.0
0.2839,128.181881,37.9677,7002.3916848,0.005,-0.287,180.0
0.3006,128.181881,37.967655,7002.3572424,0.006,-0.304,180.0
0.3172,128.181881,37.96761,7002.3218856,0.007,-0.32,180.0
0.3339,128.181881,37.967565,7002.285309600001,0.007,-0.335,180.0
0.3507,128.181881,37.967521,7002.248124000001,0.008,-0.351,180.0
0.3674,128.181881,37.967476,7002.2094144,0.009,-0.366,180.0
0.3841,128.181881,37.967431,7002.1700952,0.011,-0.381,180.0
0.4008,128.181881,37.967386,7002.1295568000005,0.012,-0.396,180.0
0.4175,128.181881,37.967341,7002.088104,0.013,-0.411,180.001
0.4342,128.181881,37.967296,7002.045432000001,0.014,-0.426,180.001
0.4509,128.181881,37.967252,7002.001845600001,0.016,-0.441,180.001
0.4676,128.181881,37.967207,7001.95704,0.018,-0.455,180.001
0.4843,128.181881,37.967162,7001.911320000001,0.019,-0.469,180.001
0.501,128.181881,37.967117,7001.8646856000005,0.021,-0.484,180.001
0.5176,128.181881,37.967072,7001.816832,0.023,-0.498,180.001
0.5344,128.181881,37.967028,7001.7677592,0.026,-0.512,180.001
0.5511,128.181881,37.966983,7001.7180768,0.028,-0.526,180.002
0.5678,128.181881,37.966938,7001.666870400001,0.031,-0.54,180.002
0.5845,128.181881,37.966893,7001.6147496,0.034,-0.553,180.002
0.6012,128.181881,37.966849,7001.561714400001,0.037,-0.567,180.002
0.6179,128.181881,37.966804,7001.507460000001,0.04,-0.581,180.002
0.6345,128.181881,37.966759,7001.4519864,0.044,-0.594,180.003
0.6513,128.181881,37.966714,7001.3955984,0.048,-0.608,180.003
0.6679,128.181881,37.96667,7001.338296000001,0.052,-0.621,180.003
0.6847,128.181881,37.966625,7001.279774400001,0.057,-0.635,180.003
0.7014,128.181881,37.96658,7001.2200336000005,0.062,-0.648,180.004
0.7181,128.181881,37.966536,7001.159378400001,0.068,-0.662,180.004
0.7348,128.181881,37.966491,7001.097504,0.073,-0.675,180.004
0.7514,128.181881,37.966446,7001.0347152,0.08,-0.688,180.005
0.7682,128.181881,37.966402,7000.9704024,0.087,-0.702,180.005
0.7848,128.181881,37.966357,7000.90548,0.094,-0.715,180.005
0.8016,128.181881,37.966312,7000.839033600001,0.103,-0.728,180.006
0.8183,128.181881,37.966268,7000.7716728000005,0.111,-0.741,180.006
0.835,128.181881,37.966223,7000.703397600001,0.121,-0.755,180.007
0.8517,128.181881,37.966179,7000.6339032,0.131,-0.768,180.008
0.8684,128.181881,37.966134,7000.5628848,0.143,-0.781,180.008
0.8851,128.181881,37.966089,7000.491256800001,0.155,-0.794,180.009
0.9018,128.181881,37.966045,7000.4181048,0.168,-0.808,180.01
0.9185,128.181881,37.966,7000.3440384000005,0.182,-0.821,180.011
0.9352,128.181881,37.965956,7000.2687528,0.198,-0.834,180.011
0.9519,128.181881,37.965911,7000.1925528,0.215,-0.847,180.012
0.9686,128.181881,37.965867,7000.1148288,0.233,-0.861,180.013
0.9853,128.181881,37.965822,7000.0361904,0.252,-0.874,180.014
1.002,128.181881,37.965778,6999.9563328,0.274,-0.887,180.016
1.0187,128.181881,37.965733,6999.8749512,0.297,-0.901,180.017
1.0353,128.181881,37.965689,6999.792960000001,0.321,-0.914,180.018
1.0521,128.181881,37.965644,6999.7094448,0.348,-0.927,180.02
1.0688,128.181881,37.9656,6999.6247104,0.378,-0.941,180.022
1.0855,128.181881,37.965555,6999.538756800001,0.409,-0.954,180.023
1.1022,128.181881,37.965511,6999.451584000001,0.443,-0.968,180.025
1.1189,128.181881,37.965466,6999.363192000001,0.481,-0.981,180.027
1.1356,128.181881,37.965422,6999.2735808,0.521,-0.995,180.03
1.1522,128.181881,37.965377,6999.1827504,0.564,-1.008,180.032
1.169,128.181881,37.965333,6999.0907008,0.611,-1.022,180.035
1.1857,128.181881,37.965288,6998.9971272,0.662,-1.036,180.037
1.2024,128.181881,37.965244,6998.9023344,0.717,-1.05,180.04
1.2191,128.181881,37.9652,6998.806322400001,0.777,-1.063,180.044
1.2358,128.181881,37.965155,6998.7087864000005,0.841,-1.077,180.047
1.2525,128.181881,37.965111,6998.6100312,0.911,-1.091,180.051
1.2691,128.18188,37.965066,6998.509752000001,0.987,-1.106,180.055
1.2859,128.18188,37.965022,6998.4079488,1.068,-1.12,180.06
1.3026,128.18188,37.964978,6998.3049264,1.157,-1.134,180.065
1.3193,128.18188,37.964933,6998.200075199999,1.253,-1.148,180.07
1.3359,128.18188,37.964889,6998.0940048,1.357,-1.163,180.076
1.3527,128.18188,37.964845,6997.986410400001,1.469,-1.178,180.082
1.3694,128.18188,37.9648,6997.8769872,1.591,-1.192,180.089
1.386,128.18188,37.964756,6997.76604,1.723,-1.207,180.096
1.4028,128.18188,37.964712,6997.6535688,1.865,-1.223,180.104
1.4195,128.18188,37.964667,6997.5392688,2.019,-1.238,180.112
1.4362,128.18188,37.964623,6997.42314,2.186,-1.253,180.122
1.4528,128.18188,37.964579,6997.3051824,2.368,-1.269,180.131
1.4696,128.18188,37.964535,6997.1850912,2.564,-1.285,180.141
1.4863,128.18188,37.96449,6997.063476,2.778,-1.301,180.152
1.5029,128.18188,37.964446,6996.939422400001,3.01,-1.318,180.162
1.5197,128.18188,37.964402,6996.81354,3.262,-1.335,180.173
1.5364,128.18188,37.964357,6996.685524,3.536,-1.352,180.184
1.5531,128.18188,37.964313,6996.555069600001,3.832,-1.369,180.196
1.5697,128.18188,37.964269,6996.422176800001,4.154,-1.387,180.208
1.5865,128.18188,37.964225,6996.286845600001,4.503,-1.405,180.22
1.6032,128.18188,37.964181,6996.149076,4.882,-1.424,180.233
1.6198,128.18188,37.964136,6996.0082584,5.294,-1.444,180.246
1.6366,128.18188,37.964092,6995.864697600001,5.74,-1.463,180.26
1.6533,128.18188,37.964048,6995.7180888,6.224,-1.484,180.274
1.67,128.18188,37.964004,6995.568432,6.749,-1.505,180.289
1.6867,128.18188,37.963959,6995.4154224,7.32,-1.527,180.305
1.7034,128.18188,37.963915,6995.260279200001,7.864,-1.549,180.316
1.7201,128.18188,37.963871,6995.1030024,8.38,-1.571,180.321
1.7368,128.18188,37.963827,6994.944506400001,8.873,-1.592,180.324
1.7535,128.18188,37.963783,6994.784486400001,9.346,-1.614,180.326
1.7702,128.18188,37.963738,6994.623552000001,9.805,-1.635,180.328
1.7869,128.18188,37.963694,6994.4610936,10.255,-1.657,180.33
1.8036,128.18188,37.96365,6994.2971112000005,10.7,-1.679,180.334
1.8203,128.18188,37.963606,6994.1313,11.145,-1.702,180.339
1.837,128.18188,37.963562,6993.9639648,11.594,-1.725,180.344
1.8537,128.18188,37.963518,6993.794496,12.049,-1.748,180.351
1.8704,128.18188,37.963474,6993.6228936,12.513,-1.772,180.358
1.8871,128.18188,37.963429,6993.4494624,12.989,-1.796,180.366
1.9038,128.18188,37.963385,6993.273897600001,13.479,-1.82,180.375
1.9205,128.18188,37.963341,6993.0961992,13.984,-1.845,180.384
1.9372,128.18188,37.963297,6992.9160624,14.505,-1.87,180.393
1.9539,128.18188,37.963253,6992.733792000001,15.043,-1.895,180.402
1.9706,128.181879,37.963209,6992.5490832000005,15.601,-1.921,180.412
1.9873,128.181879,37.963165,6992.361936,16.178,-1.947,180.422
2.004,128.181879,37.963121,6992.1723504,16.776,-1.974,180.432
2.0207,128.181879,37.963077,6991.9803264,17.396,-2.001,180.443
2.0374,128.181879,37.963032,6991.785864,18.039,-2.028,180.453
2.0541,128.181879,37.962988,6991.5886584,18.705,-2.056,180.463
2.0707,128.181879,37.962944,6991.388709600001,19.395,-2.084,180.474
2.0875,128.181879,37.9629,6991.1860176,20.111,-2.113,180.485
2.1042,128.181879,37.962856,6990.9808872,20.853,-2.143,180.495
2.1208,128.181879,37.962812,6990.772404,21.622,-2.173,180.506
2.1376,128.181879,37.962768,6990.5614824,22.419,-2.204,180.517
2.1543,128.181879,37.962724,6990.3475128,23.246,-2.236,180.527
2.171,128.181879,37.96268,6990.1304952,24.104,-2.268,180.538
2.1877,128.181879,37.962636,6989.910124800001,24.993,-2.301,180.548
2.2044,128.181879,37.962592,6989.687011200001,25.915,-2.334,180.557
2.2211,128.181879,37.962548,6989.4605448,26.871,-2.368,180.567
2.2378,128.181879,37.962504,6989.2307256,27.862,-2.403,180.575
2.2544,128.181878,37.96246,6988.9978584,28.888,-2.438,180.584
2.2712,128.181878,37.962416,6988.761638400001,29.952,-2.475,180.592
2.2879,128.181878,37.962372,6988.521760800001,31.055,-2.512,180.599
2.3045,128.181878,37.962328,6988.2785304,32.197,-2.549,180.606
2.3213,128.181878,37.962284,6988.031947200001,33.38,-2.588,180.612
2.338,128.181878,37.96224,6987.781401600001,34.605,-2.627,180.617
2.3546,128.181878,37.962196,6987.5275032,35.873,-2.667,180.622
2.3714,128.181878,37.962152,6987.2699472,37.185,-2.708,180.625
2.3881,128.181878,37.962108,6987.008428800001,38.543,-2.75,180.628
2.4048,128.181878,37.962064,6986.7432528,39.948,-2.793,180.63
2.4215,128.181878,37.96202,6986.474419200001,41.398,-2.836,180.631
2.4382,128.181878,37.961976,6986.2022328,42.892,-2.88,180.631
2.4549,128.181878,37.961932,6985.926084000001,44.429,-2.924,180.629
2.4716,128.181878,37.961888,6985.646582400001,46.007,-2.968,180.626
2.4882,128.181878,37.961844,6985.363728,47.625,-3.013,180.621
2.505,128.181878,37.9618,6985.076911200001,49.281,-3.058,180.615
2.5217,128.181879,37.961756,6984.787046400001,50.975,-3.103,180.607
2.5383,128.181879,37.961712,6984.493524,52.705,-3.147,180.597
2.5551,128.181879,37.961668,6984.1969536,54.47,-3.192,180.586
2.5718,128.181879,37.961624,6983.8967256,56.268,-3.237,180.573
2.5884,128.181879,37.96158,6983.5931448,58.1,-3.282,180.559
2.6052,128.181879,37.961536,6983.286516,59.963,-3.326,180.543
2.6219,128.181879,37.961492,6982.9765344,61.858,-3.37,180.525
2.6386,128.181879,37.961448,6982.663504800001,63.782,-3.414,180.506
2.6553,128.181879,37.961404,6982.3471224,65.735,-3.457,180.486
2.6719,128.18188,37.96136,6982.027692000001,67.717,-3.5,180.464
2.6887,128.18188,37.961316,6981.7052136,69.726,-3.542,180.441
2.7054,128.18188,37.961272,6981.3796872,71.762,-3.584,180.416
2.722,128.18188,37.961228,6981.0511128,73.824,-3.624,180.39
2.7388,128.18188,37.961184,6980.7194904,75.911,-3.664,180.363
2.7555,128.181881,37.96114,6980.385124800001,78.022,-3.703,180.335
2.7721,128.181881,37.961096,6980.047711200001,80.158,-3.741,180.305
2.7889,128.181881,37.961052,6979.7075544,82.317,-3.779,180.275
2.8056,128.181881,37.961008,6979.3649592,84.499,-3.815,180.243
2.8222,128.181882,37.960964,6979.019316,86.702,-3.85,180.21
2.839,128.181882,37.96092,6978.6709296,88.928,-3.884,180.177
2.8557,128.181882,37.960876,6978.3201048,91.174,-3.916,180.143
2.8724,128.181883,37.960832,6977.9665368000005,93.441,-3.948,180.107
2.8891,128.181883,37.960788,6977.6105304,95.727,-3.978,180.072
2.9057,128.181883,37.960744,6977.2520856,98.033,-4.008,180.038
2.9225,128.181884,37.9607,6976.8912024,100.357,-4.037,180.012
2.9392,128.181884,37.960656,6976.5281856,102.698,-4.068,179.999
2.9558,128.181884,37.960612,6976.1627304,105.055,-4.103,180.002
2.9726,128.181885,37.960568,6975.794836800001,107.428,-4.142,180.023
2.9893,128.181885,37.960524,6975.4245048,109.816,-4.187,180.063
3.0059,128.181886,37.96048,6975.0520392,112.219,-4.241,180.122
3.0227,128.181886,37.960436,6974.67744,114.634,-4.305,180.201
3.0394,128.181886,37.960392,6974.300097600001,117.061,-4.381,180.297
3.056,128.181887,37.960348,6973.9206216,119.499,-4.469,180.411
3.0728,128.181887,37.960304,6973.538097600001,121.937,-4.572,180.54
3.0895,128.181888,37.96026,6973.1522208,124.36,-4.688,180.685
3.1062,128.181888,37.960216,6972.7626864,126.757,-4.82,180.844
3.1229,128.181888,37.960172,6972.3691896,129.114,-4.967,181.016
3.1395,128.181889,37.960129,6971.9714256,131.422,-5.13,181.198
3.1563,128.181889,37.960085,6971.5681752,133.67,-5.311,181.389
3.173,128.181889,37.960041,6971.1597432,135.851,-5.509,181.588
3.1896,128.181889,37.959997,6970.7452152000005,137.957,-5.726,181.793
3.2064,128.181889,37.959953,6970.3239816000005,139.983,-5.96,182.001
3.2231,128.18189,37.959909,6969.895432800001,141.926,-6.212,182.211
3.2397,128.18189,37.959865,6969.459568800001,143.783,-6.481,182.421
3.2565,128.18189,37.959821,6969.0154752,145.553,-6.767,182.629
3.2732,128.18189,37.959778,6968.563152000001,147.236,-7.069,182.835
3.2899,128.181889,37.959734,6968.1016848,148.834,-7.386,183.036
3.3066,128.181889,37.95969,6967.6310736000005,150.348,-7.716,183.232
3.3233,128.181889,37.959646,6967.1507088,151.78,-8.058,183.422
3.34,128.181889,37.959603,6966.6602856,153.134,-8.412,183.604
3.3567,128.181888,37.959559,6966.159804,154.412,-8.775,183.778
3.3734,128.181888,37.959515,6965.6483496,155.62,-9.147,183.944
3.3901,128.181887,37.959472,6965.1262272,156.76,-9.525,184.101
3.4068,128.181887,37.959428,6964.5928272,157.837,-9.906,184.247
3.4235,128.181886,37.959384,6964.0478448,158.855,-10.287,184.382
3.4402,128.181886,37.959341,6963.49128,159.818,-10.665,184.506
3.4569,128.181885,37.959297,6962.922523200001,160.729,-11.039,184.618
3.4736,128.181885,37.959254,6962.341879200001,161.593,-11.407,184.718
3.4903,128.181884,37.95921,6961.748738400001,162.414,-11.769,184.808
3.507,128.181883,37.959167,6961.143405600001,163.194,-12.123,184.887
3.5237,128.181882,37.959123,6960.5249664,163.936,-12.471,184.957
3.5404,128.181881,37.95908,6959.8940304,164.644,-12.811,185.017
3.5571,128.181881,37.959036,6959.2499880000005,165.319,-13.144,185.068
3.5738,128.18188,37.958993,6958.5925344,165.965,-13.47,185.112
3.5905,128.181879,37.95895,6957.922279200001,166.584,-13.789,185.148
3.6072,128.181878,37.958906,6957.238308,167.176,-14.102,185.178
3.6239,128.181877,37.958863,6956.5409256,167.745,-14.408,185.201
3.6406,128.181876,37.95882,6955.8313512,168.352,-14.709,185.213
3.6573,128.181874,37.958776,6955.108670400001,168.996,-15.006,185.214
3.674,128.181873,37.958733,6954.3741024,169.668,-15.297,185.208
3.6907,128.181872,37.95869,6953.6270376,170.363,-15.583,185.195
3.7074,128.181871,37.958647,6952.8671712,171.072,-15.864,185.178
3.7241,128.18187,37.958604,6952.0938936,171.788,-16.14,185.157
3.7408,128.181869,37.958561,6951.3069000000005,172.503,-16.411,185.133
3.7575,128.181867,37.958518,6950.5058856000005,173.212,-16.678,185.106
3.7742,128.181866,37.958475,6949.6911552,173.909,-16.941,185.077
3.7909,128.181865,37.958432,6948.8617944,174.589,-17.199,185.045
3.8076,128.181864,37.958389,6948.0178032,175.249,-17.455,185.01
3.8243,128.181862,37.958346,6947.159486400001,175.886,-17.707,184.972
3.841,128.181861,37.958303,6946.2862344,176.498,-17.957,184.932
3.8577,128.18186,37.95826,6945.398352000001,177.084,-18.204,184.889
3.8744,128.181858,37.958217,6944.4952296,177.643,-18.449,184.843
3.8911,128.181857,37.958175,6943.5774768,178.177,-18.691,184.796
3.9078,128.181856,37.958132,6942.6447888,178.686,-18.932,184.748
3.9245,128.181854,37.958089,6941.696860800001,179.17,-19.172,184.698
3.9412,128.181853,37.958047,6940.7343024,179.63,-19.41,184.647
3.9579,128.181852,37.958004,6939.756504,-179.933,-19.646,184.594
3.9746,128.18185,37.957962,6938.763770400001,-179.519,-19.881,184.538
3.9913,128.181849,37.957919,6937.756101600001,-179.128,-20.115,184.481
4.008,128.181847,37.957877,6936.7338024,-178.756,-20.347,184.422
4.0247,128.181846,37.957834,6935.6962632,-178.403,-20.579,184.362
4.0414,128.181845,37.957792,6934.6440936,-178.068,-20.809,184.299
4.058,128.181843,37.95775,6933.5769887999995,-177.748,-21.038,184.235
4.0748,128.181842,37.957708,6932.4952536,-177.444,-21.265,184.169
4.0915,128.18184,37.957665,6931.398583200001,-177.152,-21.492,184.102
4.1082,128.181839,37.957623,6930.286977600001,-176.874,-21.717,184.034
4.1249,128.181838,37.957581,6929.160741600001,-176.606,-21.941,183.965
4.1415,128.181836,37.957539,6928.0201799999995,-176.348,-22.164,183.895
4.1583,128.181835,37.957497,6926.8646832,-176.098,-22.386,183.824
4.175,128.181834,37.957455,6925.6942512000005,-175.856,-22.607,183.754
4.1917,128.181832,37.957413,6924.5094936,-175.62,-22.827,183.684
4.2084,128.181831,37.957371,6923.3101056000005,-175.389,-23.045,183.614
4.2251,128.18183,37.957329,6922.096392,-175.163,-23.263,183.546
4.2417,128.181828,37.957287,6920.8677431999995,-174.942,-23.48,183.478
4.2585,128.181827,37.957246,6919.6247688,-174.725,-23.696,183.411
4.2752,128.181826,37.957204,6918.3668592,-174.512,-23.91,183.344
4.2919,128.181824,37.957162,6917.094624,-174.303,-24.125,183.279
4.3086,128.181823,37.957121,6915.8080632,-174.097,-24.338,183.215
4.3252,128.181822,37.957079,6914.5065672,-173.896,-24.55,183.151
4.342,128.181821,37.957038,6913.190745600001,-173.699,-24.762,183.088
4.3587,128.181819,37.956996,6911.8605984,-173.507,-24.973,183.024
4.3754,128.181818,37.956955,6910.5155159999995,-173.32,-25.184,182.961
4.3921,128.181817,37.956914,6909.156108,-173.138,-25.393,182.897
4.4088,128.181816,37.956872,6907.782069600001,-172.961,-25.602,182.834
4.4254,128.181815,37.956831,6906.3937056,-172.789,-25.81,182.77
4.4422,128.181814,37.95679,6904.990711200001,-172.622,-26.018,182.705
4.4589,128.181812,37.956749,6903.5733912000005,-172.46,-26.225,182.641
4.4756,128.181811,37.956708,6902.1414408,-172.303,-26.432,182.576
4.4923,128.18181,37.956667,6900.6948600000005,-172.152,-26.638,182.511
4.5089,128.181809,37.956626,6899.2339536,-172.006,-26.843,182.446
4.5256,128.181808,37.956585,6897.7587216,-171.865,-27.048,182.38
4.5424,128.181807,37.956544,6896.2688592,-171.73,-27.253,182.315
4.5591,128.181806,37.956503,6894.7646712,-171.6,-27.457,182.249
4.5758,128.181805,37.956462,6893.2458528,-171.476,-27.661,182.184
4.5925,128.181804,37.956422,6891.712708800001,-171.357,-27.864,182.118
4.6091,128.181803,37.956381,6890.1649344,-171.245,-28.067,182.052
4.6259,128.181802,37.95634,6888.6031391999995,-171.138,-28.27,181.986
4.6426,128.181801,37.9563,6887.0267136,-171.038,-28.473,181.921
4.6593,128.1818,37.956259,6885.4356576,-170.943,-28.675,181.855
4.676,128.181799,37.956219,6883.8305808000005,-170.855,-28.877,181.79
4.6927,128.181798,37.956179,6882.210873600001,-170.774,-29.079,181.724
4.7093,128.181798,37.956138,6880.5768408,-170.698,-29.28,181.659
4.7261,128.181797,37.956098,6878.928482400001,-170.629,-29.482,181.594
4.7428,128.181796,37.956058,6877.2654936,-170.567,-29.683,181.529
4.7595,128.181795,37.956018,6875.588484000001,-170.51,-29.884,181.464
4.7762,128.181794,37.955978,6873.8971488,-170.461,-30.085,181.4
4.7928,128.181794,37.955938,6872.1911832000005,-170.417,-30.286,181.336
4.8096,128.181793,37.955898,6870.471196800001,-170.381,-30.486,181.272
4.8263,128.181792,37.955858,6868.7368848,-170.35,-30.687,181.208
4.843,128.181792,37.955818,6866.988247200001,-170.326,-30.887,181.145
4.8597,128.181791,37.955778,6865.2255888,-170.309,-31.087,181.083
4.8764,128.18179,37.955739,6863.4483,-170.297,-31.287,181.02
4.893,128.18179,37.955699,6861.6569904,-170.292,-31.488,180.959
4.9098,128.181789,37.955659,6859.85166,-170.293,-31.688,180.897
4.9265,128.181789,37.95562,6858.032004000001,-170.3,-31.888,180.836
4.9432,128.181788,37.955581,6856.1980224,-170.313,-32.087,180.776
4.9599,128.181788,37.955541,6854.350020000001,-170.332,-32.287,180.716
4.9765,128.181787,37.955502,6852.4879968000005,-170.356,-32.487,180.657
4.9932,128.181787,37.955463,6850.611648,-170.386,-32.687,180.599
5.01,128.181786,37.955423,6848.7212784,-170.421,-32.887,180.541
5.0267,128.181786,37.955384,6846.817192800001,-170.462,-33.086,180.483
5.0434,128.181785,37.955345,6844.8987816,-170.507,-33.286,180.427
5.0601,128.181785,37.955306,6842.9663496,-170.558,-33.486,180.371
5.0767,128.181785,37.955267,6841.0198968,-170.613,-33.686,180.316
5.0935,128.181784,37.955229,6839.059728,-170.673,-33.885,180.261
5.1102,128.181784,37.95519,6837.085538400001,-170.736,-34.085,180.207
5.1269,128.181784,37.955151,6835.097328000001,-170.805,-34.285,180.154
5.1436,128.181784,37.955112,6833.0954016000005,-170.877,-34.485,180.102
5.1602,128.181783,37.955074,6831.0794544,-170.952,-34.684,180.051
5.1769,128.181783,37.955035,6829.0497912,-171.032,-34.884,180.0
5.1937,128.181783,37.954997,6827.006412,-171.114,-35.084,179.951
5.2104,128.181783,37.954959,6824.949012,-171.2,-35.284,179.902
5.2271,128.181783,37.95492,6822.877896000001,-171.289,-35.483,179.854
5.2438,128.181782,37.954882,6820.793064,-171.381,-35.683,179.807
5.2604,128.181782,37.954844,6818.694820799999,-171.476,-35.883,179.761
5.2772,128.181782,37.954806,6816.582556800001,-171.573,-36.083,179.716
5.2939,128.181782,37.954768,6814.4568816,-171.673,-36.283,179.671
5.3106,128.181782,37.95473,6812.3174904,-171.775,-36.483,179.628
5.3273,128.181782,37.954692,6810.164383200001,-171.879,-36.682,179.586
5.3439,128.181782,37.954654,6807.997864800001,-171.985,-36.882,179.544
5.3606,128.181782,37.954617,6805.8179352,-172.093,-37.082,179.504
5.3774,128.181782,37.954579,6803.6242896,-172.203,-37.282,179.464
5.3941,128.181782,37.954541,6801.4172328,-172.314,-37.482,179.426
5.4108,128.181782,37.954504,6799.196764800001,-172.426,-37.682,179.388
5.4275,128.181782,37.954466,6796.9628856,-172.54,-37.883,179.352
5.4441,128.181782,37.954429,6794.7152904,-172.655,-38.083,179.316
5.4609,128.181783,37.954392,6792.4545888,-172.771,-38.283,179.281
5.4776,128.181783,37.954355,6790.1807808,-172.888,-38.483,179.248
5.4943,128.181783,37.954317,6787.893256800001,-173.006,-38.683,179.215
5.511,128.181783,37.95428,6785.5926264,-173.124,-38.883,179.183
5.5277,128.181783,37.954243,6783.2785848,-173.243,-39.083,179.153
5.5443,128.181783,37.954206,6780.9514368,-173.363,-39.284,179.123
5.5611,128.181784,37.95417,6778.611182400001,-173.483,-39.484,179.094
5.5778,128.181784,37.954133,6776.2575168,-173.603,-39.684,179.067
5.5945,128.181784,37.954096,6773.8907448,-173.723,-39.884,179.04
5.6112,128.181784,37.95406,6771.5108664,-173.844,-40.085,179.014
5.6278,128.181785,37.954023,6769.1178816,-173.965,-40.285,178.99
5.6445,128.181785,37.953987,6766.7120952000005,-174.086,-40.485,178.966
5.6613,128.181785,37.95395,6764.292897600001,-174.206,-40.685,178.943
5.678,128.181785,37.953914,6761.8608984,-174.327,-40.886,178.921
5.6947,128.181786,37.953878,6759.4157928,-174.448,-41.086,178.9
5.7114,128.181786,37.953842,6756.9575808,-174.568,-41.286,178.88
5.728,128.181786,37.953806,6754.486872,-174.688,-41.487,178.861
5.7448,128.181787,37.95377,6752.002752000001,-174.808,-41.687,178.843
5.7615,128.181787,37.953734,6749.5061352,-174.928,-41.887,178.826
5.7782,128.181788,37.953698,6746.9964119999995,-175.048,-42.088,178.81
5.7949,128.181788,37.953662,6744.473887200001,-175.167,-42.288,178.795
5.8115,128.181788,37.953627,6741.938865600001,-175.286,-42.488,178.78
5.8282,128.181789,37.953591,6739.390737600001,-175.404,-42.688,178.767
5.845,128.181789,37.953556,6736.829808,-175.522,-42.889,178.754
5.8617,128.18179,37.95352,6734.2563816,-175.64,-43.089,178.743
5.8784,128.18179,37.953485,6731.6701536,-175.757,-43.289,178.732
5.8951,128.18179,37.95345,6729.071428800001,-175.874,-43.489,178.722
5.9117,128.181791,37.953414,6726.4599024,-175.99,-43.689,178.713
5.9285,128.181791,37.953379,6723.835879200001,-176.105,-43.889,178.705
5.9452,128.181792,37.953344,6721.1990544,-176.22,-44.089,178.698
5.9619,128.181792,37.953309,6718.550037600001,-176.334,-44.289,178.691
5.9786,128.181793,37.953275,6715.888219200001,-176.448,-44.489,178.686
5.9952,128.181793,37.95324,6713.2142088,-176.561,-44.688,178.681
6.0119,128.181794,37.953205,6710.527396800001,-176.673,-44.888,178.677
6.0287,128.181794,37.953171,6707.828392800001,-176.785,-45.087,178.674
6.0454,128.181795,37.953136,6705.113844,-176.898,-45.273,178.67
6.0621,128.181795,37.953102,6702.3867984,-177.015,-45.434,178.668
6.0788,128.181796,37.953067,6699.6466464000005,-177.139,-45.558,178.669
6.0954,128.181796,37.953033,6696.893997600001,-177.271,-45.632,178.673
6.1121,128.181797,37.952999,6694.128547200001,-177.414,-45.644,178.684
6.1289,128.181797,37.952965,6691.3509048000005,-177.57,-45.587,178.701
6.1456,128.181798,37.952931,6688.561070400001,-177.74,-45.474,178.723
6.1623,128.181798,37.952897,6685.7587392,-177.924,-45.32,178.749
6.179,128.181799,37.952863,6682.9445208,-178.124,-45.14,178.778
6.1956,128.1818,37.952829,6680.1184152000005,-178.342,-44.948,178.809
6.2124,128.1818,37.952795,6677.2807272,-178.579,-44.752,178.84
6.2291,128.181801,37.952761,6674.431456800001,-178.838,-44.558,178.873
6.2458,128.181801,37.952727,6671.5712136,-179.12,-44.366,178.905
6.2625,128.181802,37.952694,6668.699692800001,-179.428,-44.179,178.938
6.2791,128.181802,37.95266,6665.817504000001,-179.765,-43.997,178.971
6.2958,128.181803,37.952627,6662.924342400001,179.866,-43.821,179.005
6.3126,128.181803,37.952593,6660.0205128,179.463,-43.652,179.038
6.3293,128.181804,37.95256,6657.106320000001,179.023,-43.489,179.073
6.346,128.181805,37.952527,6654.181764000001,178.542,-43.333,179.107
6.3627,128.181805,37.952493,6651.2468448,178.016,-43.183,179.142
6.3793,128.181806,37.95246,6648.3018672,177.442,-43.04,179.178
6.3961,128.181806,37.952427,6645.3465264,176.815,-42.903,179.215
6.4128,128.181807,37.952394,6642.3811272,176.13,-42.772,179.253
6.4295,128.181807,37.952361,6639.405669600001,175.385,-42.647,179.291
6.4462,128.181808,37.952328,6636.4204584,174.572,-42.528,179.331
6.4628,128.181808,37.952295,6633.4251888,173.687,-42.415,179.372
6.4795,128.181809,37.952262,6630.420470400001,172.731,-42.306,179.415
6.4963,128.181809,37.952229,6627.406608,171.706,-42.203,179.457
6.513,128.18181,37.952196,6624.383296800001,170.614,-42.105,179.498
6.5297,128.18181,37.952163,6621.3511464,169.456,-42.011,179.539
6.5464,128.181811,37.952131,6618.310156800001,168.236,-41.922,179.579
6.5631,128.181811,37.952098,6615.260937600001,166.955,-41.837,179.618
6.5798,128.181811,37.952065,6612.203184000001,165.615,-41.757,179.656
6.5965,128.181812,37.952033,6609.136896000001,164.217,-41.68,179.693
6.6132,128.181812,37.952,6606.0617688,162.765,-41.607,179.729
6.6299,128.181812,37.951968,6602.9787168,161.26,-41.537,179.763
6.6466,128.181813,37.951935,6599.8874352,159.705,-41.471,179.796
6.6633,128.181813,37.951903,6596.788228800001,158.1,-41.407,179.828
6.68,128.181813,37.95187,6593.681097600001,156.449,-41.347,179.859
6.6967,128.181813,37.951838,6590.566651200001,154.753,-41.289,179.889
6.7134,128.181813,37.951806,6587.4445848,153.014,-41.235,179.918
6.7301,128.181814,37.951773,6584.3152032,151.234,-41.183,179.945
6.7468,128.181814,37.951741,6581.178811200001,149.415,-41.134,179.971
6.7635,128.181814,37.951709,6578.0354088,147.559,-41.088,179.996
6.7802,128.181814,37.951676,6574.885300800001,145.668,-41.044,180.019
6.7969,128.181814,37.951644,6571.728487200001,143.744,-41.003,180.042
6.8136,128.181814,37.951612,6568.5652728000005,141.789,-40.964,180.063
6.8303,128.181814,37.95158,6565.3956576,139.804,-40.927,180.083
6.847,128.181814,37.951548,6562.2199464000005,137.79,-40.892,180.102
6.8637,128.181814,37.951515,6559.038444,135.75,-40.859,180.121
6.8804,128.181813,37.951483,6555.8508456,133.685,-40.828,180.138
6.8971,128.181813,37.951451,6552.657760800001,131.596,-40.798,180.154
6.9138,128.181813,37.951419,6549.4591896,129.485,-40.77,180.169
6.9305,128.181813,37.951387,6546.255132,127.354,-40.743,180.184
6.9472,128.181812,37.951355,6543.046197600001,125.203,-40.718,180.197
6.9639,128.181812,37.951323,6539.831776800001,123.035,-40.695,180.21
6.9806,128.181811,37.951291,6536.612784000001,120.851,-40.672,180.221
6.9973,128.181811,37.951259,6533.3889144,118.653,-40.651,180.232
7.014,128.18181,37.951227,6530.1604728,116.441,-40.632,180.242
7.0307,128.18181,37.951195,6526.9274592,114.218,-40.613,180.251
7.0474,128.181809,37.951163,6523.6901784,111.985,-40.596,180.259
7.0641,128.181808,37.951131,6520.4489352,109.744,-40.58,180.267
7.0808,128.181808,37.951099,6517.203424800001,107.495,-40.565,180.273
7.0975,128.181807,37.951067,6513.953952000001,105.24,-40.552,180.279
7.1142,128.181806,37.951035,6510.7008216,102.981,-40.539,180.284
7.1309,128.181805,37.951003,6507.444033600001,100.719,-40.528,180.288
7.1476,128.181804,37.950971,6504.183892800001,98.454,-40.518,180.291
7.1643,128.181803,37.950939,6500.9203992,96.189,-40.509,180.294
7.181,128.181802,37.950907,6497.6535527999995,93.924,-40.501,180.295
7.1977,128.181801,37.950875,6494.3839632,91.66,-40.494,180.296
7.2144,128.1818,37.950843,6491.1113256,89.399,-40.488,180.296
7.2311,128.181799,37.95081,6487.83564,87.141,-40.484,180.295
7.2478,128.181798,37.950778,6484.5578208,84.887,-40.48,180.295
7.2645,128.181796,37.950746,6481.2772584,82.631,-40.476,180.304
7.2812,128.181795,37.950714,6477.9948672,80.371,-40.472,180.328
7.2979,128.181793,37.950682,6474.710037600001,78.103,-40.466,180.372
7.3146,128.181792,37.95065,6471.423684000001,75.828,-40.455,180.44
7.3313,128.181791,37.950618,6468.135501600001,73.543,-40.439,180.532
7.348,128.181789,37.950586,6464.8457952,71.251,-40.416,180.651
7.3647,128.181787,37.950554,6461.5548696000005,68.952,-40.385,180.795
7.3814,128.181786,37.950522,6458.262724800001,66.647,-40.342,180.965
7.3981,128.181784,37.95049,6454.9699704,64.338,-40.288,181.159
7.4148,128.181782,37.950457,6451.6763016,62.028,-40.22,181.376
7.4315,128.18178,37.950425,6448.3826328000005,59.717,-40.136,181.614
7.4482,128.181778,37.950393,6445.0889640000005,57.407,-40.036,181.872
7.4649,128.181776,37.950361,6441.7956,55.101,-39.919,182.146
7.4816,128.181774,37.950328,6438.5028456,52.799,-39.784,182.433
7.4983,128.181772,37.950296,6435.211310400001,50.504,-39.631,182.729
7.515,128.181769,37.950264,6431.9209944,48.217,-39.46,183.031
7.5317,128.181767,37.950231,6428.6325072,45.938,-39.271,183.336
7.5484,128.181764,37.950199,6425.3464584,43.669,-39.063,183.642
7.5651,128.181762,37.950166,6422.0625432,41.41,-38.839,183.945
7.5818,128.181759,37.950134,6418.7819808,39.16,-38.597,184.244
7.5985,128.181757,37.950101,6415.5047712,36.921,-38.338,184.537
7.6152,128.181754,37.950069,6412.231524000001,34.691,-38.064,184.82
7.6319,128.181751,37.950036,6408.9628488,32.471,-37.774,185.092
7.6486,128.181748,37.950003,6405.698745600001,30.26,-37.469,185.352
7.6653,128.181745,37.94997,6402.439824000001,28.057,-37.151,185.597
7.682,128.181742,37.949938,6399.1866936,25.861,-36.82,185.828
7.6987,128.181739,37.949905,6395.939964,23.671,-36.477,186.041
7.7154,128.181735,37.949872,6392.698416,21.518,-36.127,186.238
7.7321,128.181732,37.949839,6389.462964,19.431,-35.776,186.419
7.7488,128.181729,37.949805,6386.2333032,17.434,-35.429,186.584
7.7655,128.181725,37.949772,6383.009738400001,15.548,-35.088,186.733
7.7822,128.181722,37.949739,6379.791964800001,13.788,-34.756,186.866
7.7989,128.181718,37.949706,6376.579677600001,12.162,-34.432,186.984
7.8156,128.181715,37.949672,6373.3731816,10.676,-34.118,187.086
7.8323,128.181711,37.949639,6370.1721720000005,9.329,-33.814,187.172
7.849,128.181708,37.949605,6366.976344,8.117,-33.518,187.244
7.8657,128.181704,37.949572,6363.7860024,7.033,-33.232,187.302
7.8824,128.1817,37.949538,6360.600842400001,6.07,-32.955,187.348
7.8991,128.181697,37.949504,6357.4202544,5.217,-32.686,187.381
7.9158,128.181693,37.94947,6354.2445431999995,4.464,-32.426,187.403
7.9325,128.181689,37.949436,6351.0730992,3.801,-32.174,187.415
7.9492,128.181685,37.949403,6347.907141600001,3.218,-31.93,187.419
7.9659,128.181681,37.949369,6344.7469752,2.704,-31.695,187.415
7.9826,128.181678,37.949334,6341.592904800001,2.252,-31.466,187.405
7.9993,128.181674,37.9493,6338.4446256,1.854,-31.246,187.389
8.016,128.18167,37.949266,6335.303052000001,1.503,-31.032,187.368
8.0327,128.181666,37.949232,6332.168184000001,1.189,-30.825,187.345
8.0494,128.181662,37.949197,6329.0400216,0.907,-30.624,187.319
8.0661,128.181658,37.949163,6325.919174400001,0.654,-30.429,187.292
8.0828,128.181654,37.949128,6322.805337600001,0.426,-30.239,187.263
8.0994,128.18165,37.949094,6319.6991208,0.221,-30.055,187.232
8.1161,128.181646,37.949059,6316.6002192000005,0.035,-29.875,187.2
8.1329,128.181642,37.949024,6313.5092424,-0.133,-29.699,187.166
8.1496,128.181638,37.94899,6310.425885600001,-0.287,-29.527,187.131
8.1663,128.181634,37.948955,6307.3507584,-0.429,-29.358,187.096
8.183,128.18163,37.94892,6304.283556,-0.559,-29.193,187.059
8.1997,128.181626,37.948885,6301.224278400001,-0.679,-29.03,187.022
8.2164,128.181622,37.94885,6298.1732304,-0.791,-28.87,186.985
8.2331,128.181618,37.948814,6295.1307168,-0.896,-28.713,186.947
8.2498,128.181614,37.948779,6292.096432800001,-0.994,-28.558,186.91
8.2665,128.181609,37.948744,6289.070378400001,-1.088,-28.404,186.872
8.2831,128.181605,37.948708,6286.0531632,-1.178,-28.253,186.835
8.2998,128.181601,37.948673,6283.044177600001,-1.264,-28.103,186.799
8.3166,128.181597,37.948637,6280.0440312,-1.348,-27.955,186.764
8.3333,128.181593,37.948602,6277.0524192,-1.429,-27.808,186.73
8.35,128.181589,37.948566,6274.0696464,-1.508,-27.662,186.696
8.3667,128.181584,37.94853,6271.095408,-1.585,-27.518,186.663
8.3834,128.18158,37.948494,6268.1300088,-1.66,-27.374,186.631
8.4001,128.181576,37.948458,6265.1734488,-1.734,-27.232,186.599
8.4168,128.181572,37.948422,6262.2260328,-1.806,-27.09,186.569
8.4335,128.181568,37.948386,6259.287151200001,-1.877,-26.949,186.539
8.4502,128.181563,37.94835,6256.357413600001,-1.947,-26.809,186.511
8.4668,128.181559,37.948314,6253.436515200001,-2.016,-26.669,186.483
8.4835,128.181555,37.948278,6250.525065600001,-2.084,-26.53,186.456
8.5003,128.18155,37.948241,6247.6221504000005,-2.151,-26.392,186.43
8.517,128.181546,37.948205,6244.728684000001,-2.218,-26.254,186.405
8.5337,128.181542,37.948168,6241.8440568000005,-2.284,-26.116,186.38
8.5504,128.181538,37.948132,6238.968878400001,-2.349,-25.979,186.357
8.5671,128.181533,37.948095,6236.1025392,-2.413,-25.842,186.334
8.5838,128.181529,37.948058,6233.2456488,-2.476,-25.706,186.312
8.6005,128.181525,37.948021,6230.3979024,-2.538,-25.57,186.291
8.6172,128.18152,37.947984,6227.5593,-2.6,-25.434,186.271
8.6339,128.181516,37.947947,6224.7301464,-2.66,-25.298,186.251
8.6505,128.181512,37.94791,6221.9101368,-2.718,-25.163,186.231
8.6672,128.181507,37.947873,6219.099576,-2.774,-25.028,186.212
8.684,128.181503,37.947836,6216.298464,-2.827,-24.893,186.193
8.7007,128.181499,37.947799,6213.506496000001,-2.879,-24.758,186.174
8.7174,128.181494,37.947762,6210.7239768,-2.928,-24.624,186.155
8.7341,128.18149,37.947724,6207.9506016000005,-2.974,-24.489,186.136
8.7508,128.181486,37.947687,6205.1869799999995,-3.019,-24.355,186.117
8.7675,128.181481,37.947649,6202.4328072,-3.06,-24.221,186.099
8.7842,128.181477,37.947611,6199.687778400001,-3.1,-24.087,186.08
8.8009,128.181472,37.947574,6196.9525032,-3.137,-23.954,186.062
8.8176,128.181468,37.947536,6194.2266768,-3.171,-23.82,186.043
8.8342,128.181464,37.947498,6191.5102992,-3.203,-23.687,186.025
8.8509,128.181459,37.94746,6188.8036752,-3.232,-23.553,186.007
8.8676,128.181455,37.947422,6186.1065,-3.258,-23.42,185.989
8.8844,128.181451,37.947384,6183.4187736,-3.282,-23.287,185.971
8.9011,128.181446,37.947346,6180.7408008,-3.302,-23.154,185.953
8.9178,128.181442,37.947308,6178.0722768000005,-3.321,-23.021,185.936
8.9345,128.181437,37.94727,6175.413506400001,-3.336,-22.889,185.918
8.9512,128.181433,37.947232,6172.7644896,-3.348,-22.756,185.901
8.9679,128.181429,37.947193,6170.1249216,-3.358,-22.624,185.884
8.9846,128.181424,37.947155,6167.495107199999,-3.364,-22.491,185.867
9.0013,128.18142,37.947116,6164.8750464,-3.368,-22.359,185.851
9.0179,128.181415,37.947078,6162.2647392,-3.369,-22.227,185.834
9.0346,128.181411,37.947039,6159.6638808,-3.367,-22.095,185.818
9.0513,128.181406,37.947,6157.0730808,-3.362,-21.963,185.802
9.0681,128.181402,37.946962,6154.4920344,-3.354,-21.831,185.787
9.0848,128.181398,37.946923,6151.920741600001,-3.343,-21.699,185.771
9.1015,128.181393,37.946884,6149.3595072,-3.329,-21.567,185.756
9.1182,128.181389,37.946845,6146.8077216,-3.312,-21.435,185.741
9.1349,128.181384,37.946806,6144.2662992000005,-3.293,-21.304,185.726
9.1516,128.18138,37.946767,6141.7343255999995,-3.271,-21.172,185.712
9.1683,128.181375,37.946728,6139.2124104,-3.246,-21.041,185.698
9.185,128.181371,37.946688,6136.7005536,-3.219,-20.909,185.684
9.2016,128.181367,37.946649,6134.1984504,-3.189,-20.778,185.67
9.2183,128.181362,37.94661,6131.706710400001,-3.157,-20.646,185.657
9.235,128.181358,37.94657,6129.224724000001,-3.123,-20.515,185.644
9.2518,128.181353,37.946531,6126.752796000001,-3.087,-20.384,185.631
9.2685,128.181349,37.946491,6124.2909264,-3.048,-20.253,185.618
9.2852,128.181344,37.946452,6121.8391152,-3.008,-20.122,185.606
9.3019,128.18134,37.946412,6119.3973624,-2.966,-19.991,185.594
9.3186,128.181335,37.946372,6116.965972800001,-2.923,-19.859,185.583
9.3353,128.181331,37.946333,6114.5446416,-2.877,-19.728,185.571
9.352,128.181327,37.946293,6112.1333688,-2.831,-19.597,185.56
9.3687,128.181322,37.946253,6109.7324592,-2.782,-19.466,185.55
9.3854,128.181318,37.946213,6107.341608,-2.732,-19.335,185.539
9.402,128.181313,37.946173,6104.961120000001,-2.681,-19.204,185.529
9.4187,128.181309,37.946133,6102.5906904,-2.629,-19.073,185.52
9.4355,128.181304,37.946093,6100.230624000001,-2.575,-18.943,185.51
9.4522,128.1813,37.946052,6097.8812256,-2.52,-18.812,185.502
9.4689,128.181295,37.946012,6095.5415808,-2.463,-18.681,185.493
9.4856,128.181291,37.945972,6093.212604,-2.406,-18.55,185.485
9.5023,128.181286,37.945931,6090.8939904,-2.348,-18.419,185.477
9.519,128.181282,37.945891,6088.5845208,-2.21,-18.303,185.478
9.5357,128.181277,37.94585,6086.2835856,-1.996,-18.217,185.489
9.5524,128.181273,37.94581,6083.990270400001,-1.703,-18.176,185.506
9.5691,128.181269,37.945769,6081.703965600001,-1.33,-18.195,185.529
9.5857,128.181264,37.945729,6079.423756800001,-0.877,-18.288,185.555
9.6024,128.18126,37.945688,6077.148424800001,-0.344,-18.466,185.582
9.6192,128.181255,37.945647,6074.8776648,0.265,-18.711,185.61
9.6359,128.181251,37.945607,6072.6102576,0.953,-19.003,185.636
9.6526,128.181246,37.945566,6070.3468128,1.716,-19.325,185.66
9.6693,128.181242,37.945525,6068.0867208,2.554,-19.657,185.682
9.686,128.181237,37.945484,6065.8299816,3.467,-19.983,185.702
9.7027,128.181232,37.945443,6063.5756808,4.453,-20.283,185.72
9.7194,128.181228,37.945403,6061.324732800001,5.513,-20.545,185.738
9.7361,128.181223,37.945362,6059.0765280000005,6.643,-20.755,185.759
9.7528,128.181219,37.945321,6056.8310664,7.665,-20.92,185.755
9.7694,128.181214,37.94528,6054.5886528,8.582,-21.051,185.728
9.7861,128.18121,37.945239,6052.348982400001,9.381,-21.162,185.685
9.8029,128.181205,37.945198,6050.112664800001,10.053,-21.269,185.633
9.8196,128.1812,37.945157,6047.8787856,10.595,-21.387,185.574
9.8363,128.181196,37.945115,6045.648564,11.008,-21.525,185.511
9.853,128.181191,37.945074,6043.4213904,11.295,-21.679,185.444
9.8697,128.181186,37.945033,6041.197874400001,11.46,-21.839,185.377
9.8864,128.181181,37.944992,6038.9783208,11.508,-22.0,185.309
9.9031,128.181177,37.944951,6036.7627296,11.443,-22.158,185.244
9.9198,128.181172,37.94491,6034.5511008,11.271,-22.31,185.18
9.9365,128.181167,37.944868,6032.3437392,10.995,-22.455,185.119
9.9531,128.181162,37.944827,6030.1406448,10.62,-22.593,185.06
9.9698,128.181157,37.944786,6027.9421224,10.149,-22.724,185.003
9.9865,128.181153,37.944744,6025.7484768,9.586,-22.847,184.95
10.0033,128.181148,37.944703,6023.560012800001,8.934,-22.964,184.899
10.02,128.181143,37.944661,6021.3764255999995,8.198,-23.074,184.851
10.0367,128.181138,37.94462,6019.1986296,7.379,-23.177,184.806
10.0534,128.181133,37.944578,6017.024796000001,6.482,-23.275,184.763
10.0701,128.181128,37.944537,6014.856144,5.509,-23.366,184.723
10.0868,128.181123,37.944495,6012.6914544,4.465,-23.453,184.686
10.1035,128.181118,37.944454,6010.531336800001,3.35,-23.534,184.652
10.1202,128.181113,37.944412,6008.3754864,2.17,-23.611,184.619
10.1368,128.181108,37.944371,6006.2229888,1.115,-23.666,184.618
10.1535,128.181104,37.944329,6004.0741488,0.182,-23.685,184.647
10.1702,128.181099,37.944287,6001.928356800001,-0.612,-23.65,184.693
10.187,128.181094,37.944246,5999.7862224,-1.258,-23.548,184.746
10.2037,128.181089,37.944204,5997.6477456,-1.749,-23.371,184.798
10.2204,128.181084,37.944162,5995.5114023999995,-2.088,-23.13,184.845
10.2371,128.181079,37.94412,5993.3781072,-2.28,-22.843,184.887
10.2538,128.181074,37.944079,5991.247250400001,-2.332,-22.526,184.925
10.2705,128.181069,37.944037,5989.1185272,-2.251,-22.199,184.959
10.2872,128.181064,37.943995,5986.991937600001,-2.045,-21.88,184.992
10.3039,128.181059,37.943953,5984.8668720000005,-1.722,-21.588,185.024
10.3205,128.181054,37.943911,5982.7433304,-1.288,-21.34,185.057
10.3372,128.181049,37.943869,5980.621922400001,-0.821,-21.122,185.086
10.3539,128.181044,37.943827,5978.501733600001,-0.252,-20.952,185.116
10.3707,128.181039,37.943785,5976.3818496,0.409,-20.845,185.15
10.3874,128.181035,37.943743,5974.2622704000005,1.16,-20.82,185.185
10.4041,128.18103,37.943701,5972.1420816,2.0,-20.868,185.221
10.4208,128.181025,37.943659,5970.020978400001,2.925,-20.973,185.254
10.4375,128.18102,37.943617,5967.898046400001,3.934,-21.116,185.286
10.4542,128.181015,37.943575,5965.7748096000005,5.024,-21.28,185.314
10.4709,128.18101,37.943533,5963.6500488,6.194,-21.448,185.341
10.4876,128.181005,37.943491,5961.5243736,7.441,-21.603,185.366
10.5042,128.181,37.943449,5959.397784000001,8.569,-21.742,185.364
10.5209,128.180995,37.943406,5957.2708896,9.585,-21.868,185.333
10.5376,128.18099,37.943364,5955.1433856,10.473,-21.985,185.285
10.5544,128.180985,37.943322,5953.0161864,11.223,-22.094,185.23
10.5711,128.18098,37.94328,5950.888987200001,11.83,-22.197,185.172
10.5878,128.180975,37.943238,5948.7623976,12.296,-22.295,185.116
10.6045,128.18097,37.943195,5946.6367224000005,12.626,-22.387,185.061
10.6212,128.180965,37.943153,5944.511656800001,12.826,-22.475,185.009
10.6379,128.18096,37.943111,5942.3881152,12.901,-22.557,184.959
10.6546,128.180955,37.943068,5940.265792800001,12.858,-22.635,184.91
10.6713,128.18095,37.943026,5938.1452992,12.703,-22.708,184.864
10.6879,128.180944,37.942984,5936.0269392,12.439,-22.777,184.82
10.7046,128.180939,37.942941,5933.9107128000005,12.072,-22.841,184.777
10.7213,128.180934,37.942899,5931.7972296,11.607,-22.902,184.737
10.7381,128.180929,37.942856,5929.6864896,11.048,-22.958,184.699
10.7548,128.180924,37.942814,5927.5791024,10.398,-23.012,184.662
10.7715,128.180919,37.942771,5925.4747632,9.663,-23.061,184.628
10.7882,128.180914,37.942729,5923.374386400001,8.846,-23.107,184.596
10.8049,128.180908,37.942686,5921.2767527999995,7.951,-23.151,184.565
10.8216,128.180903,37.942644,5919.182472,6.981,-23.191,184.537
10.8383,128.180898,37.942601,5917.0912392,5.94,-23.229,184.51
10.855,128.180893,37.942559,5915.0030544,4.831,-23.264,184.485
10.8717,128.180888,37.942516,5912.9176128,3.658,-23.297,184.462
10.8883,128.180882,37.942473,5910.8349144,2.424,-23.328,184.44
10.905,128.180877,37.942431,5908.755264,1.131,-23.357,184.419
10.9218,128.180872,37.942388,5906.6777472,-0.016,-23.368,184.429
10.9385,128.180867,37.942345,5904.6026688,-1.024,-23.343,184.468
10.9552,128.180862,37.942303,5902.529724000001,-1.877,-23.266,184.521
10.9719,128.180856,37.94226,5900.457693599999,-2.561,-23.156,184.579
10.9886,128.180851,37.942217,5898.3868824,-3.075,-23.029,184.636
11.0053,128.180846,37.942174,5896.3166808,-3.422,-22.905,184.689
11.022,128.180841,37.942132,5894.246479200001,-3.609,-22.799,184.739
11.0387,128.180836,37.942089,5892.175972800001,-3.645,-22.731,184.788
11.0554,128.18083,37.942046,5890.104552000001,-3.54,-22.704,184.837
11.072,128.180825,37.942003,5888.0319119999995,-3.301,-22.709,184.885
11.0887,128.18082,37.94196,5885.957748,-2.936,-22.735,184.934
11.1054,128.180815,37.941917,5883.8817552,-2.451,-22.771,184.981
11.1222,128.18081,37.941875,5881.803324,-1.852,-22.812,185.027
11.1389,128.180804,37.941832,5879.7221496,-1.145,-22.855,185.071
11.1556,128.180799,37.941789,5877.6379272,-0.334,-22.898,185.114
11.1723,128.180794,37.941746,5875.5500472,0.575,-22.941,185.155
11.189,128.180789,37.941703,5873.4579,1.578,-22.983,185.195
11.2057,128.180784,37.94166,5871.3611808,2.671,-23.026,185.233
11.2224,128.180779,37.941617,5869.2617184,3.849,-23.051,185.27
11.2391,128.180773,37.941574,5867.1589032,5.107,-23.042,185.308
11.2557,128.180768,37.941531,5865.053344800001,6.439,-22.985,185.351
11.2724,128.180763,37.941488,5862.945348,7.841,-22.862,185.401
11.2891,128.180758,37.941445,5860.8364368,9.306,-22.666,185.464
11.3059,128.180753,37.941402,5858.726611200001,10.83,-22.388,185.545
11.3226,128.180747,37.941359,5856.6173952,12.405,-22.021,185.65
11.3393,128.180742,37.941316,5854.5090936,13.822,-21.575,185.752
11.356,128.180737,37.941273,5852.4026208,15.086,-21.067,185.851
11.3727,128.180732,37.94123,5850.299500800001,16.183,-20.517,185.957
11.3894,128.180726,37.941187,5848.200648,17.103,-19.949,186.075
11.4061,128.180721,37.941143,5846.1063672,17.847,-19.386,186.203
11.4228,128.180716,37.9411,5844.0178776,18.425,-18.849,186.336
11.4394,128.18071,37.941057,5841.9357887999995,18.849,-18.358,186.464
11.4561,128.180705,37.941014,5839.8607104,19.13,-17.932,186.579
11.4728,128.180699,37.94097,5837.792642400001,19.282,-17.59,186.671
11.4896,128.180694,37.940927,5835.7318896,19.317,-17.35,186.731
11.5063,128.180688,37.940884,5833.678756800001,19.244,-17.228,186.751
11.523,128.180683,37.94084,5831.6326344,19.073,-17.24,186.726
11.5397,128.180677,37.940797,5829.5944368,18.809,-17.368,186.66
11.5564,128.180671,37.940753,5827.5629448,18.455,-17.589,186.562
11.5731,128.180666,37.94071,5825.538768,18.012,-17.885,186.439
11.5898,128.18066,37.940666,5823.5212968000005,17.482,-18.232,186.3
11.6065,128.180654,37.940623,5821.510836,16.866,-18.611,186.152
11.6231,128.180648,37.940579,5819.5070808,16.165,-18.999,186.004
11.6398,128.180642,37.940536,5817.508812,15.377,-19.376,185.863
11.6565,128.180636,37.940492,5815.5166392,14.504,-19.721,185.735
11.6733,128.18063,37.940448,5813.5302576,13.545,-20.013,185.627
11.69,128.180624,37.940405,5811.5496672,12.502,-20.238,185.542
11.7067,128.180618,37.940361,5809.5736488,11.378,-20.403,185.476
11.7234,128.180612,37.940317,5807.6025072,10.179,-20.522,185.425
11.7401,128.180606,37.940274,5805.6356328,8.909,-20.609,185.384
11.7568,128.1806,37.94023,5803.6733304,7.779,-20.651,185.383
11.7735,128.180594,37.940186,5801.7149904,6.786,-20.631,185.421
11.7902,128.180588,37.940142,5799.7612224,5.946,-20.534,185.484
11.8068,128.180582,37.940098,5797.8123312,5.27,-20.35,185.562
11.8235,128.180576,37.940055,5795.8683168,4.762,-20.066,185.647
11.8402,128.18057,37.940011,5793.9291792,4.42,-19.69,185.736
11.857,128.180564,37.939967,5791.994918400001,4.237,-19.238,185.826
11.8737,128.180558,37.939923,5790.0655344,4.204,-18.726,185.917
11.8904,128.180552,37.939879,5788.1416368,4.312,-18.172,186.006
11.9071,128.180546,37.939835,5786.2232256,4.552,-17.6,186.096
11.9238,128.18054,37.939791,5784.310300800001,4.918,-17.031,186.184
11.9405,128.180534,37.939747,5782.4028624,5.4,-16.49,186.272
11.9572,128.180528,37.939703,5780.500910400001,5.992,-15.997,186.356
11.9739,128.180522,37.939659,5778.6044448,6.688,-15.571,186.437
11.9905,128.180515,37.939615,5776.713770400001,7.481,-15.204,186.515
12.0072,128.180509,37.93957,5774.829192,8.365,-14.882,186.592
12.0239,128.180503,37.939526,5772.9501,9.334,-14.594,186.67
12.0407,128.180497,37.939482,5771.077104,10.385,-14.333,186.749
12.0574,128.180491,37.939438,5769.2105088,11.514,-14.092,186.831
12.0741,128.180484,37.939393,5767.3506192,12.716,-13.868,186.916
12.0908,128.180478,37.939349,5765.4974352,13.99,-13.659,187.003
12.1075,128.180472,37.939305,5763.6512616,15.333,-13.464,187.095
12.1242,128.180466,37.93926,5761.8120984,16.742,-13.28,187.19
12.1409,128.180459,37.939216,5759.9799456,18.215,-13.106,187.289
12.1576,128.180453,37.939171,5758.1548032,19.75,-12.942,187.392
12.1743,128.180446,37.939127,5756.336976,21.345,-12.788,187.5
12.1909,128.18044,37.939082,5754.5258544,22.806,-12.65,187.582
12.2076,128.180433,37.939038,5752.722048,24.142,-12.544,187.632
12.2243,128.180427,37.938993,5750.925252000001,25.345,-12.488,187.65
12.2411,128.18042,37.938948,5749.1354664,26.41,-12.498,187.634
12.2578,128.180413,37.938904,5747.3523864,27.339,-12.59,187.58
12.2745,128.180406,37.938859,5745.5754024,28.137,-12.767,187.484
12.2912,128.1804,37.938814,5743.804819200001,28.811,-13.009,187.356
12.3079,128.180393,37.93877,5742.0406368,29.366,-13.294,187.204
12.3246,128.180386,37.938725,5740.2819408000005,29.807,-13.601,187.038
12.3413,128.180379,37.93868,5738.529340800001,30.138,-13.911,186.87
12.358,128.180372,37.938635,5736.782532,30.362,-14.202,186.709
12.3746,128.180365,37.938591,5735.0421240000005,30.483,-14.459,186.568
12.3913,128.180358,37.938546,5733.3068976,30.504,-14.679,186.446
12.408,128.18035,37.938501,5731.5777672,30.43,-14.869,186.341
12.4248,128.180343,37.938456,5729.8538184,30.265,-15.035,186.249
12.4415,128.180336,37.938411,5728.1359656,30.013,-15.185,186.167
12.4582,128.180328,37.938366,5726.4235992,29.679,-15.323,186.092
12.4749,128.180321,37.938321,5724.7173288,29.265,-15.449,186.024
12.4916,128.180314,37.938276,5723.0159352,28.775,-15.567,185.962
12.5083,128.180306,37.938231,5721.3194184,28.213,-15.677,185.906
12.525,128.180299,37.938187,5719.6280832,27.581,-15.78,185.855
12.5417,128.180291,37.938142,5717.941320000001,26.882,-15.876,185.808
12.5583,128.180284,37.938097,5716.259433600001,26.12,-15.966,185.766
12.575,128.180276,37.938052,5714.5818144,25.297,-16.05,185.728
12.5917,128.180268,37.938007,5712.9084624,24.416,-16.129,185.694
12.6085,128.180261,37.937962,5711.239682400001,23.693,-16.197,185.696
12.6252,128.180253,37.937916,5709.575169600001,23.118,-16.236,185.742
12.6419,128.180245,37.937871,5707.914314400001,22.703,-16.226,185.828
12.6586,128.180237,37.937826,5706.2577264,22.458,-16.149,185.948
12.6753,128.18023,37.937781,5704.6054056,22.383,-15.993,186.101
12.692,128.180222,37.937736,5702.957656800001,22.473,-15.749,186.288
12.7087,128.180214,37.937691,5701.3147848,22.718,-15.419,186.508
12.7254,128.180206,37.937646,5699.6761799999995,23.112,-15.018,186.756
12.742,128.180198,37.937601,5698.042147200001,23.644,-14.565,187.027
12.7587,128.18019,37.937556,5696.413296000001,24.308,-14.077,187.316
12.7754,128.180182,37.93751,5694.7893216,25.097,-13.577,187.613
12.7922,128.180174,37.937465,5693.1705288,26.002,-13.086,187.911
12.8089,128.180166,37.93742,5691.5566128,27.019,-12.626,188.201
12.8256,128.180158,37.937375,5689.9475736,28.14,-12.218,188.473
12.8423,128.18015,37.937329,5688.3434112,29.362,-11.869,188.723
12.859,128.180142,37.937284,5686.7441256,30.675,-11.573,188.954
12.8757,128.180134,37.937239,5685.1497168,32.075,-11.316,189.173
12.8924,128.180125,37.937193,5683.55988,33.556,-11.089,189.385
12.9091,128.180117,37.937148,5681.9758344,35.114,-10.885,189.594
12.9257,128.180109,37.937103,5680.396665600001,36.746,-10.701,189.801
12.9424,128.1801,37.937057,5678.822983200001,38.45,-10.533,190.008
12.9591,128.180092,37.937012,5677.254482400001,40.223,-10.379,190.215
12.9759,128.180083,37.936966,5675.6917728,42.055,-10.239,190.423
12.9926,128.180074,37.936921,5674.1351592,43.923,-10.111,190.631
13.0093,128.180066,37.936875,5672.5843368000005,45.808,-9.992,190.84
13.026,128.180057,37.93683,5671.039610400001,47.691,-9.882,191.049
13.0427,128.180048,37.936784,5669.5012848,49.556,-9.78,191.26
13.0594,128.180039,37.936739,5667.969360000001,51.388,-9.686,191.473
13.0761,128.18003,37.936693,5666.4417023999995,53.079,-9.598,191.664
13.0928,128.18002,37.936648,5664.9201408,54.637,-9.525,191.818
13.1095,128.180011,37.936602,5663.403760800001,56.061,-9.48,191.925
13.1262,128.180001,37.936557,5661.8925624,57.35,-9.477,191.975
13.1429,128.179992,37.936511,5660.385936000001,58.51,-9.522,191.953
13.1596,128.179982,37.936465,5658.8835768,59.551,-9.622,191.846
13.1763,128.179972,37.93642,5657.3854848,60.477,-9.762,191.672
13.193,128.179962,37.936374,5655.8910504000005,61.294,-9.928,191.452
13.2097,128.179952,37.936329,5654.400578400001,62.007,-10.106,191.205
13.2264,128.179942,37.936283,5652.913764000001,62.619,-10.285,190.951
13.2431,128.179931,37.936238,5651.4303024,63.136,-10.452,190.713
13.2598,128.179921,37.936192,5649.9501936,63.558,-10.597,190.509
13.2765,128.179911,37.936147,5648.473437600001,63.89,-10.72,190.344
13.2932,128.1799,37.936101,5646.99912,64.137,-10.825,190.209
13.3099,128.179889,37.936056,5645.5275456,64.305,-10.918,190.095
13.3266,128.179879,37.93601,5644.0581048,64.397,-11.001,189.996
13.3433,128.179868,37.935965,5642.5911024,64.418,-11.078,189.909
13.36,128.179857,37.935919,5641.125928800001,64.37,-11.149,189.832
13.3767,128.179846,37.935873,5639.6628888,64.256,-11.215,189.763
13.3934,128.179835,37.935828,5638.2016776,64.08,-11.278,189.701
13.4101,128.179824,37.935782,5636.742295200001,63.845,-11.338,189.646
13.4268,128.179813,37.935737,5635.286265600001,63.775,-11.409,189.627
13.4435,128.179801,37.935691,5633.831760000001,63.86,-11.484,189.662
13.4602,128.17979,37.935646,5632.378778400001,64.106,-11.546,189.763
13.4769,128.179779,37.9356,5630.9273207999995,64.513,-11.578,189.936
13.4936,128.179767,37.935555,5629.4773872000005,65.059,-11.571,190.191
13.5103,128.179756,37.935509,5628.0286728,65.711,-11.519,190.536
13.527,128.179744,37.935464,5626.581482400001,66.444,-11.424,190.967
13.5437,128.179732,37.935418,5625.135511200001,67.231,-11.295,191.468
13.5604,128.179721,37.935373,5623.690759200001,68.052,-11.142,192.024
13.5771,128.179709,37.935327,5622.2475312,68.887,-10.976,192.618
13.5938,128.179697,37.935282,5620.8064368000005,69.723,-10.809,193.227
13.6105,128.179685,37.935236,5619.367476,70.551,-10.651,193.831
13.6272,128.179673,37.935191,5617.930344,71.365,-10.511,194.408
13.6439,128.17966,37.935145,5616.4953456,72.163,-10.396,194.936
13.6606,128.179648,37.9351,5615.0624808,72.944,-10.309,195.402
13.6773,128.179636,37.935055,5613.6314448,73.704,-10.247,195.815
13.694,128.179623,37.935009,5612.2022376,74.442,-10.204,196.191
13.7107,128.17961,37.934964,5610.775164000001,75.157,-10.175,196.542
13.7274,128.179597,37.934918,5609.3496144,75.85,-10.157,196.875
13.7441,128.179584,37.934873,5607.9258936,76.522,-10.148,197.196
13.7608,128.179571,37.934828,5606.5036968,77.175,-10.146,197.507
13.7775,128.179557,37.934782,5605.082719200001,77.81,-10.15,197.81
13.7942,128.179544,37.934737,5603.663265600001,78.43,-10.16,198.104
13.8109,128.17953,37.934691,5602.2450312,79.036,-10.175,198.391
13.8276,128.179516,37.934646,5600.8277112000005,79.629,-10.196,198.671
13.8443,128.179502,37.934601,5599.411305600001,80.211,-10.22,198.946
13.861,128.179488,37.934556,5597.9955096,80.783,-10.249,199.214
13.8777,128.179474,37.934511,5596.580628000001,81.348,-10.282,199.477
13.8944,128.179459,37.934465,5595.166051200001,81.906,-10.318,199.735
13.9111,128.179445,37.93442,5593.752084000001,82.46,-10.358,199.989
13.9278,128.17943,37.934375,5592.3384216,83.013,-10.402,200.238
13.9445,128.179415,37.93433,5590.9247592,83.566,-10.449,200.484
13.9612,128.1794,37.934285,5589.510792000001,84.122,-10.499,200.725
13.9779,128.179385,37.93424,5588.0971296,84.684,-10.552,200.964
13.9946,128.179369,37.934195,5586.6828576,85.258,-10.609,201.199
14.0113,128.179354,37.93415,5585.267976,85.847,-10.669,201.431
14.028,128.179338,37.934105,5583.8527896,86.459,-10.733,201.66
14.0447,128.179322,37.93406,5582.4363840000005,87.102,-10.8,201.886
14.0614,128.179306,37.934015,5581.019368800001,87.79,-10.872,202.11
14.0781,128.17929,37.93397,5579.6008296,88.541,-10.949,202.331
14.0948,128.179274,37.933926,5578.181376,89.383,-11.033,202.549
14.1115,128.179257,37.933881,5576.7603984,90.343,-11.125,202.764
14.1282,128.179241,37.933836,5575.337287200001,91.418,-11.223,202.977
14.1449,128.179224,37.933791,5573.912347200001,92.604,-11.327,203.187
14.1616,128.179207,37.933747,5572.4852736,93.9,-11.434,203.394
14.1783,128.179191,37.933702,5571.055456800001,95.3,-11.547,203.599
14.195,128.179174,37.933657,5569.6232016,96.802,-11.665,203.801
14.2117,128.179156,37.933613,5568.1878983999995,98.377,-11.786,204.001
14.2284,128.179139,37.933568,5566.7489376,99.977,-11.91,204.2
14.2451,128.179122,37.933523,5565.306319200001,101.57,-12.035,204.399
14.2618,128.179104,37.933479,5563.8582144,103.035,-12.148,204.601
14.2785,128.179087,37.933434,5562.4061472,104.378,-12.252,204.806
14.2952,128.179069,37.93339,5560.9492032,105.595,-12.351,205.013
14.3119,128.179051,37.933346,5559.487382400001,106.686,-12.451,205.223
14.3286,128.179033,37.933301,5558.02038,107.651,-12.553,205.433
14.3453,128.179014,37.933257,5556.547891200001,108.494,-12.662,205.644
14.362,128.178996,37.933213,5555.0696112000005,109.22,-12.776,205.854
14.3787,128.178977,37.933168,5553.5852352,109.836,-12.896,206.064
14.3954,128.178959,37.933124,5552.0944584,110.347,-13.019,206.274
14.4121,128.17894,37.93308,5550.596976,110.76,-13.146,206.483
14.4288,128.178921,37.933036,5549.092483200001,111.078,-13.275,206.692
14.4455,128.178902,37.932992,5547.58098,111.308,-13.406,206.899
14.4622,128.178882,37.932949,5546.0621616,111.452,-13.539,207.105
14.4789,128.178863,37.932905,5544.535723200001,111.516,-13.672,207.31
14.4956,128.178843,37.932861,5543.001664800001,111.503,-13.805,207.514
14.5123,128.178823,37.932817,5541.4599864,111.416,-13.938,207.717
14.529,128.178803,37.932774,5539.910688000001,111.259,-14.069,207.918
14.5457,128.178783,37.93273,5538.3537696,111.034,-14.199,208.118
14.5624,128.178762,37.932687,5536.7892312,110.744,-14.328,208.317
14.5791,128.178742,37.932644,5535.2173776,110.391,-14.453,208.515
14.5958,128.178721,37.932601,5533.6375992,109.978,-14.576,208.711
14.6125,128.1787,37.932557,5532.050810400001,109.506,-14.696,208.906
14.6292,128.178679,37.932514,5530.4564016,108.978,-14.812,209.099
14.6459,128.178658,37.932471,5528.8549824,108.395,-14.924,209.291
14.6626,128.178636,37.932428,5527.2462479999995,107.759,-15.033,209.481
14.6793,128.178615,37.932386,5525.630808,107.071,-15.137,209.67
14.696,128.178593,37.932343,5524.0083576,106.332,-15.237,209.857
14.7127,128.178571,37.9323,5522.3819448,105.754,-15.358,210.035
14.7294,128.178549,37.932258,5520.7491312,105.329,-15.5,210.204
14.7461,128.178526,37.932215,5519.1102216,105.065,-15.652,210.367
14.7628,128.178504,37.932173,5517.465216,104.967,-15.807,210.527
14.7795,128.178481,37.93213,5515.814419200001,105.032,-15.961,210.686
14.7962,128.178458,37.932088,5514.1578312,105.252,-16.115,210.844
14.8129,128.178435,37.932046,5512.495147200001,105.621,-16.268,211.001
14.8296,128.178412,37.932004,5510.826672,106.133,-16.42,211.158
14.8463,128.178389,37.931962,5509.152405600001,106.782,-16.572,211.315
14.863,128.178366,37.93192,5507.4720431999995,107.563,-16.723,211.472
14.8797,128.178342,37.931878,5505.7858896,108.47,-16.873,211.63
14.8964,128.178318,37.931836,5504.0933352,109.498,-17.023,211.788
14.9131,128.178295,37.931794,5502.3946848,110.642,-17.173,211.946
14.9298,128.178271,37.931752,5500.689938400001,111.894,-17.327,212.104
14.9465,128.178247,37.93171,5498.9787912,113.249,-17.484,212.259
14.9632,128.178223,37.931669,5497.2612432,114.693,-17.645,212.414
14.9799,128.178199,37.931627,5495.5372944,116.217,-17.811,212.566
14.9966,128.178174,37.931585,5493.804506400001,117.616,-17.957,212.713
15.0133,128.17815,37.931544,5492.064708,118.896,-18.083,212.854
15.03,128.178125,37.931502,5490.31668,120.057,-18.194,212.988
15.0467,128.178101,37.931461,5488.560727200001,121.094,-18.297,213.116
15.0634,128.178076,37.93142,5486.7968496,122.004,-18.398,213.237
15.0801,128.178051,37.931378,5485.024437600001,122.789,-18.501,213.352
15.0968,128.178026,37.931337,5483.2431864,123.454,-18.606,213.462
15.1135,128.178001,37.931296,5481.4527912,124.005,-18.714,213.568
15.1302,128.177976,37.931255,5479.653252000001,124.448,-18.824,213.671
15.1469,128.177951,37.931214,5477.844264,124.79,-18.936,213.772
15.1636,128.177925,37.931173,5476.0255224,125.035,-19.049,213.871
15.1803,128.1779,37.931132,5474.1967224,125.188,-19.163,213.97
15.197,128.177874,37.931091,5472.357559200001,125.254,-19.277,214.069
15.2137,128.177848,37.931051,5470.5083376,125.235,-19.392,214.168
15.2304,128.177822,37.93101,5468.648448,125.137,-19.508,214.268
15.2471,128.177796,37.93097,5466.7778904,124.961,-19.624,214.37
