Time,Longitude,Latitude,Altitude,Roll (deg),Pitch (deg),Yaw (deg)
0.0,128.181881,37.968463,7002.830292000001,0.0,-0.003,179.999
0.0167,128.181881,37.968418,7002.8116992000005,0.0,-0.012,180.0
0.0334,128.181881,37.968374,7002.792496800001,0.0,-0.025,180.0
0.0501,128.181881,37.968329,7002.7720752,0.0,-0.04,180.0
0.0668,128.181881,37.968284,7002.751044,0.0,-0.057,180.0
0.0834,128.181881,37.968239,7002.7287936,0.0,-0.075,180.0
0.1002,128.181881,37.968194,7002.705933600001,0.0,-0.094,180.0
0.1169,128.181881,37.968149,7002.682159200001,0.001,-0.112,180.0
0.1336,128.181881,37.968104,7002.657470400001,0.001,-0.131,180.0
0.1503,128.181881,37.968059,7002.6315624,0.001,-0.149,180.0
0.1669,128.181881,37.968014,7002.6050448000005,0.002,-0.167,180.0
0.1837,128.181881,37.967969,7002.5776128,0.002,-0.185,180.0
0.2004,128.181881,37.967924,7002.5489615999995,0.002,-0.203,180.0
0.2171,128.181881,37.96788,7002.519396000001,0.003,-0.22,180.0
0.2338,128.181881,37.967835,7002.488916,0.003,-0.237,180.0
0.2505,128.181881,37.96779,7002.4575216,0.004,-0.254,180.0
0.2672,128.181881,37.967745,7002.4252128,0.004,-0.271,180.0
0.2839,128.181881,37.9677,7002.3916848,0.005,-0.287,180.0
0.3006,128.181881,37.967655,7002.3572424,0.006,-0.304,180.0
0.3172,128.181881,37.96761,7002.3218856,0.007,-0.32,180.0
0.3339,128.181881,37.967565,7002.285309600001,0.007,-0.335,180.0
0.3507,128.181881,37.967521,7002.248124000001,0.008,-0.351,180.0
0.3674,128.181881,37.967476,7002.2094144,0.009,-0.366,180.0
0.3841,128.181881,37.967431,7002.1700952,0.011,-0.381,180.0
0.4008,128.181881,37.967386,7002.1295568000005,0.012,-0.396,180.0
0.4175,128.181881,37.967341,7002.088104,0.013,-0.411,180.001
0.4342,128.181881,37.967296,7002.045432000001,0.014,-0.426,180.001
0.4509,128.181881,37.967252,7002.001845600001,0.016,-0.441,180.001
0.4676,128.181881,37.967207,7001.95704,0.018,-0.455,180.001
0.4843,128.181881,37.967162,7001.911320000001,0.019,-0.469,180.001
0.501,128.181881,37.967117,7001.8646856000005,0.021,-0.484,180.001
0.5176,128.181881,37.967072,7001.816832,0.023,-0.498,180.001
0.5344,128.181881,37.967028,7001.7677592,0.026,-0.512,180.001
0.5511,128.181881,37.966983,7001.7180768,0.028,-0.526,180.002
0.5678,128.181881,37.966938,7001.666870400001,0.031,-0.54,180.002
0.5845,128.181881,37.966893,7001.6147496,0.034,-0.553,180.002
0.6012,128.181881,37.966849,7001.561714400001,0.037,-0.567,180.002
0.6179,128.181881,37.966804,7001.507460000001,0.04,-0.581,180.002
0.6345,128.181881,37.966759,7001.4519864,0.044,-0.594,180.003
0.6513,128.181881,37.966714,7001.3955984,0.048,-0.608,180.003
0.6679,128.181881,37.96667,7001.338296000001,0.052,-0.621,180.003
0.6847,128.181881,37.966625,7001.279774400001,0.057,-0.635,180.003
0.7014,128.181881,37.96658,7001.2200336000005,0.062,-0.648,180.004
0.7181,128.181881,37.966536,7001.159378400001,0.068,-0.662,180.004
0.7348,128.181881,37.966491,7001.097504,0.073,-0.675,180.004
0.7514,128.181881,37.966446,7001.0347152,0.08,-0.688,180.005
0.7682,128.181881,37.966402,7000.9704024,0.087,-0.702,180.005
0.7848,128.181881,37.966357,7000.90548,0.094,-0.715,180.005
0.8016,128.181881,37.966312,7000.839033600001,0.103,-0.728,180.006
0.8183,128.181881,37.966268,7000.7716728000005,0.111,-0.741,180.006
0.835,128.181881,37.966223,7000.703397600001,0.121,-0.755,180.007
0.8517,128.181881,37.966179,7000.6339032,0.131,-0.768,180.008
0.8684,128.181881,37.966134,7000.5628848,0.143,-0.781,180.008
0.8851,128.181881,37.966089,7000.491256800001,0.155,-0.794,180.009
0.9018,128.181881,37.966045,7000.4181048,0.168,-0.808,180.01
0.9185,128.181881,37.966,7000.3440384000005,0.182,-0.821,180.011
0.9352,128.181881,37.965956,7000.2687528,0.198,-0.834,180.011
0.9519,128.181881,37.965911,7000.1925528,0.215,-0.847,180.012
0.9686,128.181881,37.965867,7000.1148288,0.233,-0.861,180.013
0.9853,128.181881,37.965822,7000.0361904,0.252,-0.874,180.014
1.002,128.181881,37.965778,6999.9563328,0.274,-0.887,180.016
1.0187,128.181881,37.965733,6999.8749512,0.297,-0.901,180.017
1.0353,128.181881,37.965689,6999.792960000001,0.321,-0.914,180.018
1.0521,128.181881,37.965644,6999.7094448,0.348,-0.927,180.02
1.0688,128.181881,37.9656,6999.6247104,0.378,-0.941,180.022
1.0855,128.181881,37.965555,6999.538756800001,0.409,-0.954,180.023
1.1022,128.181881,37.965511,6999.451584000001,0.443,-0.968,180.025
1.1189,128.181881,37.965466,6999.363192000001,0.481,-0.981,180.027
1.1356,128.181881,37.965422,6999.2735808,0.521,-0.995,180.03
1.1522,128.181881,37.965377,6999.1827504,0.564,-1.008,180.032
1.169,128.181881,37.965333,6999.0907008,0.611,-1.022,180.035
1.1857,128.181881,37.965288,6998.9971272,0.662,-1.036,180.037
1.2024,128.181881,37.965244,6998.9023344,0.717,-1.05,180.04
1.2191,128.181881,37.9652,6998.806322400001,0.777,-1.063,180.044
1.2358,128.181881,37.965155,6998.7087864000005,0.841,-1.077,180.047
1.2525,128.181881,37.965111,6998.6100312,0.911,-1.091,180.051
1.2691,128.18188,37.965066,6998.509752000001,0.987,-1.106,180.055
1.2859,128.18188,37.965022,6998.4079488,1.068,-1.12,180.06
1.3026,128.18188,37.964978,6998.3049264,1.157,-1.134,180.065
1.3193,128.18188,37.964933,6998.200075199999,1.253,-1.148,180.07
1.3359,128.18188,37.964889,6998.0940048,1.357,-1.163,180.076
1.3527,128.18188,37.964845,6997.986410400001,1.469,-1.178,180.082
1.3694,128.18188,37.9648,6997.8769872,1.591,-1.192,180.089
1.386,128.18188,37.964756,6997.76604,1.723,-1.207,180.096
1.4028,128.18188,37.964712,6997.6535688,1.865,-1.223,180.104
1.4195,128.18188,37.964667,6997.5392688,2.019,-1.238,180.112
1.4362,128.18188,37.964623,6997.42314,2.186,-1.253,180.122
1.4528,128.18188,37.964579,6997.3051824,2.368,-1.269,180.131
1.4696,128.18188,37.964535,6997.1850912,2.564,-1.285,180.141
1.4863,128.18188,37.96449,6997.063476,2.778,-1.301,180.152
1.5029,128.18188,37.964446,6996.939422400001,3.01,-1.318,180.162
1.5197,128.18188,37.964402,6996.81354,3.262,-1.335,180.173
1.5364,128.18188,37.964357,6996.685524,3.536,-1.352,180.184
1.5531,128.18188,37.964313,6996.555069600001,3.832,-1.369,180.196
1.5697,128.18188,37.964269,6996.422176800001,4.154,-1.387,180.208
1.5865,128.18188,37.964225,6996.286845600001,4.503,-1.405,180.22
1.6032,128.18188,37.964181,6996.149076,4.882,-1.424,180.233
1.6198,128.18188,37.964136,6996.0082584,5.294,-1.444,180.246
1.6366,128.18188,37.964092,6995.864697600001,5.74,-1.463,180.26
1.6533,128.18188,37.964048,6995.7180888,6.224,-1.484,180.274
1.67,128.18188,37.964004,6995.568432,6.749,-1.505,180.289
1.6867,128.18188,37.963959,6995.4154224,7.32,-1.527,180.305
1.7034,128.18188,37.963915,6995.260279200001,7.864,-1.549,180.316
1.7201,128.18188,37.963871,6995.1030024,8.38,-1.571,180.321
1.7368,128.18188,37.963827,6994.944506400001,8.873,-1.592,180.324
1.7535,128.18188,37.963783,6994.784486400001,9.346,-1.614,180.326
1.7702,128.18188,37.963738,6994.623552000001,9.805,-1.635,180.328
1.7869,128.18188,37.963694,6994.4610936,10.255,-1.657,180.33
1.8036,128.18188,37.96365,6994.2971112000005,10.7,-1.679,180.334
1.8203,128.18188,37.963606,6994.1313,11.145,-1.702,180.339
1.837,128.18188,37.963562,6993.9639648,11.594,-1.725,180.344
1.8537,128.18188,37.963518,6993.794496,12.049,-1.748,180.351
1.8704,128.18188,37.963474,6993.6228936,12.513,-1.772,180.358
1.8871,128.18188,37.963429,6993.4494624,12.989,-1.796,180.366
1.9038,128.18188,37.963385,6993.273897600001,13.479,-1.82,180.375
1.9205,128.18188,37.963341,6993.0961992,13.984,-1.845,180.384
1.9372,128.18188,37.963297,6992.9160624,14.505,-1.87,180.393
1.9539,128.18188,37.963253,6992.733792000001,15.043,-1.895,180.402
1.9706,128.181879,37.963209,6992.5490832000005,15.601,-1.921,180.412
1.9873,128.181879,37.963165,6992.361936,16.178,-1.947,180.422
2.004,128.181879,37.963121,6992.1723504,16.776,-1.974,180.432
2.0207,128.181879,37.963077,6991.9803264,17.396,-2.001,180.443
2.0374,128.181879,37.963032,6991.785864,18.039,-2.028,180.453
2.0541,128.181879,37.962988,6991.5886584,18.705,-2.056,180.463
2.0707,128.181879,37.962944,6991.388709600001,19.395,-2.084,180.474
2.0875,128.181879,37.9629,6991.1860176,20.111,-2.113,180.485
2.1042,128.181879,37.962856,6990.9808872,20.853,-2.143,180.495
2.1208,128.181879,37.962812,6990.772404,21.622,-2.173,180.506
2.1376,128.181879,37.962768,6990.5614824,22.419,-2.204,180.517
2.1543,128.181879,37.962724,6990.3475128,23.246,-2.236,180.527
2.171,128.181879,37.96268,6990.1304952,24.104,-2.268,180.538
2.1877,128.181879,37.962636,6989.910124800001,24.993,-2.301,180.548
2.2044,128.181879,37.962592,6989.687011200001,25.915,-2.334,180.557
2.2211,128.181879,37.962548,6989.4605448,26.871,-2.368,180.567
2.2378,128.181879,37.962504,6989.2307256,27.862,-2.403,180.575
2.2544,128.181878,37.96246,6988.9978584,28.888,-2.438,180.584
2.2712,128.181878,37.962416,6988.761638400001,29.952,-2.475,180.592
2.2879,128.181878,37.962372,6988.521760800001,31.055,-2.512,180.599
2.3045,128.181878,37.962328,6988.2785304,32.197,-2.549,180.606
2.3213,128.181878,37.962284,6988.031947200001,33.38,-2.588,180.612
2.338,128.181878,37.96224,6987.781401600001,34.605,-2.627,180.617
2.3546,128.181878,37.962196,6987.5275032,35.873,-2.667,180.622
2.3714,128.181878,37.962152,6987.2699472,37.185,-2.708,180.625
2.3881,128.181878,37.962108,6987.008428800001,38.543,-2.75,180.628
2.4048,128.181878,37.962064,6986.7432528,39.948,-2.793,180.63
2.4215,128.181878,37.96202,6986.474419200001,41.398,-2.836,180.631
2.4382,128.181878,37.961976,6986.2022328,42.892,-2.88,180.631
2.4549,128.181878,37.961932,6985.926084000001,44.429,-2.924,180.629
2.4716,128.181878,37.961888,6985.646582400001,46.007,-2.968,180.626
2.4882,128.181878,37.961844,6985.363728,47.625,-3.013,180.621
2.505,128.181878,37.9618,6985.076911200001,49.281,-3.058,180.615
2.5217,128.181879,37.961756,6984.787046400001,50.975,-3.103,180.607
2.5383,128.181879,37.961712,6984.493524,52.705,-3.147,180.597
2.5551,128.181879,37.961668,6984.1969536,54.47,-3.192,180.586
2.5718,128.181879,37.961624,6983.8967256,56.268,-3.237,180.573
2.5884,128.181879,37.96158,6983.5931448,58.1,-3.282,180.559
2.6052,128.181879,37.961536,6983.286516,59.963,-3.326,180.543
2.6219,128.181879,37.961492,6982.9765344,61.858,-3.37,180.525
2.6386,128.181879,37.961448,6982.663504800001,63.782,-3.414,180.506
2.6553,128.181879,37.961404,6982.3471224,65.735,-3.457,180.486
2.6719,128.18188,37.96136,6982.027692000001,67.717,-3.5,180.464
2.6887,128.18188,37.961316,6981.7052136,69.726,-3.542,180.441
2.7054,128.18188,37.961272,6981.3796872,71.762,-3.584,180.416
2.722,128.18188,37.961228,6981.0511128,73.824,-3.624,180.39
2.7388,128.18188,37.961184,6980.7194904,75.911,-3.664,180.363
2.7555,128.181881,37.96114,6980.385124800001,78.022,-3.703,180.335
2.7721,128.181881,37.961096,6980.047711200001,80.158,-3.741,180.305
2.7889,128.181881,37.961052,6979.7075544,82.317,-3.779,180.275
2.8056,128.181881,37.961008,6979.3649592,84.499,-3.815,180.243
2.8222,128.181882,37.960964,6979.019316,86.702,-3.85,180.21
2.839,128.181882,37.96092,6978.6709296,88.928,-3.884,180.177
2.8557,128.181882,37.960876,6978.3201048,91.174,-3.916,180.143
2.8724,128.181883,37.960832,6977.9665368000005,93.441,-3.948,180.107
2.8891,128.181883,37.960788,6977.6105304,95.727,-3.978,180.072
2.9057,128.181883,37.960744,6977.2520856,98.033,-4.008,180.038
2.9225,128.181884,37.9607,6976.8912024,100.357,-4.037,180.012
2.9392,128.181884,37.960656,6976.5281856,102.698,-4.068,179.999
2.9558,128.181884,37.960612,6976.1627304,105.055,-4.103,180.002
2.9726,128.181885,37.960568,6975.794836800001,107.428,-4.142,180.023
2.9893,128.181885,37.960524,6975.4245048,109.816,-4.187,180.063
3.0059,128.181886,37.96048,6975.0520392,112.219,-4.241,180.122
3.0227,128.181886,37.960436,6974.67744,114.634,-4.305,180.201
3.0394,128.181886,37.960392,6974.300097600001,117.061,-4.381,180.297
3.056,128.181887,37.960348,6973.9206216,119.499,-4.469,180.411
3.0728,128.181887,37.960304,6973.538097600001,121.937,-4.572,180.54
3.0895,128.181888,37.96026,6973.1522208,124.36,-4.688,180.685
3.1062,128.181888,37.960216,6972.7626864,126.757,-4.82,180.844
3.1229,128.181888,37.960172,6972.3691896,129.114,-4.967,181.016
3.1395,128.181889,37.960129,6971.9714256,131.422,-5.13,181.198
3.1563,128.181889,37.960085,6971.5681752,133.67,-5.311,181.389
3.173,128.181889,37.960041,6971.1597432,135.851,-5.509,181.588
3.1896,128.181889,37.959997,6970.7452152000005,137.957,-5.726,181.793
3.2064,128.181889,37.959953,6970.3239816000005,139.983,-5.96,182.001
3.2231,128.18189,37.959909,6969.895432800001,141.926,-6.212,182.211
3.2397,128.18189,37.959865,6969.459568800001,143.783,-6.481,182.421
3.2565,128.18189,37.959821,6969.0154752,145.553,-6.767,182.629
3.2732,128.18189,37.959778,6968.563152000001,147.236,-7.069,182.835
3.2899,128.181889,37.959734,6968.1016848,148.834,-7.386,183.036
3.3066,128.181889,37.95969,6967.6310736000005,150.348,-7.716,183.232
3.3233,128.181889,37.959646,6967.1507088,151.78,-8.058,183.422
3.34,128.181889,37.959603,6966.6602856,153.134,-8.412,183.604
3.3567,128.181888,37.959559,6966.159804,154.412,-8.775,183.778
3.3734,128.181888,37.959515,6965.6483496,155.62,-9.147,183.944
3.3901,128.181887,37.959472,6965.1262272,156.76,-9.525,184.101
3.4068,128.181887,37.959428,6964.5928272,157.837,-9.906,184.247
3.4235,128.181886,37.959384,6964.0478448,158.855,-10.287,184.382
3.4402,128.181886,37.959341,6963.49128,159.818,-10.665,184.506
3.4569,128.181885,37.959297,6962.922523200001,160.729,-11.039,184.618
3.4736,128.181885,37.959254,6962.341879200001,161.593,-11.407,184.718
3.4903,128.181884,37.95921,6961.748738400001,162.414,-11.769,184.808
3.507,128.181883,37.959167,6961.143405600001,163.194,-12.123,184.887
3.5237,128.181882,37.959123,6960.5249664,163.936,-12.471,184.957
3.5404,128.181881,37.95908,6959.8940304,164.644,-12.811,185.017
3.5571,128.181881,37.959036,6959.2499880000005,165.319,-13.144,185.068
3.5738,128.18188,37.958993,6958.5925344,165.965,-13.47,185.112
3.5905,128.181879,37.95895,6957.922279200001,166.584,-13.789,185.148
3.6072,128.181878,37.958906,6957.238308,167.176,-14.102,185.178
3.6239,128.181877,37.958863,6956.5409256,167.745,-14.408,185.201
3.6406,128.181876,37.95882,6955.8313512,168.352,-14.709,185.213
3.6573,128.181874,37.958776,6955.108670400001,168.996,-15.006,185.214
3.674,128.181873,37.958733,6954.3741024,169.668,-15.297,185.208
3.6907,128.181872,37.95869,6953.6270376,170.363,-15.583,185.195
3.7074,128.181871,37.958647,6952.8671712,171.072,-15.864,185.178
3.7241,128.18187,37.958604,6952.0938936,171.788,-16.14,185.157
3.7408,128.181869,37.958561,6951.3069000000005,172.503,-16.411,185.133
3.7575,128.181867,37.958518,6950.5058856000005,173.212,-16.678,185.106
3.7742,128.181866,37.958475,6949.6911552,173.909,-16.941,185.077
3.7909,128.181865,37.958432,6948.8617944,174.589,-17.199,185.045
3.8076,128.181864,37.958389,6948.0178032,175.249,-17.455,185.01
3.8243,128.181862,37.958346,6947.159486400001,175.886,-17.707,184.972
3.841,128.181861,37.958303,6946.2862344,176.498,-17.957,184.932
3.8577,128.18186,37.95826,6945.398352000001,177.084,-18.204,184.889
3.8744,128.181858,37.958217,6944.4952296,177.643,-18.449,184.843
3.8911,128.181857,37.958175,6943.5774768,178.177,-18.691,184.796
3.9078,128.181856,37.958132,6942.6447888,178.686,-18.932,184.748
3.9245,128.181854,37.958089,6941.696860800001,179.17,-19.172,184.698
3.9412,128.181853,37.958047,6940.7343024,179.63,-19.41,184.647
3.9579,128.181852,37.958004,6939.756504,-179.933,-19.646,184.594
3.9746,128.18185,37.957962,6938.763770400001,-179.519,-19.881,184.538
3.9913,128.181849,37.957919,6937.756101600001,-179.128,-20.115,184.481
4.008,128.181847,37.957877,6936.7338024,-178.756,-20.347,184.422
4.0247,128.181846,37.957834,6935.6962632,-178.403,-20.579,184.362
4.0414,128.181845,37.957792,6934.6440936,-178.068,-20.809,184.299
4.058,128.181843,37.95775,6933.5769887999995,-177.748,-21.038,184.235
4.0748,128.181842,37.957708,6932.4952536,-177.444,-21.265,184.169
4.0915,128.18184,37.957665,6931.398583200001,-177.152,-21.492,184.102
4.1082,128.181839,37.957623,6930.286977600001,-176.874,-21.717,184.034
4.1249,128.181838,37.957581,6929.160741600001,-176.606,-21.941,183.965
4.1415,128.181836,37.957539,6928.0201799999995,-176.348,-22.164,183.895
4.1583,128.181835,37.957497,6926.8646832,-176.098,-22.386,183.824
4.175,128.181834,37.957455,6925.6942512000005,-175.856,-22.607,183.754
4.1917,128.181832,37.957413,6924.5094936,-175.62,-22.827,183.684
4.2084,128.181831,37.957371,6923.3101056000005,-175.389,-23.045,183.614
4.2251,128.18183,37.957329,6922.096392,-175.163,-23.263,183.546
4.2417,128.181828,37.957287,6920.8677431999995,-174.942,-23.48,183.478
4.2585,128.181827,37.957246,6919.6247688,-174.725,-23.696,183.411
4.2752,128.181826,37.957204,6918.3668592,-174.512,-23.91,183.344
4.2919,128.181824,37.957162,6917.094624,-174.303,-24.125,183.279
4.3086,128.181823,37.957121,6915.8080632,-174.097,-24.338,183.215
4.3252,128.181822,37.957079,6914.5065672,-173.896,-24.55,183.151
4.342,128.181821,37.957038,6913.190745600001,-173.699,-24.762,183.088
4.3587,128.181819,37.956996,6911.8605984,-173.507,-24.973,183.024
4.3754,128.181818,37.956955,6910.5155159999995,-173.32,-25.184,182.961
4.3921,128.181817,37.956914,6909.156108,-173.138,-25.393,182.897
4.4088,128.181816,37.956872,6907.782069600001,-172.961,-25.602,182.834
4.4254,128.181815,37.956831,6906.3937056,-172.789,-25.81,182.77
4.4422,128.181814,37.95679,6904.990711200001,-172.622,-26.018,182.705
4.4589,128.181812,37.956749,6903.5733912000005,-172.46,-26.225,182.641
4.4756,128.181811,37.956708,6902.1414408,-172.303,-26.432,182.576
4.4923,128.18181,37.956667,6900.6948600000005,-172.152,-26.638,182.511
4.5089,128.181809,37.956626,6899.2339536,-172.006,-26.843,182.446
4.5256,128.181808,37.956585,6897.7587216,-171.865,-27.048,182.38
4.5424,128.181807,37.956544,6896.2688592,-171.73,-27.253,182.315
4.5591,128.181806,37.956503,6894.7646712,-171.6,-27.457,182.249
4.5758,128.181805,37.956462,6893.2458528,-171.476,-27.661,182.184
4.5925,128.181804,37.956422,6891.712708800001,-171.357,-27.864,182.118
4.6091,128.181803,37.956381,6890.1649344,-171.245,-28.067,182.052
4.6259,128.181802,37.95634,6888.6031391999995,-171.138,-28.27,181.986
4.6426,128.181801,37.9563,6887.0267136,-171.038,-28.473,181.921
4.6593,128.1818,37.956259,6885.4356576,-170.943,-28.675,181.855
4.676,128.181799,37.956219,6883.8305808000005,-170.855,-28.877,181.79
4.6927,128.181798,37.956179,6882.210873600001,-170.774,-29.079,181.724
4.7093,128.181798,37.956138,6880.5768408,-170.698,-29.28,181.659
4.7261,128.181797,37.956098,6878.928482400001,-170.629,-29.482,181.594
4.7428,128.181796,37.956058,6877.2654936,-170.567,-29.683,181.529
4.7595,128.181795,37.956018,6875.588484000001,-170.51,-29.884,181.464
4.7762,128.181794,37.955978,6873.8971488,-170.461,-30.085,181.4
4.7928,128.181794,37.955938,6872.1911832000005,-170.417,-30.286,181.336
4.8096,128.181793,37.955898,6870.471196800001,-170.381,-30.486,181.272
4.8263,128.181792,37.955858,6868.7368848,-170.35,-30.687,181.208
4.843,128.181792,37.955818,6866.988247200001,-170.326,-30.887,181.145
4.8597,128.181791,37.955778,6865.2255888,-170.309,-31.087,181.083
4.8764,128.18179,37.955739,6863.4483,-170.297,-31.287,181.02
4.893,128.18179,37.955699,6861.6569904,-170.292,-31.488,180.959
4.9098,128.181789,37.955659,6859.85166,-170.293,-31.688,180.897
4.9265,128.181789,37.95562,6858.032004000001,-170.3,-31.888,180.836
4.9432,128.181788,37.955581,6856.1980224,-170.313,-32.087,180.776
4.9599,128.181788,37.955541,6854.350020000001,-170.332,-32.287,180.716
4.9765,128.181787,37.955502,6852.4879968000005,-170.356,-32.487,180.657
4.9932,128.181787,37.955463,6850.611648,-170.386,-32.687,180.599
5.01,128.181786,37.955423,6848.7212784,-170.421,-32.887,180.541
5.0267,128.181786,37.955384,6846.817192800001,-170.462,-33.086,180.483
5.0434,128.181785,37.955345,6844.8987816,-170.507,-33.286,180.427
5.0601,128.181785,37.955306,6842.9663496,-170.558,-33.486,180.371
5.0767,128.181785,37.955267,6841.0198968,-170.613,-33.686,180.316
5.0935,128.181784,37.955229,6839.059728,-170.673,-33.885,180.261
5.1102,128.181784,37.95519,6837.085538400001,-170.736,-34.085,180.207
5.1269,128.181784,37.955151,6835.097328000001,-170.805,-34.285,180.154
5.1436,128.181784,37.955112,6833.0954016000005,-170.877,-34.485,180.102
5.1602,128.181783,37.955074,6831.0794544,-170.952,-34.684,180.051
5.1769,128.181783,37.955035,6829.0497912,-171.032,-34.884,180.0
5.1937,128.181783,37.954997,6827.006412,-171.114,-35.084,179.951
5.2104,128.181783,37.954959,6824.949012,-171.2,-35.284,179.902
5.2271,128.181783,37.95492,6822.877896000001,-171.289,-35.483,179.854
5.2438,128.181782,37.954882,6820.793064,-171.381,-35.683,179.807
5.2604,128.181782,37.954844,6818.694820799999,-171.476,-35.883,179.761
5.2772,128.181782,37.954806,6816.582556800001,-171.573,-36.083,179.716
5.2939,128.181782,37.954768,6814.4568816,-171.673,-36.283,179.671
5.3106,128.181782,37.95473,6812.3174904,-171.775,-36.483,179.628
5.3273,128.181782,37.954692,6810.164383200001,-171.879,-36.682,179.586
5.3439,128.181782,37.954654,6807.997864800001,-171.985,-36.882,179.544
5.3606,128.181782,37.954617,6805.8179352,-172.093,-37.082,179.504
5.3774,128.181782,37.954579,6803.6242896,-172.203,-37.282,179.464
5.3941,128.181782,37.954541,6801.4172328,-172.314,-37.482,179.426
5.4108,128.181782,37.954504,6799.196764800001,-172.426,-37.682,179.388
5.4275,128.181782,37.954466,6796.9628856,-172.54,-37.883,179.352
5.4441,128.181782,37.954429,6794.7152904,-172.655,-38.083,179.316
5.4609,128.181783,37.954392,6792.4545888,-172.771,-38.283,179.281
5.4776,128.181783,37.954355,6790.1807808,-172.888,-38.483,179.248
5.4943,128.181783,37.954317,6787.893256800001,-173.006,-38.683,179.215
5.511,128.181783,37.95428,6785.5926264,-173.124,-38.883,179.183
5.5277,128.181783,37.954243,6783.2785848,-173.243,-39.083,179.153
5.5443,128.181783,37.954206,6780.9514368,-173.363,-39.284,179.123
5.5611,128.181784,37.95417,6778.611182400001,-173.483,-39.484,179.094
5.5778,128.181784,37.954133,6776.2575168,-173.603,-39.684,179.067
5.5945,128.181784,37.954096,6773.8907448,-173.723,-39.884,179.04
5.6112,128.181784,37.95406,6771.5108664,-173.844,-40.085,179.014
5.6278,128.181785,37.954023,6769.1178816,-173.965,-40.285,178.99
5.6445,128.181785,37.953987,6766.7120952000005,-174.086,-40.485,178.966
5.6613,128.181785,37.95395,6764.292897600001,-174.206,-40.685,178.943
5.678,128.181785,37.953914,6761.8608984,-174.327,-40.886,178.921
5.6947,128.181786,37.953878,6759.4157928,-174.448,-41.086,178.9
5.7114,128.181786,37.953842,6756.9575808,-174.568,-41.286,178.88
5.728,128.181786,37.953806,6754.486872,-174.688,-41.487,178.861
5.7448,128.181787,37.95377,6752.002752000001,-174.808,-41.687,178.843
5.7615,128.181787,37.953734,6749.5061352,-174.928,-41.887,178.826
5.7782,128.181788,37.953698,6746.9964119999995,-175.048,-42.088,178.81
5.7949,128.181788,37.953662,6744.473887200001,-175.167,-42.288,178.795
5.8115,128.181788,37.953627,6741.938865600001,-175.286,-42.488,178.78
5.8282,128.181789,37.953591,6739.390737600001,-175.404,-42.688,178.767
5.845,128.181789,37.953556,6736.829808,-175.522,-42.889,178.754
5.8617,128.18179,37.95352,6734.2563816,-175.64,-43.089,178.743
5.8784,128.18179,37.953485,6731.6701536,-175.757,-43.289,178.732
5.8951,128.18179,37.95345,6729.071428800001,-175.874,-43.489,178.722
5.9117,128.181791,37.953414,6726.4599024,-175.99,-43.689,178.713
5.9285,128.181791,37.953379,6723.835879200001,-176.105,-43.889,178.705
5.9452,128.181792,37.953344,6721.1990544,-176.22,-44.089,178.698
5.9619,128.181792,37.953309,6718.550037600001,-176.334,-44.289,178.691
5.9786,128.181793,37.953275,6715.888219200001,-176.448,-44.489,178.686
5.9952,128.181793,37.95324,6713.2142088,-176.561,-44.688,178.681
6.0119,128.181794,37.953205,6710.527396800001,-176.673,-44.888,178.677
6.0287,128.181794,37.953171,6707.828392800001,-176.785,-45.087,178.674
6.0454,128.181795,37.953136,6705.116892000001,-176.895,-45.286,178.672
6.0621,128.181795,37.953102,6702.3928944,-177.005,-45.486,178.67
6.0788,128.181796,37.953067,6699.656704800001,-177.115,-45.685,178.669
6.0954,128.181796,37.953033,6696.9080184,-177.223,-45.884,178.669
6.1121,128.181797,37.952999,6694.1474448,-177.331,-46.084,178.67
6.1289,128.181797,37.952965,6691.3743744,-177.438,-46.283,178.672
6.1456,128.181798,37.952931,6688.5888072,-177.544,-46.482,178.674
6.1623,128.181798,37.952897,6685.7913528,-177.65,-46.681,178.677
6.179,128.181799,37.952863,6682.981706400001,-177.755,-46.88,178.681
6.1956,128.1818,37.95283,6680.159868000001,-177.858,-47.08,178.685
6.2124,128.1818,37.952796,6677.3258376,-177.962,-47.279,178.691
6.2291,128.181801,37.952763,6674.479920000001,-178.064,-47.478,178.697
6.2458,128.181801,37.952729,6671.621810400001,-178.165,-47.677,178.703
6.2625,128.181802,37.952696,6668.7518136,-178.266,-47.876,178.71
6.2791,128.181802,37.952663,6665.869624800001,-178.366,-48.075,178.718
6.2958,128.181803,37.952629,6662.9755488,-178.466,-48.274,178.727
6.3126,128.181804,37.952596,6660.0695856,-178.565,-48.473,178.737
6.3293,128.181804,37.952563,6657.1517352,-178.663,-48.671,178.747
6.346,128.181805,37.95253,6654.221997600001,-178.761,-48.87,178.758
6.3627,128.181805,37.952498,6651.280372800001,-178.858,-49.069,178.769
6.3793,128.181806,37.952465,6648.326860800001,-178.954,-49.268,178.781
6.3961,128.181806,37.952432,6645.3614615999995,-179.05,-49.467,178.794
6.4128,128.181807,37.9524,6642.38448,-179.145,-49.665,178.807
6.4295,128.181808,37.952367,6639.3959159999995,-179.239,-49.864,178.821
6.4462,128.181808,37.952335,6636.395464800001,-179.333,-50.062,178.836
6.4628,128.181809,37.952303,6633.3834312,-179.426,-50.261,178.851
6.4795,128.181809,37.952271,6630.3598152,-179.519,-50.459,178.867
6.4963,128.18181,37.952238,6627.324312,-179.61,-50.658,178.883
6.513,128.18181,37.952206,6624.2775312,-179.701,-50.856,178.9
6.5297,128.181811,37.952175,6621.2191680000005,-179.792,-51.055,178.918
6.5464,128.181812,37.952143,6618.1492224,-179.881,-51.253,178.936
6.5631,128.181812,37.952111,6615.0679992000005,-179.971,-51.451,178.955
6.5798,128.181813,37.95208,6611.9748887999995,179.94,-51.65,178.974
6.5965,128.181813,37.952048,6608.8708056000005,179.852,-51.848,178.994
6.6132,128.181814,37.952017,6605.75514,179.765,-52.046,179.015
6.6299,128.181814,37.951985,6602.6281968,179.679,-52.244,179.036
6.6466,128.181815,37.951954,6599.489976,179.593,-52.442,179.058
6.6633,128.181816,37.951923,6596.340477600001,179.507,-52.64,179.08
6.68,128.181816,37.951892,6593.179396800001,179.423,-52.838,179.103
6.6967,128.181817,37.951861,6590.0073432,179.339,-53.036,179.126
6.7134,128.181817,37.95183,6586.8243168,179.255,-53.234,179.15
6.7301,128.181818,37.9518,6583.6300128,179.172,-53.432,179.174
6.7468,128.181818,37.951769,6580.4244312,179.089,-53.63,179.199
6.7635,128.181819,37.951738,6577.2078768,179.007,-53.826,179.224
6.7802,128.181819,37.951708,6573.9800448000005,178.925,-54.017,179.249
6.7969,128.18182,37.951678,6570.7415448,178.844,-54.201,179.275
6.8136,128.18182,37.951647,6567.492072,178.763,-54.376,179.301
6.8303,128.181821,37.951617,6564.2316264,178.683,-54.541,179.326
6.847,128.181821,37.951587,6560.9605128,178.603,-54.696,179.352
6.8637,128.181822,37.951557,6557.678731200001,178.524,-54.84,179.378
6.8804,128.181823,37.951528,6554.3862816,178.447,-54.974,179.403
6.8971,128.181823,37.951498,6551.0834688,178.37,-55.098,179.428
6.9138,128.181824,37.951468,6547.769988000001,178.294,-55.213,179.453
6.9305,128.181824,37.951439,6544.4464488,178.22,-55.319,179.478
6.9472,128.181824,37.951409,6541.112546400001,178.148,-55.418,179.502
6.9639,128.181825,37.95138,6537.7682808,178.077,-55.511,179.526
6.9806,128.181825,37.951351,6534.4142616,178.008,-55.597,179.549
6.9973,128.181826,37.951321,6531.050184000001,177.941,-55.678,179.572
7.014,128.181826,37.951292,6527.676048,177.876,-55.755,179.594
7.0307,128.181827,37.951263,6524.2924632,177.814,-55.829,179.614
7.0474,128.181827,37.951234,6520.89882,177.754,-55.9,179.633
7.0641,128.181828,37.951206,6517.496032800001,177.697,-55.969,179.652
7.0808,128.181828,37.951177,6514.083492000001,177.643,-56.036,179.669
7.0975,128.181829,37.951148,6510.6615024,177.592,-56.102,179.684
7.1142,128.181829,37.95112,6507.2303688,177.543,-56.167,179.699
7.1309,128.181829,37.951091,6503.7900912000005,177.498,-56.23,179.713
7.1476,128.18183,37.951063,6500.340669600001,177.455,-56.293,179.727
7.1643,128.18183,37.951035,6496.882104,177.415,-56.355,179.739
7.181,128.181831,37.951006,6493.4143944,177.377,-56.417,179.751
7.1977,128.181831,37.950978,6489.9381504,177.342,-56.478,179.762
7.2144,128.181831,37.95095,6486.4527624,177.309,-56.538,179.773
7.2311,128.181832,37.950922,6482.95884,177.278,-56.597,179.783
7.2478,128.181832,37.950894,6479.4560784000005,177.249,-56.656,179.792
7.2645,128.181833,37.950867,6475.944782400001,177.222,-56.714,179.802
7.2812,128.181833,37.950839,6472.424952000001,177.197,-56.771,179.811
7.2979,128.181833,37.950811,6468.896587200001,177.173,-56.828,179.82
7.3146,128.181834,37.950784,6465.359992800001,177.15,-56.883,179.829
7.3313,128.181834,37.950756,6461.815168800001,177.128,-56.937,179.837
7.348,128.181834,37.950729,6458.262115200001,177.108,-56.99,179.846
7.3647,128.181835,37.950702,6454.700832,177.088,-57.043,179.854
7.3814,128.181835,37.950674,6451.131319200001,177.069,-57.094,179.862
7.3981,128.181835,37.950647,6447.5538816,177.051,-57.144,179.87
7.4148,128.181836,37.95062,6443.968519200001,177.034,-57.193,179.877
7.4315,128.181836,37.950593,6440.375232,177.018,-57.241,179.884
7.4482,128.181836,37.950566,6436.774020000001,177.002,-57.288,179.891
7.4649,128.181837,37.95054,6433.165492800001,176.987,-57.333,179.897
7.4816,128.181837,37.950513,6429.5490408000005,176.973,-57.377,179.903
7.4983,128.181837,37.950486,6425.924968800001,176.96,-57.421,179.909
7.515,128.181837,37.950459,6422.2932768,176.947,-57.462,179.914
7.5317,128.181838,37.950433,6418.654269600001,176.936,-57.503,179.919
7.5484,128.181838,37.950406,6415.007642400001,176.925,-57.543,179.924
7.5651,128.181838,37.95038,6411.3540048,176.916,-57.582,179.929
7.5818,128.181839,37.950354,6407.6930520000005,176.907,-57.62,179.933
7.5985,128.181839,37.950327,6404.024784000001,176.899,-57.657,179.938
7.6152,128.181839,37.950301,6400.3495056,176.892,-57.694,179.942
7.6319,128.181839,37.950275,6396.666912,176.888,-57.717,179.944
7.6486,128.18184,37.950249,6392.9776128,176.885,-57.726,179.945
7.6653,128.18184,37.950223,6389.281608,176.885,-57.724,179.945
7.682,128.18184,37.950197,6385.5785928000005,176.886,-57.715,179.944
7.6987,128.18184,37.950171,6381.868872,176.888,-57.702,179.942
7.7154,128.18184,37.950145,6378.1527504000005,176.892,-57.686,179.94
7.7321,128.181841,37.95012,6374.4299232,176.896,-57.671,179.938
7.7488,128.181841,37.950094,6370.7006952,176.9,-57.658,179.936
7.7655,128.181841,37.950068,6366.9650664,176.905,-57.647,179.935
7.7822,128.181841,37.950043,6363.2230368,176.91,-57.64,179.934
7.7989,128.181841,37.950017,6359.474606400001,176.915,-57.636,179.933
7.8156,128.181842,37.949992,6355.72008,176.919,-57.637,179.933
7.8323,128.181842,37.949966,6351.9594576,176.923,-57.641,179.933
7.849,128.181842,37.949941,6348.1927392,176.929,-57.637,179.932
7.8657,128.181842,37.949916,6344.420229599999,176.935,-57.619,179.93
7.8824,128.181842,37.949891,6340.641928800001,176.942,-57.592,179.927
7.8991,128.181843,37.949865,6336.857532,176.95,-57.559,179.923
7.9158,128.181843,37.94984,6333.0679536,176.958,-57.522,179.919
7.9325,128.181843,37.949815,6329.272584000001,176.965,-57.486,179.915
7.9492,128.181843,37.94979,6325.471423200001,176.973,-57.451,179.911
7.9659,128.181843,37.949765,6321.6650808,176.98,-57.42,179.907
7.9826,128.181843,37.94974,6317.853556800001,176.986,-57.393,179.904
7.9993,128.181844,37.949715,6314.036546400001,176.992,-57.371,179.902
8.016,128.181844,37.94969,6310.2143544,176.997,-57.355,179.9
8.0327,128.181844,37.949666,6306.3869808,177.001,-57.344,179.898
8.0494,128.181844,37.949641,6302.5544256,177.005,-57.338,179.897
8.0661,128.181844,37.949616,6298.7166888,177.008,-57.337,179.896
8.0828,128.181844,37.949591,6294.874075199999,177.01,-57.34,179.896
8.0994,128.181844,37.949567,6291.02628,177.012,-57.348,179.896
8.1161,128.181845,37.949542,6287.1739128,177.013,-57.358,179.897
8.1329,128.181845,37.949518,6283.316364,177.014,-57.372,179.897
8.1496,128.181845,37.949493,6279.453938400001,177.015,-57.388,179.898
8.1663,128.181845,37.949469,6275.5869408,177.015,-57.405,179.899
8.183,128.181845,37.949444,6271.7150664,177.015,-57.424,179.901
8.1997,128.181845,37.94942,6267.838315200001,177.015,-57.444,179.902
8.2164,128.181845,37.949395,6263.956992,177.015,-57.464,179.903
8.2331,128.181845,37.949371,6260.070792,177.015,-57.485,179.904
8.2498,128.181846,37.949347,6256.180324800001,177.014,-57.506,179.906
8.2665,128.181846,37.949323,6252.2849808,177.014,-57.526,179.907
8.2831,128.181846,37.949298,6248.385064800001,177.014,-57.547,179.908
8.2998,128.181846,37.949274,6244.4808816,177.014,-57.567,179.909
8.3166,128.181846,37.94925,6240.5718216000005,177.014,-57.586,179.911
8.3333,128.181846,37.949226,6236.6584944,177.014,-57.604,179.912
8.35,128.181846,37.949202,6232.740900000001,177.014,-57.623,179.913
8.3667,128.181846,37.949178,6228.818733600001,177.014,-57.64,179.914
8.3834,128.181846,37.949154,6224.8923,177.014,-57.657,179.915
8.4001,128.181846,37.94913,6220.9615992,177.015,-57.673,179.915
8.4168,128.181846,37.949106,6217.0266312,177.015,-57.689,179.916
8.4335,128.181847,37.949082,6213.0870912,177.016,-57.704,179.917
8.4502,128.181847,37.949058,6209.1435888,177.016,-57.719,179.918
8.4668,128.181847,37.949034,6205.1958192,177.017,-57.733,179.918
8.4835,128.181847,37.949011,6201.244087200001,177.017,-57.747,179.919
8.5003,128.181847,37.948987,6197.288088000001,177.016,-57.761,179.921
8.517,128.181847,37.948963,6193.3278216,177.015,-57.775,179.922
8.5337,128.181847,37.94894,6189.363897600001,177.013,-57.789,179.924
8.5504,128.181847,37.948916,6185.395401600001,177.011,-57.802,179.926
8.5671,128.181847,37.948892,6181.423248,177.009,-57.816,179.928
8.5838,128.181847,37.948869,6177.447132,177.007,-57.829,179.93
8.6005,128.181847,37.948845,6173.4670536,177.004,-57.842,179.931
8.6172,128.181847,37.948822,6169.4830128,177.001,-57.854,179.933
8.6339,128.181847,37.948798,6165.4950096,176.998,-57.867,179.934
8.6505,128.181847,37.948775,6161.5033488,176.996,-57.879,179.935
8.6672,128.181847,37.948751,6157.5077255999995,176.993,-57.891,179.936
8.684,128.181848,37.948728,6153.50814,176.99,-57.902,179.937
8.7007,128.181848,37.948704,6149.505201600001,176.988,-57.914,179.938
8.7174,128.181848,37.948681,6145.497996,176.986,-57.925,179.939
8.7341,128.181848,37.948658,6141.487437600001,176.984,-57.936,179.94
8.7508,128.181848,37.948634,6137.4732216,176.982,-57.948,179.941
8.7675,128.181848,37.948611,6133.4553479999995,176.98,-57.959,179.942
8.7842,128.181848,37.948588,6129.433512,176.978,-57.969,179.942
8.8009,128.181848,37.948564,6125.4083232,176.977,-57.98,179.943
8.8176,128.181848,37.948541,6121.3794768,176.976,-57.99,179.944
8.8342,128.181848,37.948518,6117.347277600001,176.974,-58.001,179.944
8.8509,128.181848,37.948495,6113.311116,176.973,-58.011,179.945
8.8676,128.181848,37.948472,6109.271906400001,176.972,-58.021,179.946
8.8844,128.181848,37.948449,6105.2290391999995,176.972,-58.031,179.946
8.9011,128.181848,37.948425,6101.1825144,176.971,-58.041,179.947
8.9178,128.181848,37.948402,6097.1326368,176.97,-58.051,179.947
8.9345,128.181848,37.948379,6093.079406400001,176.97,-58.061,179.948
8.9512,128.181848,37.948356,6089.022823200001,176.969,-58.07,179.948
8.9679,128.181848,37.948333,6084.9628872,176.969,-58.08,179.949
8.9846,128.181848,37.94831,6080.8995984,176.969,-58.089,179.949
9.0013,128.181848,37.948287,6076.832956800001,176.969,-58.098,179.95
9.0179,128.181848,37.948264,6072.7629624,176.968,-58.108,179.95
9.0346,128.181848,37.948241,6068.689615200001,176.968,-58.117,179.951
9.0513,128.181848,37.948218,6064.6129152,176.968,-58.125,179.951
9.0681,128.181848,37.948196,6060.5331672,176.968,-58.134,179.952
9.0848,128.181848,37.948173,6056.4500664,176.968,-58.143,179.952
9.1015,128.181848,37.94815,6052.363917600001,176.968,-58.151,179.953
9.1182,128.181848,37.948127,6048.274416,176.969,-58.16,179.953
9.1349,128.181848,37.948104,6044.1818664,176.969,-58.168,179.954
9.1516,128.181848,37.948081,6040.086268800001,176.969,-58.176,179.954
9.1683,128.181848,37.948059,6035.987318400001,176.969,-58.185,179.954
9.185,128.181848,37.948036,6031.885624800001,176.97,-58.193,179.955
9.2016,128.181848,37.948013,6027.7805784,176.97,-58.201,179.955
9.2183,128.181848,37.94799,6023.672484000001,176.97,-58.208,179.955
9.235,128.181848,37.947968,6019.561341600001,176.971,-58.216,179.956
9.2518,128.181848,37.947945,6015.447456000001,176.971,-58.223,179.956
9.2685,128.181848,37.947922,6011.3302176,176.972,-58.23,179.956
9.2852,128.181848,37.9479,6007.210236,176.973,-58.237,179.957
9.3019,128.181848,37.947877,6003.087511200001,176.973,-58.244,179.957
9.3186,128.181848,37.947854,5998.9614336,176.974,-58.251,179.957
9.3353,128.181848,37.947832,5994.8329176,176.975,-58.258,179.958
9.352,128.181848,37.947809,5990.7013536,176.975,-58.264,179.958
9.3687,128.181848,37.947787,5986.566741600001,176.976,-58.27,179.958
9.3854,128.181848,37.947764,5982.4296912,176.977,-58.277,179.958
9.402,128.181848,37.947742,5978.289592800001,176.978,-58.283,179.959
9.4187,128.181848,37.947719,5974.146751200001,176.978,-58.289,179.959
9.4355,128.181848,37.947696,5970.001166399999,176.979,-58.295,179.959
9.4522,128.181848,37.947674,5965.852838400001,176.98,-58.301,179.959
9.4689,128.181848,37.947651,5961.7017672,176.981,-58.306,179.959
9.4856,128.181848,37.947629,5957.5482575999995,176.982,-58.312,179.96
9.5023,128.181848,37.947607,5953.3917,176.983,-58.317,179.96
9.519,128.181848,37.947584,5949.232704,176.984,-58.323,179.96
9.5357,128.181848,37.947562,5945.0709648,176.985,-58.328,179.96
9.5524,128.181848,37.947539,5940.9067872000005,176.986,-58.334,179.96
9.5691,128.181848,37.947517,5936.7398664,176.987,-58.34,179.961
9.5857,128.181848,37.947494,5932.5705072,176.988,-58.345,179.961
9.6024,128.181848,37.947472,5928.3984048,176.989,-58.35,179.961
9.6192,128.181848,37.94745,5924.2238640000005,176.99,-58.356,179.961
9.6359,128.181848,37.947427,5920.04658,176.991,-58.361,179.961
9.6526,128.181848,37.947405,5915.8671624,176.992,-58.366,179.962
9.6693,128.181848,37.947382,5911.685001600001,176.993,-58.371,179.962
9.686,128.181848,37.94736,5907.5004024,176.994,-58.376,179.962
9.7027,128.181848,37.947338,5903.3133648,176.995,-58.381,179.962
9.7194,128.181848,37.947315,5899.1238888,176.996,-58.386,179.962
9.7361,128.181848,37.947293,5894.9319744,176.998,-58.391,179.962
9.7528,128.181848,37.947271,5890.7379264,176.999,-58.396,179.963
9.7694,128.181848,37.947249,5886.5411352,177.0,-58.401,179.963
9.7861,128.181848,37.947226,5882.342210400001,177.001,-58.406,179.963
9.8029,128.181848,37.947204,5878.1408472,177.002,-58.411,179.963
9.8196,128.181848,37.947182,5873.937045600001,177.003,-58.417,179.963
9.8363,128.181848,37.947159,5869.7308056,177.005,-58.423,179.964
9.853,128.181848,37.947137,5865.522432000001,177.006,-58.43,179.964
9.8697,128.181848,37.947115,5861.311924800001,177.007,-58.437,179.964
9.8864,128.181848,37.947093,5857.098979200001,177.009,-58.444,179.965
9.9031,128.181848,37.94707,5852.8835952,177.01,-58.452,179.965
9.9198,128.181848,37.947048,5848.666077600001,177.011,-58.461,179.966
9.9365,128.181848,37.947026,5844.4461216,177.013,-58.47,179.966
9.9531,128.181848,37.947004,5840.2243368,177.014,-58.479,179.967
9.9698,128.181848,37.946982,5835.9998088,177.016,-58.488,179.968
9.9865,128.181848,37.946959,5831.773452,177.017,-58.498,179.968
10.0033,128.181848,37.946937,5827.544656800001,177.019,-58.509,179.969
10.02,128.181848,37.946915,5823.313728,177.02,-58.52,179.97
10.0367,128.181848,37.946893,5819.0806656,177.022,-58.531,179.97
10.0534,128.181848,37.946871,5814.845164800001,177.024,-58.542,179.971
10.0701,128.181848,37.946849,5810.6078352,177.026,-58.554,179.972
10.0868,128.181848,37.946826,5806.3680672,177.028,-58.566,179.973
10.1035,128.181848,37.946804,5802.126165600001,177.03,-58.579,179.974
10.1202,128.181848,37.946782,5797.8821304,177.032,-58.591,179.975
10.1368,128.181848,37.94676,5793.6359616,177.034,-58.604,179.976
10.1535,128.181848,37.946738,5789.387659200001,177.037,-58.617,179.977
10.1702,128.181848,37.946716,5785.1372232,177.039,-58.631,179.978
10.187,128.181848,37.946694,5780.8843488,177.042,-58.645,179.979
10.2037,128.181848,37.946672,5776.6296456,177.045,-58.659,179.98
10.2204,128.181848,37.94665,5772.3728088,177.048,-58.673,179.981
10.2371,128.181848,37.946627,5768.1138384000005,177.051,-58.688,179.983
10.2538,128.181848,37.946605,5763.8524296,177.054,-58.702,179.984
10.2705,128.181848,37.946583,5759.589192,177.057,-58.717,179.985
10.2872,128.181848,37.946561,5755.3238208,177.061,-58.732,179.986
10.3039,128.181848,37.946539,5751.056316,177.064,-58.747,179.987
10.3205,128.181848,37.946517,5746.786982400001,177.068,-58.763,179.989
10.3372,128.181848,37.946495,5742.515210400001,177.072,-58.779,179.99
10.3539,128.181847,37.946473,5738.241304800001,177.076,-58.794,179.991
10.3707,128.181847,37.946451,5733.965570400001,177.08,-58.81,179.993
10.3874,128.181847,37.946429,5729.6877024,177.085,-58.827,179.994
10.4041,128.181847,37.946407,5725.4077008,177.09,-58.843,179.995
10.4208,128.181847,37.946385,5721.125565600001,177.095,-58.859,179.996
10.4375,128.181847,37.946363,5716.8412968,177.1,-58.876,179.998
10.4542,128.181847,37.946341,5712.5548944,177.105,-58.893,179.999
10.4709,128.181847,37.946319,5708.2666632,177.111,-58.909,180.001
10.4876,128.181847,37.946297,5703.9762984,177.116,-58.926,180.002
10.5042,128.181847,37.946275,5699.683800000001,177.122,-58.944,180.003
10.5209,128.181847,37.946253,5695.389168000001,177.128,-58.961,180.005
10.5376,128.181847,37.946231,5691.0927071999995,177.135,-58.978,180.006
10.5544,128.181847,37.946209,5686.7941128,177.142,-58.996,180.008
10.5711,128.181847,37.946187,5682.4933848,177.149,-59.013,180.009
10.5878,128.181847,37.946165,5678.190523200001,177.156,-59.031,180.01
10.6045,128.181847,37.946143,5673.885528000001,177.163,-59.048,180.012
10.6212,128.181847,37.946121,5669.5787040000005,177.171,-59.066,180.013
10.6379,128.181847,37.946099,5665.2697464,177.179,-59.084,180.015
10.6546,128.181847,37.946077,5660.958960000001,177.187,-59.102,180.016
10.6713,128.181847,37.946055,5656.6457352,177.195,-59.12,180.018
10.6879,128.181847,37.946033,5652.3306816,177.204,-59.139,180.019
10.7046,128.181847,37.946011,5648.0137992,177.213,-59.157,180.021
10.7213,128.181847,37.94599,5643.694478400001,177.222,-59.175,180.022
10.7381,128.181847,37.945968,5639.3733288,177.231,-59.194,180.023
10.7548,128.181847,37.945946,5635.0500456,177.241,-59.212,180.025
10.7715,128.181847,37.945924,5630.7249336,177.251,-59.231,180.026
10.7882,128.181847,37.945902,5626.397688000001,177.261,-59.249,180.028
10.8049,128.181847,37.94588,5622.0683088000005,177.272,-59.268,180.029
10.8216,128.181847,37.945858,5617.736796,177.282,-59.287,180.031
10.8383,128.181847,37.945836,5613.403454400001,177.293,-59.306,180.032
10.855,128.181847,37.945814,5609.067979200001,177.305,-59.325,180.034
10.8717,128.181847,37.945793,5604.7303704000005,177.316,-59.344,180.035
10.8883,128.181847,37.945771,5600.390932800001,177.328,-59.363,180.037
10.905,128.181847,37.945749,5596.049361599999,177.34,-59.382,180.038
10.9218,128.181847,37.945727,5591.705656800001,177.352,-59.401,180.039
10.9385,128.181846,37.945705,5587.3601232,177.364,-59.42,180.041
10.9552,128.181846,37.945683,5583.012456,177.376,-59.439,180.042
10.9719,128.181846,37.945661,5578.662655200001,177.388,-59.458,180.044
10.9886,128.181846,37.94564,5574.3110256,177.399,-59.478,180.045
11.0053,128.181846,37.945618,5569.9572624,177.408,-59.497,180.046
11.022,128.181846,37.945596,5565.6013656000005,177.416,-59.516,180.047
11.0387,128.181846,37.945574,5561.2433352,177.422,-59.536,180.048
11.0554,128.181846,37.945552,5556.883476,177.428,-59.555,180.049
11.072,128.181846,37.945531,5552.521483200001,177.433,-59.575,180.05
11.0887,128.181846,37.945509,5548.1576616,177.438,-59.595,180.05
11.1054,128.181846,37.945487,5543.7917064,177.443,-59.614,180.051
11.1222,128.181846,37.945465,5539.4236176,177.447,-59.634,180.051
11.1389,128.181846,37.945444,5535.0533952000005,177.451,-59.654,180.052
11.1556,128.181846,37.945422,5530.681344,177.456,-59.674,180.053
11.1723,128.181846,37.9454,5526.307159200001,177.461,-59.693,180.053
11.189,128.181846,37.945378,5521.9311456000005,177.466,-59.713,180.054
11.2057,128.181846,37.945357,5517.5529983999995,177.471,-59.733,180.055
11.2224,128.181846,37.945335,5513.1727176,177.476,-59.753,180.055
11.2391,128.181846,37.945313,5508.790608,177.482,-59.773,180.056
11.2557,128.181846,37.945291,5504.4063648,177.488,-59.793,180.057
11.2724,128.181846,37.94527,5500.019988000001,177.495,-59.813,180.058
11.2891,128.181846,37.945248,5495.631782400001,177.502,-59.833,180.059
11.3059,128.181846,37.945226,5491.2414432,177.509,-59.853,180.059
11.3226,128.181846,37.945205,5486.848970400001,177.517,-59.873,180.06
11.3393,128.181846,37.945183,5482.4546688,177.524,-59.893,180.061
11.356,128.181846,37.945161,5478.058233600001,177.532,-59.913,180.062
11.3727,128.181846,37.94514,5473.6599696,177.541,-59.933,180.063
11.3894,128.181845,37.945118,5469.2592672,177.549,-59.954,180.064
11.4061,128.181845,37.945096,5464.8570408000005,177.558,-59.974,180.066
11.4228,128.181845,37.945075,5460.452376,177.567,-59.994,180.067
11.4394,128.181845,37.945053,5456.045882400001,177.577,-60.014,180.068
11.4561,128.181845,37.945031,5451.6372552,177.586,-60.034,180.069
11.4728,128.181845,37.94501,5447.2267992,177.596,-60.055,180.07
11.4896,128.181845,37.944988,5442.8142096,177.606,-60.075,180.071
11.5063,128.181845,37.944967,5438.399486400001,177.615,-60.095,180.072
11.523,128.181845,37.944945,5433.9829344,177.625,-60.115,180.074
11.5397,128.181845,37.944923,5429.5642488,177.635,-60.136,180.075
11.5564,128.181845,37.944902,5425.1437344,177.645,-60.156,180.076
11.5731,128.181845,37.94488,5420.7207816,177.655,-60.176,180.077
11.5898,128.181845,37.944859,5416.2963048,177.665,-60.197,180.078
11.6065,128.181845,37.944837,5411.8693895999995,177.675,-60.217,180.079
11.6231,128.181845,37.944815,5407.440645600001,177.685,-60.238,180.081
11.6398,128.181845,37.944794,5403.009768,177.695,-60.258,180.082
11.6565,128.181845,37.944772,5398.5770616,177.705,-60.279,180.083
11.6733,128.181845,37.944751,5394.1422216,177.715,-60.299,180.084
11.69,128.181845,37.944729,5389.705248,177.725,-60.32,180.085
11.7067,128.181845,37.944708,5385.2664456,177.735,-60.34,180.086
11.7234,128.181845,37.944686,5380.8255096,177.745,-60.361,180.087
11.7401,128.181845,37.944665,5376.38244,177.755,-60.381,180.088
11.7568,128.181845,37.944643,5371.9375416,177.764,-60.402,180.09
11.7735,128.181845,37.944622,5367.4905096,177.774,-60.422,180.091
11.7902,128.181844,37.9446,5363.041344,177.784,-60.443,180.092
11.8068,128.181844,37.944579,5358.5903496,177.794,-60.463,180.093
11.8235,128.181844,37.944557,5354.1372216,177.803,-60.484,180.094
11.8402,128.181844,37.944536,5349.682264800001,177.813,-60.505,180.095
11.857,128.181844,37.944514,5345.2251744000005,177.822,-60.525,180.096
11.8737,128.181844,37.944493,5340.7659504,177.831,-60.546,180.097
11.8904,128.181844,37.944471,5336.304592800001,177.841,-60.567,180.098
11.9071,128.181844,37.94445,5331.841406400001,177.85,-60.587,180.099
11.9238,128.181844,37.944428,5327.3763912,177.859,-60.608,180.1
11.9405,128.181844,37.944407,5322.9089376,177.868,-60.629,180.101
11.9572,128.181844,37.944386,5318.439655200001,177.877,-60.65,180.102
11.9739,128.181844,37.944364,5313.968544,177.886,-60.67,180.103
11.9905,128.181844,37.944343,5309.4949944,177.895,-60.691,180.104
12.0072,128.181844,37.944321,5305.019616,177.904,-60.712,180.105
12.0239,128.181844,37.9443,5300.5424088,177.913,-60.733,180.106
12.0407,128.181844,37.944279,5296.063068,177.922,-60.754,180.107
12.0574,128.181844,37.944257,5291.5815936,177.931,-60.775,180.108
12.0741,128.181844,37.944236,5287.0979856,177.939,-60.795,180.108
12.0908,128.181844,37.944214,5282.6125488,177.948,-60.816,180.109
12.1075,128.181844,37.944193,5278.1249784,177.957,-60.837,180.11
12.1242,128.181843,37.944172,5273.6355792,177.965,-60.858,180.111
12.1409,128.181843,37.94415,5269.144046400001,177.974,-60.879,180.112
12.1576,128.181843,37.944129,5264.65038,177.982,-60.9,180.113
12.1743,128.181843,37.944108,5260.1548848,177.991,-60.921,180.114
12.1909,128.181843,37.944086,5255.657256,177.999,-60.942,180.115
12.2076,128.181843,37.944065,5251.1574936,178.007,-60.963,180.115
12.2243,128.181843,37.944044,5246.6559024,178.016,-60.984,180.116
12.2411,128.181843,37.944022,5242.1521776,178.024,-61.005,180.117
12.2578,128.181843,37.944001,5237.646624000001,178.032,-61.026,180.118
12.2745,128.181843,37.94398,5233.1389368,178.04,-61.047,180.119
12.2912,128.181843,37.943959,5228.629116,178.048,-61.068,180.12
12.3079,128.181843,37.943937,5224.1174664,178.056,-61.089,180.12
12.3246,128.181843,37.943916,5219.603683200001,178.064,-61.11,180.121
12.3413,128.181843,37.943895,5215.0877664,178.069,-61.131,180.122
12.358,128.181843,37.943874,5210.569716,178.071,-61.152,180.124
12.3746,128.181843,37.943852,5206.049836800001,178.07,-61.173,180.126
12.3913,128.181843,37.943831,5201.527824000001,178.067,-61.194,180.128
12.408,128.181843,37.94381,5197.0039824000005,178.062,-61.215,180.129
12.4248,128.181843,37.943789,5192.4777023999995,178.057,-61.237,180.13
12.4415,128.181842,37.943768,5187.9498984,178.051,-61.258,180.131
12.4582,128.181842,37.943746,5183.419656000001,178.045,-61.279,180.132
12.4749,128.181842,37.943725,5178.8875848,178.037,-61.3,180.133
12.4916,128.181842,37.943704,5174.35338,178.029,-61.322,180.135
12.5083,128.181842,37.943683,5169.8173464,178.02,-61.343,180.136
12.525,128.181842,37.943662,5165.279179200001,178.009,-61.365,180.137
12.5417,128.181842,37.943641,5160.7388784,177.997,-61.386,180.139
12.5583,128.181842,37.94362,5156.196444,177.984,-61.407,180.14
12.575,128.181842,37.943598,5151.6521808,177.969,-61.429,180.142
12.5917,128.181842,37.943577,5147.105784000001,177.953,-61.45,180.144
12.6085,128.181842,37.943556,5142.5575584,177.935,-61.472,180.146
12.6252,128.181842,37.943535,5138.0071992,177.915,-61.493,180.148
12.6419,128.181842,37.943514,5133.454706400001,177.894,-61.515,180.15
12.6586,128.181842,37.943493,5128.9003848,177.87,-61.536,180.152
12.6753,128.181842,37.943472,5124.343624800001,177.845,-61.558,180.155
12.692,128.181842,37.943451,5119.785036,177.817,-61.58,180.157
12.7087,128.181842,37.94343,5115.2246184000005,177.788,-61.601,180.16
12.7254,128.181841,37.943409,5110.6620672,177.755,-61.623,180.163
12.742,128.181841,37.943388,5106.0973824,177.721,-61.645,180.166
12.7587,128.181841,37.943367,5101.530564000001,177.684,-61.666,180.169
12.7754,128.181841,37.943346,5096.9619168,177.644,-61.688,180.173
12.7922,128.181841,37.943325,5092.391136,177.601,-61.71,180.176
12.8089,128.181841,37.943304,5087.8182216,177.555,-61.732,180.18
12.8256,128.181841,37.943283,5083.243478400001,177.506,-61.754,180.184
12.8423,128.181841,37.943262,5078.666296800001,177.453,-61.776,180.189
12.859,128.181841,37.943241,5074.0872864,177.397,-61.798,180.193
12.8757,128.181841,37.94322,5069.5064472,177.336,-61.82,180.198
12.8924,128.181841,37.943199,5064.923169600001,177.272,-61.842,180.203
12.9091,128.181841,37.943178,5060.3380632,177.203,-61.864,180.209
12.9257,128.181841,37.943157,5055.7508232,177.13,-61.886,180.215
12.9424,128.181841,37.943136,5051.1617544,177.052,-61.908,180.221
12.9591,128.181841,37.943115,5046.5702472,176.969,-61.931,180.228
12.9759,128.181841,37.943094,5041.9769112,176.88,-61.953,180.235
12.9926,128.18184,37.943074,5037.3814416000005,176.785,-61.975,180.242
13.0093,128.18184,37.943053,5032.7841432,176.685,-61.998,180.25
13.026,128.18184,37.943032,5028.184406400001,176.578,-62.02,180.259
13.0427,128.18184,37.943011,5023.582840800001,176.464,-62.043,180.268
13.0594,128.18184,37.94299,5018.9788368,176.342,-62.065,180.277
13.0761,128.18184,37.942969,5014.373004,176.213,-62.088,180.287
13.0928,128.18184,37.942949,5009.765342400001,176.076,-62.111,180.298
13.1095,128.18184,37.942928,5005.155242400001,175.93,-62.134,180.31
13.1262,128.18184,37.942907,5000.5430088,175.774,-62.157,180.322
13.1429,128.18184,37.942886,4995.9289464,175.609,-62.18,180.336
13.1596,128.18184,37.942866,4991.3124456000005,175.432,-62.203,180.35
13.1763,128.18184,37.942845,4986.694116000001,175.245,-62.226,180.365
13.193,128.18184,37.942824,4982.073652800001,175.047,-62.249,180.38
13.2097,128.181839,37.942804,4977.4507512,174.835,-62.272,180.397
13.2264,128.181839,37.942783,4972.8260208,174.611,-62.296,180.415
13.2431,128.181839,37.942762,4968.1991568,174.373,-62.319,180.434
13.2598,128.181839,37.942742,4963.569854400001,174.119,-62.343,180.455
13.2765,128.181839,37.942721,4958.9387232,173.85,-62.366,180.477
13.2932,128.181839,37.9427,4954.3051536,173.563,-62.39,180.5
13.3099,128.181839,37.94268,4949.6697552000005,173.259,-62.414,180.524
13.3266,128.181839,37.942659,4945.0319184,172.936,-62.438,180.548
13.3433,128.181839,37.942639,4940.391948,172.594,-62.462,180.573
13.36,128.181839,37.942618,4935.749844000001,172.23,-62.486,180.598
13.3767,128.181839,37.942598,4931.1056064,171.844,-62.51,180.624
13.3934,128.181838,37.942577,4926.4589304,171.433,-62.535,180.651
13.4101,128.181838,37.942557,4921.810120800001,170.995,-62.559,180.678
13.4268,128.181838,37.942536,4917.158872800001,170.528,-62.584,180.707
13.4435,128.181838,37.942516,4912.5054912000005,170.028,-62.609,180.737
13.4602,128.181838,37.942495,4907.849976,169.494,-62.634,180.768
13.4769,128.181838,37.942475,4903.1917176,168.922,-62.659,180.801
13.4936,128.181838,37.942455,4898.5313256,168.308,-62.684,180.835
13.5103,128.181838,37.942434,4893.8684952,167.65,-62.71,180.871
13.527,128.181837,37.942414,4889.2035312,166.943,-62.735,180.909
13.5437,128.181837,37.942394,4884.535824,166.182,-62.761,180.949
13.5604,128.181837,37.942374,4879.8656784,165.364,-62.786,180.992
13.5771,128.181837,37.942354,4875.1930944,164.483,-62.812,181.036
13.5938,128.181837,37.942333,4870.5177672,163.534,-62.838,181.084
13.6105,128.181836,37.942313,4865.8403064,162.511,-62.863,181.134
13.6272,128.181836,37.942293,4861.1597976,161.409,-62.889,181.187
13.6439,128.181836,37.942273,4856.4768504,160.224,-62.914,181.244
13.6606,128.181836,37.942253,4851.7914648,158.961,-62.94,181.302
13.6773,128.181835,37.942233,4847.1036408,157.624,-62.965,181.36
13.694,128.181835,37.942214,4842.4133784000005,156.219,-62.99,181.418
13.7107,128.181835,37.942194,4837.7203728,154.748,-63.015,181.476
13.7274,128.181834,37.942174,4833.0252336,153.217,-63.04,181.534
13.7441,128.181834,37.942154,4828.327656,151.63,-63.064,181.593
13.7608,128.181834,37.942134,4823.6279448000005,149.989,-63.088,181.652
13.7775,128.181833,37.942115,4818.9257952,148.298,-63.111,181.711
13.7942,128.181833,37.942095,4814.2212072,146.562,-63.133,181.771
13.8109,128.181832,37.942076,4809.5144856,144.784,-63.155,181.831
13.8276,128.181832,37.942056,4804.8056304,142.966,-63.176,181.892
13.8443,128.181831,37.942037,4800.094336800001,141.113,-63.195,181.951
13.861,128.181831,37.942017,4795.3812144,139.226,-63.215,182.01
13.8777,128.18183,37.941998,4790.6659584,137.31,-63.233,182.068
13.8944,128.181829,37.941978,4785.9485688,135.366,-63.251,182.124
13.9111,128.181829,37.941959,4781.2290456,133.398,-63.268,182.178
13.9278,128.181828,37.94194,4776.5076936000005,131.408,-63.284,182.231
13.9445,128.181827,37.94192,4771.784208,129.398,-63.3,182.283
13.9612,128.181826,37.941901,4767.0591984,127.371,-63.314,182.332
13.9779,128.181826,37.941882,4762.3320552000005,125.329,-63.328,182.38
13.9946,128.181825,37.941863,4757.603388,123.273,-63.342,182.426
14.0113,128.181824,37.941843,4752.872892,121.207,-63.354,182.47
14.028,128.181823,37.941824,4748.140872,119.131,-63.366,182.512
14.0447,128.181822,37.941805,4743.4070232,117.047,-63.377,182.552
14.0614,128.18182,37.941786,4738.6716504000005,114.957,-63.388,182.589
14.0781,128.181819,37.941767,4733.9350584,112.862,-63.398,182.625
14.0948,128.181818,37.941748,4729.1969424,110.763,-63.408,182.658
14.1115,128.181817,37.941729,4724.4576072,108.663,-63.417,182.689
14.1282,128.181815,37.94171,4719.717052800001,106.56,-63.426,182.717
14.1449,128.181814,37.941691,4714.9752792,104.458,-63.435,182.743
14.1616,128.181813,37.941672,4710.2322864,102.357,-63.443,182.767
14.1783,128.181811,37.941653,4705.4883792,100.256,-63.451,182.789
14.195,128.181809,37.941634,4700.743557600001,98.159,-63.459,182.808
14.2117,128.181808,37.941615,4695.9981264,96.064,-63.467,182.825
14.2284,128.181806,37.941596,4691.2517808,93.973,-63.475,182.84
14.2451,128.181804,37.941577,4686.5048256,91.885,-63.483,182.853
14.2618,128.181802,37.941558,4681.7572608,89.802,-63.491,182.864
14.2785,128.1818,37.941539,4677.0093912,87.724,-63.499,182.873
14.2952,128.181798,37.941521,4672.260912000001,85.651,-63.508,182.88
14.3119,128.181796,37.941502,4667.5124328,83.583,-63.516,182.885
14.3286,128.181794,37.941483,4662.763648800001,81.521,-63.525,182.888
14.3453,128.181792,37.941464,4658.0148648,79.465,-63.535,182.89
14.362,128.18179,37.941445,4653.265776,77.414,-63.544,182.891
14.3787,128.181787,37.941426,4648.5172968,75.369,-63.554,182.89
14.3954,128.181785,37.941407,4643.7688176,73.33,-63.565,182.887
14.4121,128.181783,37.941388,4639.0206432,71.297,-63.575,182.884
14.4288,128.18178,37.941369,4634.272773600001,69.269,-63.587,182.879
14.4455,128.181777,37.94135,4629.5258184,67.238,-63.597,182.885
14.4622,128.181775,37.941332,4624.7794728,65.189,-63.602,182.915
14.4789,128.181772,37.941313,4620.0337368,63.117,-63.601,182.977
14.4956,128.181769,37.941294,4615.289220000001,61.017,-63.591,183.074
14.5123,128.181766,37.941275,4610.545922400001,58.891,-63.571,183.206
14.529,128.181763,37.941256,4605.803844,56.743,-63.541,183.37
14.5457,128.18176,37.941236,4601.062984800001,54.577,-63.501,183.558
14.5624,128.181757,37.941217,4596.3239544,52.4,-63.45,183.767
14.5791,128.181754,37.941198,4591.586448,50.216,-63.39,183.991
14.5958,128.181751,37.941179,4586.8504656000005,48.03,-63.321,184.224
14.6125,128.181747,37.94116,4582.1169216,45.846,-63.244,184.462
14.6292,128.181744,37.941141,4577.3852064,43.667,-63.159,184.7
14.6459,128.181741,37.941121,4572.6562344,41.495,-63.067,184.933
14.6626,128.181737,37.941102,4567.929396,39.332,-62.97,185.161
14.6793,128.181733,37.941083,4563.2056056,37.177,-62.867,185.381
14.696,128.18173,37.941063,4558.4845584,35.032,-62.759,185.592
14.7127,128.181726,37.941044,4553.7665592,32.896,-62.648,185.792
14.7294,128.181722,37.941024,4549.0519128,30.769,-62.532,185.981
14.7461,128.181718,37.941005,4544.340924,28.65,-62.413,186.158
14.7628,128.181714,37.940985,4539.633288,26.537,-62.29,186.324
14.7795,128.18171,37.940965,4534.9296144,24.431,-62.164,186.476
14.7962,128.181706,37.940945,4530.2295984,22.329,-62.035,186.617
14.8129,128.181702,37.940926,4525.5341544,20.232,-61.904,186.744
14.8296,128.181698,37.940906,4520.8426728,18.138,-61.77,186.858
14.8463,128.181694,37.940886,4516.1554584000005,16.046,-61.634,186.959
14.863,128.18169,37.940865,4511.4731208,13.956,-61.496,187.047
14.8797,128.181685,37.940845,4506.795355200001,11.866,-61.356,187.122
14.8964,128.181681,37.940825,4502.1224664,9.775,-61.214,187.183
14.9131,128.181677,37.940805,4497.4544544,7.683,-61.07,187.23
14.9298,128.181672,37.940784,4492.791624,5.589,-60.926,187.264
14.9465,128.181668,37.940764,4488.1339752,3.492,-60.78,187.285
14.9632,128.181663,37.940743,4483.481203200001,1.391,-60.633,187.291
14.9799,128.181659,37.940722,4478.8342224,-0.714,-60.486,187.284
14.9966,128.181654,37.940702,4474.1924232,-2.825,-60.339,187.263
15.0133,128.18165,37.940681,4469.5561104,-4.942,-60.192,187.228
15.03,128.181645,37.94066,4464.925588800001,-7.066,-60.045,187.18
15.0467,128.181641,37.940639,4460.3002488,-9.198,-59.898,187.118
15.0634,128.181636,37.940617,4455.6807,-11.339,-59.752,187.042
15.0801,128.181632,37.940596,4451.0669424,-13.488,-59.608,186.953
15.0968,128.181627,37.940575,4446.4586712,-15.648,-59.465,186.85
15.1135,128.181623,37.940553,4441.855886400001,-17.818,-59.324,186.734
15.1302,128.181619,37.940532,4437.2588928000005,-19.999,-59.186,186.605
15.1469,128.181614,37.94051,4432.6673856,-22.193,-59.05,186.463
