Time,Longitude,Latitude,Altitude,Roll (deg),Pitch (deg),Yaw (deg)
0.0,128.181881,37.968463,7002.830292000001,0.0,-0.003,179.999
0.0167,128.181881,37.968418,7002.8116992000005,0.0,-0.012,180.0
0.0334,128.181881,37.968374,7002.793411200001,-0.087,-0.025,179.988
0.0501,128.181881,37.968329,7002.775428000001,-0.258,-0.041,179.965
0.0668,128.181881,37.968284,7002.7577496,-0.516,-0.059,179.935
0.0834,128.181881,37.968239,7002.7409856,-0.864,-0.076,179.902
0.1002,128.181881,37.968194,7002.725745600001,-1.3,-0.093,179.867
0.1169,128.181881,37.968149,7002.712029599999,-1.824,-0.107,179.832
0.1336,128.181881,37.968104,7002.700447200001,-2.432,-0.119,179.797
0.1503,128.181881,37.968059,7002.6909984,-3.122,-0.126,179.763
0.1669,128.181881,37.968014,7002.684292800001,-3.891,-0.128,179.73
0.1837,128.181881,37.967969,7002.6797208,-4.734,-0.125,179.697
0.2004,128.181881,37.967924,7002.677282400001,-5.649,-0.115,179.665
0.2171,128.181881,37.967879,7002.677282400001,-6.633,-0.098,179.633
0.2338,128.181881,37.967834,7002.6797208,-7.683,-0.074,179.6
0.2505,128.181881,37.967789,7002.684597600001,-8.794,-0.042,179.567
0.2672,128.181881,37.967744,7002.691608,-9.966,-0.002,179.533
0.2839,128.181881,37.967699,7002.7013615999995,-11.194,0.044,179.497
0.3006,128.181881,37.967654,7002.7135536000005,-12.477,0.1,179.46
0.3172,128.181881,37.967609,7002.7281840000005,-13.811,0.164,179.42
0.3339,128.181881,37.967564,7002.7455576,-15.193,0.236,179.378
0.3507,128.181881,37.967519,7002.7656744000005,-16.622,0.315,179.333
0.3674,128.181881,37.967474,7002.7885344,-18.095,0.402,179.284
0.3841,128.181882,37.967429,7002.814442400001,-19.61,0.496,179.231
0.4008,128.181882,37.967384,7002.8430935999995,-21.164,0.597,179.174
0.4175,128.181882,37.967339,7002.874792800001,-22.757,0.703,179.112
0.4342,128.181882,37.967294,7002.909540000001,-24.385,0.815,179.045
0.4509,128.181882,37.967249,7002.9473352,-26.048,0.931,178.972
0.4676,128.181883,37.967204,7002.988483200001,-27.744,1.051,178.894
0.4843,128.181883,37.967159,7003.032984000001,-29.472,1.173,178.81
0.501,128.181883,37.967114,7003.080532800001,-31.23,1.298,178.72
0.5176,128.181884,37.967069,7003.1317392,-33.018,1.424,178.625
0.5344,128.181884,37.967024,7003.1859936,-34.834,1.55,178.523
0.5511,128.181885,37.966979,7003.2439056,-36.678,1.676,178.415
0.5678,128.181885,37.966934,7003.305170400001,-38.548,1.8,178.302
0.5845,128.181886,37.966889,7003.369483200001,-40.445,1.922,178.184
0.6012,128.181887,37.966844,7003.4374536000005,-42.367,2.037,178.063
0.6179,128.181887,37.966799,7003.5081672,-44.314,2.145,177.941
0.6345,128.181888,37.966754,7003.582233600001,-46.285,2.243,177.82
0.6513,128.181889,37.966709,7003.659043199999,-48.281,2.331,177.701
0.6679,128.18189,37.966664,7003.737072,-50.115,2.41,177.605
0.6847,128.181891,37.966619,7003.816624800001,-51.793,2.473,177.543
0.7014,128.181892,37.966574,7003.897092000001,-53.315,2.509,177.523
0.7181,128.181893,37.966529,7003.9784736,-54.681,2.521,177.539
0.7348,128.181894,37.966484,7004.060160000001,-55.893,2.513,177.579
0.7514,128.181895,37.966439,7004.141846400001,-56.964,2.497,177.638
0.7682,128.181896,37.966394,7004.223532800001,-57.899,2.476,177.707
0.7848,128.181897,37.966349,7004.304609600001,-58.699,2.45,177.779
0.8016,128.181899,37.966304,7004.384772,-59.374,2.425,177.855
0.8183,128.1819,37.966259,7004.4637152000005,-59.932,2.403,177.932
0.835,128.181901,37.966214,7004.5414392,-60.375,2.382,178.008
0.8517,128.181903,37.966169,7004.6176392,-60.709,2.364,178.082
0.8684,128.181904,37.966124,7004.6917056,-60.938,2.348,178.155
0.8851,128.181905,37.966079,7004.7642479999995,-61.065,2.334,178.226
0.9018,128.181907,37.966034,7004.834047200001,-61.093,2.321,178.294
0.9185,128.181908,37.965988,7004.9020176,-61.031,2.309,178.358
0.9352,128.181909,37.965943,7004.9672448,-60.894,2.295,178.42
0.9519,128.181911,37.965898,7005.030948,-60.696,2.281,178.478
0.9686,128.181912,37.965853,7005.0925176,-60.446,2.266,178.534
0.9853,128.181913,37.965808,7005.1519536000005,-60.155,2.251,178.587
1.002,128.181915,37.965763,7005.209560800001,-59.827,2.235,178.637
1.0187,128.181916,37.965718,7005.2653392,-59.467,2.219,178.686
1.0353,128.181917,37.965672,7005.3189840000005,-59.077,2.203,178.732
1.0521,128.181919,37.965627,7005.370800000001,-58.66,2.186,178.777
1.0688,128.18192,37.965582,7005.420482400001,-58.216,2.169,178.82
1.0855,128.181922,37.965537,7005.4680312,-57.746,2.152,178.862
1.1022,128.181923,37.965491,7005.5134464,-57.25,2.135,178.903
1.1189,128.181924,37.965446,7005.5567280000005,-56.728,2.118,178.942
1.1356,128.181926,37.965401,7005.597876,-56.179,2.1,178.98
1.1522,128.181927,37.965356,7005.6368904,-55.602,2.083,179.018
1.169,128.181929,37.96531,7005.6734664,-54.996,2.066,179.055
1.1857,128.18193,37.965265,7005.7079088,-54.36,2.048,179.091
1.2024,128.181931,37.96522,7005.739608,-53.694,2.03,179.126
1.2191,128.181933,37.965174,7005.769173600001,-52.995,2.012,179.161
1.2358,128.181934,37.965129,7005.795996000001,-52.263,1.994,179.196
1.2525,128.181936,37.965084,7005.82038,-51.495,1.975,179.23
1.2691,128.181937,37.965038,7005.8423256,-50.691,1.956,179.265
1.2859,128.181938,37.964993,7005.861528,-49.85,1.937,179.299
1.3026,128.18194,37.964947,7005.877682400001,-48.968,1.917,179.332
1.3193,128.181941,37.964902,7005.8913984,-48.046,1.896,179.366
1.3359,128.181943,37.964856,7005.9020664,-47.081,1.875,179.4
1.3527,128.181944,37.964811,7005.9099912,-46.073,1.853,179.434
1.3694,128.181945,37.964765,7005.9145632,-45.018,1.83,179.469
1.386,128.181947,37.96472,7005.916696800001,-43.919,1.806,179.503
1.4028,128.181948,37.964674,7005.9154776000005,-42.775,1.781,179.537
1.4195,128.181949,37.964629,7005.9115152,-41.589,1.754,179.571
1.4362,128.18195,37.964583,7005.904504800001,-40.362,1.726,179.605
1.4528,128.181952,37.964538,7005.8947512,-39.096,1.696,179.639
1.4696,128.181953,37.964492,7005.881949600001,-37.793,1.665,179.672
1.4863,128.181954,37.964447,7005.8664048,-36.453,1.632,179.705
1.5029,128.181956,37.964401,7005.8481168,-35.078,1.597,179.738
1.5197,128.181957,37.964355,7005.8267808,-33.67,1.56,179.77
1.5364,128.181958,37.96431,7005.802396800001,-32.229,1.522,179.802
1.5531,128.181959,37.964264,7005.775269600001,-30.757,1.482,179.833
1.5697,128.181961,37.964218,7005.7453992,-29.255,1.44,179.864
1.5865,128.181962,37.964173,7005.7127856,-27.725,1.396,179.894
1.6032,128.181963,37.964127,7005.677428800001,-26.166,1.35,179.924
1.6198,128.181964,37.964081,7005.639024000001,-24.58,1.303,179.953
1.6366,128.181966,37.964035,7005.597876,-22.968,1.254,179.981
1.6533,128.181967,37.96399,7005.5542896,-21.33,1.203,180.008
1.67,128.181968,37.963944,7005.507655200001,-19.667,1.151,180.034
1.6867,128.181969,37.963898,7005.458277600001,-17.981,1.097,180.059
1.7034,128.181971,37.963852,7005.4064616,-16.271,1.041,180.083
1.7201,128.181972,37.963807,7005.351597600001,-14.539,0.984,180.106
1.7368,128.181973,37.963761,7005.2942952,-12.784,0.925,180.127
1.7535,128.181974,37.963715,7005.2342496,-11.008,0.864,180.148
1.7702,128.181975,37.963669,7005.171460800001,-9.21,0.803,180.166
1.7869,128.181977,37.963623,7005.1062336,-7.392,0.74,180.184
1.8036,128.181978,37.963577,7005.0382632,-5.553,0.675,180.199
1.8203,128.181979,37.963531,7004.9675496,-3.694,0.61,180.213
1.837,128.18198,37.963485,7004.894397600001,-1.816,0.543,180.226
1.8537,128.181981,37.963439,7004.8185023999995,0.08,0.476,180.236
1.8704,128.181983,37.963394,7004.739864,1.997,0.407,180.245
1.8871,128.181984,37.963348,7004.658787200001,3.932,0.338,180.252
1.9038,128.181985,37.963302,7004.5749672,5.885,0.268,180.257
1.9205,128.181986,37.963256,7004.4887088000005,7.857,0.197,180.26
1.9372,128.181987,37.96321,7004.400012,9.847,0.132,180.262
1.9539,128.181988,37.963164,7004.309181600001,11.854,0.077,180.264
1.9706,128.18199,37.963117,7004.215608,13.88,0.039,180.268
1.9873,128.181991,37.963071,7004.1202056,15.922,0.019,180.275
2.004,128.181992,37.963025,7004.022974400001,17.982,0.018,180.287
2.0207,128.181993,37.962979,7003.9236096,20.059,0.036,180.306
2.0374,128.181994,37.962933,7003.8227208,22.152,0.073,180.331
2.0541,128.181995,37.962887,7003.7200032,24.261,0.126,180.365
2.0707,128.181997,37.962841,7003.6163712,26.386,0.195,180.408
2.0875,128.181998,37.962795,7003.511215200001,28.525,0.278,180.46
2.1042,128.181999,37.962749,7003.4051448,30.679,0.371,180.523
2.1208,128.182,37.962702,7003.29816,32.848,0.474,180.596
2.1376,128.182001,37.962656,7003.190565600001,35.031,0.584,180.679
2.1543,128.182002,37.96261,7003.0829712,37.222,0.699,180.773
2.171,128.182003,37.962564,7002.975986400001,39.41,0.818,180.876
2.1877,128.182004,37.962518,7002.869306400001,41.589,0.94,180.988
2.2044,128.182005,37.962471,7002.763236000001,43.751,1.062,181.109
2.2211,128.182006,37.962425,7002.6583848,45.89,1.183,181.238
2.2378,128.182007,37.962379,7002.553838400001,47.862,1.304,181.354
2.2544,128.182008,37.962333,7002.450511200001,49.666,1.411,181.448
2.2712,128.182009,37.962286,7002.3480984,51.309,1.495,181.508
2.2879,128.182009,37.96224,7002.2469048,52.793,1.547,181.525
2.3045,128.18201,37.962194,7002.1466256,54.12,1.558,181.488
2.3213,128.182011,37.962148,7002.047565600001,55.296,1.537,181.41
2.338,128.182011,37.962101,7001.949724800001,56.327,1.495,181.304
2.3546,128.182012,37.962055,7001.8531032,57.221,1.442,181.182
2.3714,128.182012,37.962009,7001.757700800001,57.983,1.384,181.055
2.3881,128.182013,37.961962,7001.6635176,58.622,1.328,180.929
2.4048,128.182013,37.961916,7001.5705536000005,59.144,1.273,180.806
2.4215,128.182013,37.96187,7001.4788088000005,59.553,1.223,180.688
2.4382,128.182014,37.961823,7001.388283200001,59.855,1.177,180.577
2.4549,128.182014,37.961777,7001.298976800001,60.053,1.135,180.473
2.4716,128.182014,37.961731,7001.2105848,60.152,1.097,180.375
2.4882,128.182014,37.961684,7001.123412,60.156,1.063,180.285
2.505,128.182014,37.961638,7001.0368488,60.069,1.032,180.202
2.5217,128.182014,37.961592,7000.9515048,59.894,1.004,180.125
2.5383,128.182013,37.961545,7000.866465600001,59.635,0.978,180.054
2.5551,128.182013,37.961499,7000.7823408,59.295,0.955,179.989
2.5718,128.182013,37.961453,7000.6988255999995,58.879,0.934,179.93
2.5884,128.182012,37.961406,7000.6156152,58.389,0.915,179.875
2.6052,128.182012,37.96136,7000.533319200001,57.829,0.898,179.826
2.6219,128.182012,37.961314,7000.451632800001,57.201,0.882,179.78
2.6386,128.182011,37.961267,7000.370556000001,56.509,0.867,179.739
2.6553,128.182011,37.961221,7000.2900887999995,55.755,0.853,179.701
2.6719,128.18201,37.961174,7000.2099264,54.942,0.84,179.666
2.6887,128.182009,37.961128,7000.130678400001,54.074,0.827,179.635
2.7054,128.182009,37.961082,7000.0520400000005,53.152,0.815,179.606
2.722,128.182008,37.961035,6999.974316,52.179,0.804,179.579
2.7388,128.182007,37.960989,6999.896896800001,51.158,0.792,179.555
2.7555,128.182006,37.960943,6999.8206968,50.091,0.781,179.533
2.7721,128.182006,37.960896,6999.744801600001,48.979,0.77,179.512
2.7889,128.182005,37.96085,6999.6701256,47.825,0.759,179.493
2.8056,128.182004,37.960803,6999.596364,46.632,0.748,179.475
2.8222,128.182003,37.960757,6999.5235168,45.4,0.737,179.459
2.839,128.182002,37.960711,6999.4518888,44.132,0.726,179.444
2.8557,128.182001,37.960664,6999.3811752,42.829,0.714,179.429
2.8724,128.182,37.960618,6999.3116808,41.493,0.702,179.416
2.8891,128.181999,37.960571,6999.2434056,40.126,0.689,179.403
2.9057,128.181998,37.960525,6999.1763496,38.729,0.676,179.392
2.9225,128.181996,37.960478,6999.1108176,37.303,0.662,179.38
2.9392,128.181995,37.960432,6999.046504800001,35.851,0.648,179.37
2.9558,128.181994,37.960386,6998.9840208,34.373,0.633,179.36
2.9726,128.181993,37.960339,6998.922756000001,32.87,0.617,179.351
2.9893,128.181992,37.960293,6998.863624800001,31.344,0.601,179.342
3.0059,128.18199,37.960246,6998.8057128,29.796,0.584,179.333
3.0227,128.181989,37.9602,6998.7499344,28.226,0.567,179.325
3.0394,128.181988,37.960153,6998.6959848,26.637,0.548,179.318
3.056,128.181986,37.960107,6998.643864000001,25.029,0.529,179.311
3.0728,128.181985,37.96006,6998.593572,23.402,0.509,179.305
3.0895,128.181983,37.960014,6998.545718400001,21.758,0.488,179.299
3.1062,128.181982,37.959967,6998.4996936,20.097,0.466,179.293
3.1229,128.181981,37.959921,6998.4561072,18.421,0.444,179.289
3.1395,128.181979,37.959874,6998.414349600001,16.73,0.421,179.284
3.1563,128.181978,37.959828,6998.3750304,15.023,0.397,179.281
3.173,128.181976,37.959781,6998.3381496,13.303,0.372,179.278
3.1896,128.181975,37.959735,6998.3037072,11.57,0.346,179.275
3.2064,128.181973,37.959688,6998.2713984,9.823,0.32,179.273
3.2231,128.181972,37.959642,6998.2415280000005,8.064,0.293,179.272
3.2397,128.18197,37.959595,6998.2144008000005,6.293,0.265,179.272
3.2565,128.181969,37.959549,6998.1894072,4.509,0.237,179.272
3.2732,128.181967,37.959502,6998.167156800001,2.714,0.208,179.273
3.2899,128.181966,37.959456,6998.14704,0.908,0.178,179.275
3.3066,128.181964,37.959409,6998.1299712,-0.908,0.148,179.278
3.3233,128.181963,37.959363,6998.115036,-2.735,0.117,179.281
3.34,128.181961,37.959316,6998.1025392,-4.573,0.086,179.285
3.3567,128.18196,37.95927,6998.0927856,-6.422,0.055,179.291
3.3734,128.181959,37.959223,6998.085470400001,-8.28,0.03,179.296
3.3901,128.181957,37.959177,6998.0808984,-10.149,0.016,179.3
3.4068,128.181956,37.95913,6998.0790696,-12.027,0.016,179.302
3.4235,128.181954,37.959083,6998.0802888,-13.915,0.033,179.301
3.4402,128.181953,37.959037,6998.0821176,-15.628,0.058,179.321
3.4569,128.181952,37.95899,6998.0857752,-17.172,0.076,179.365
3.4736,128.18195,37.958944,6998.090347200001,-18.54,0.084,179.427
3.4903,128.181949,37.958897,6998.0955288000005,-19.73,0.082,179.499
3.507,128.181948,37.95885,6998.101320000001,-20.742,0.073,179.575
3.5237,128.181946,37.958804,6998.107416,-21.58,0.06,179.651
3.5404,128.181945,37.958757,6998.1132072,-22.251,0.045,179.727
3.5571,128.181944,37.958711,6998.1183888,-22.762,0.03,179.801
3.5738,128.181943,37.958664,6998.1226560000005,-23.12,0.014,179.873
3.5905,128.181941,37.958617,6998.125704,-23.332,0.0,179.943
3.6072,128.18194,37.958571,6998.127228,-23.405,-0.015,180.011
3.6239,128.181939,37.958524,6998.1269232,-23.346,-0.029,180.076
3.6406,128.181938,37.958477,6998.12418,-23.16,-0.043,180.14
3.6573,128.181937,37.958431,6998.1189984,-22.854,-0.056,180.201
3.674,128.181935,37.958384,6998.1107688,-22.432,-0.069,180.26
3.6907,128.181934,37.958337,6998.099491200001,-21.9,-0.081,180.318
3.7074,128.181933,37.95829,6998.084556000001,-21.264,-0.095,180.374
3.7241,128.181932,37.958244,6998.065963200001,-20.527,-0.108,180.428
3.7408,128.181931,37.958197,6998.0440176,-19.695,-0.123,180.48
3.7575,128.181929,37.95815,6998.0184144,-18.773,-0.138,180.531
3.7742,128.181928,37.958103,6997.9891536000005,-17.764,-0.153,180.58
3.7909,128.181927,37.958056,6997.95654,-16.672,-0.17,180.628
3.8076,128.181926,37.958009,6997.9205736,-15.502,-0.187,180.675
3.8243,128.181925,37.957963,6997.8806448000005,-14.256,-0.206,180.72
3.841,128.181923,37.957916,6997.8373632,-12.94,-0.226,180.763
3.8577,128.181922,37.957869,6997.790728800001,-11.555,-0.247,180.805
3.8744,128.181921,37.957822,6997.740132000001,-10.105,-0.269,180.846
3.8911,128.18192,37.957775,6997.686182400001,-8.594,-0.292,180.885
3.9078,128.181918,37.957728,6997.62888,-7.024,-0.317,180.923
3.9245,128.181917,37.957681,6997.567615200001,-5.398,-0.343,180.959
3.9412,128.181916,37.957634,6997.5029976000005,-3.718,-0.37,180.994
3.9579,128.181915,37.957587,6997.4350272,-1.988,-0.398,181.028
3.9746,128.181914,37.95754,6997.3633992000005,-0.209,-0.428,181.059
3.9913,128.181912,37.957493,6997.2881136000005,1.615,-0.459,181.09
4.008,128.181911,37.957446,6997.2094752,3.485,-0.49,181.118
4.0247,128.18191,37.957399,6997.127484000001,5.396,-0.515,181.146
4.0414,128.181909,37.957351,6997.0421400000005,7.347,-0.529,181.174
4.058,128.181908,37.957304,6996.953748,9.337,-0.528,181.202
4.0748,128.181906,37.957257,6996.8626128000005,11.363,-0.51,181.233
4.0915,128.181905,37.95721,6996.7684296,13.424,-0.474,181.267
4.1082,128.181904,37.957163,6996.671808,15.517,-0.421,181.306
4.1249,128.181903,37.957116,6996.572748,17.641,-0.351,181.35
4.1415,128.181902,37.957069,6996.4712496,19.795,-0.266,181.402
4.1583,128.1819,37.957021,6996.3676176,21.975,-0.167,181.461
4.175,128.181899,37.956974,6996.2624616,24.182,-0.057,181.528
4.1917,128.181898,37.956927,6996.1554768000005,26.412,0.061,181.604
4.2084,128.181897,37.95688,6996.0472728,28.666,0.188,181.689
4.2251,128.181895,37.956832,6995.9375448,30.942,0.32,181.783
4.2417,128.181894,37.956785,6995.8272072,33.237,0.453,181.886
4.2585,128.181893,37.956738,6995.716564800001,35.542,0.584,181.994
4.2752,128.181892,37.95669,6995.6056176,37.847,0.709,182.106
4.2919,128.18189,37.956643,6995.494670400001,40.147,0.826,182.219
4.3086,128.181889,37.956596,6995.384028,42.437,0.932,182.331
4.3252,128.181888,37.956548,6995.2733856,44.713,1.025,182.44
4.342,128.181887,37.956501,6995.163047999999,46.976,1.103,182.543
4.3587,128.181885,37.956454,6995.0527104,49.226,1.165,182.64
4.3754,128.181884,37.956406,6994.9423728,51.468,1.211,182.729
4.3921,128.181882,37.956359,6994.8317304,53.707,1.24,182.806
4.4088,128.181881,37.956311,6994.7207832,55.951,1.252,182.872
4.4254,128.181879,37.956264,6994.6086168,58.211,1.248,182.924
4.4422,128.181878,37.956216,6994.495536,60.501,1.228,182.959
4.4589,128.181876,37.956169,6994.3815408,62.821,1.192,182.977
4.4756,128.181875,37.956121,6994.2660216,65.174,1.143,182.975
4.4923,128.181873,37.956074,6994.148064000001,67.357,1.091,182.936
4.5089,128.181872,37.956026,6994.029192000001,69.379,1.041,182.866
4.5256,128.18187,37.955979,6993.9091008000005,71.241,0.995,182.779
4.5424,128.181868,37.955931,6993.7874856,72.942,0.951,182.683
4.5591,128.181867,37.955884,6993.6649560000005,74.486,0.91,182.586
4.5758,128.181865,37.955836,6993.540597600001,75.886,0.877,182.489
4.5925,128.181863,37.955789,6993.41502,77.146,0.85,182.397
4.6091,128.181861,37.955741,6993.2882232,78.264,0.826,182.31
4.6259,128.18186,37.955693,6993.159597600001,79.253,0.807,182.23
4.6426,128.181858,37.955646,6993.0297528,80.118,0.794,182.156
4.6593,128.181856,37.955598,6992.898384000001,80.861,0.785,182.088
4.676,128.181854,37.955551,6992.765796000001,81.486,0.778,182.026
4.6927,128.181852,37.955503,6992.631684000001,81.996,0.773,181.971
4.7093,128.18185,37.955455,6992.496048,82.396,0.768,181.922
4.7261,128.181848,37.955408,6992.359497600001,82.718,0.761,181.88
4.7428,128.181845,37.95536,6992.221118400001,82.988,0.748,181.843
4.7595,128.181843,37.955312,6992.081520000001,83.23,0.73,181.812
4.7762,128.181841,37.955265,6991.9400928000005,83.46,0.705,181.785
4.7928,128.181839,37.955217,6991.797141600001,83.69,0.677,181.762
4.8096,128.181836,37.955169,6991.6520568000005,83.926,0.646,181.743
4.8263,128.181834,37.955122,6991.5051432,84.171,0.614,181.727
4.843,128.181832,37.955074,6991.3564008,84.427,0.581,181.713
4.8597,128.18183,37.955026,6991.205524800001,84.691,0.55,181.701
4.8764,128.181827,37.954978,6991.052820000001,84.961,0.519,181.692
4.893,128.181825,37.954931,6990.8979816,85.235,0.489,181.684
4.9098,128.181822,37.954883,6990.7413144,85.511,0.46,181.678
4.9265,128.18182,37.954835,6990.5828184,85.786,0.433,181.673
4.9432,128.181817,37.954787,6990.421884000001,86.06,0.406,181.67
4.9599,128.181815,37.95474,6990.2594256,86.333,0.38,181.669
4.9765,128.181812,37.954692,6990.094528800001,86.604,0.353,181.668
4.9932,128.18181,37.954644,6989.9278032,86.873,0.328,181.669
5.01,128.181807,37.954596,6989.758944,87.14,0.302,181.671
5.0267,128.181805,37.954548,6989.588256000001,87.405,0.277,181.674
5.0434,128.181802,37.954501,6989.4151296,87.668,0.251,181.678
5.0601,128.1818,37.954453,6989.240174400001,87.93,0.226,181.683
5.0767,128.181797,37.954405,6989.0630856,88.19,0.201,181.689
5.0935,128.181794,37.954357,6988.883863200001,88.448,0.176,181.696
5.1102,128.181792,37.954309,6988.7025072,88.704,0.152,181.704
5.1269,128.181789,37.954261,6988.5193224,88.957,0.127,181.712
5.1436,128.181786,37.954213,6988.3336992,89.208,0.103,181.722
5.1602,128.181784,37.954165,6988.1459424,89.456,0.079,181.731
5.1769,128.181781,37.954118,6987.956052,89.701,0.055,181.742
5.1937,128.181778,37.95407,6987.7643328,89.943,0.032,181.753
5.2104,128.181776,37.954022,6987.5701751999995,90.182,0.008,181.764
5.2271,128.181773,37.953974,6987.3738840000005,90.417,-0.014,181.776
5.2438,128.18177,37.953926,6987.1751544,90.65,-0.038,181.789
5.2604,128.181767,37.953878,6986.974596000001,90.88,-0.061,181.802
5.2772,128.181764,37.95383,6986.771904,91.106,-0.084,181.815
5.2939,128.181762,37.953782,6986.5667736000005,91.329,-0.107,181.829
5.3106,128.181759,37.953734,6986.359509600001,91.549,-0.13,181.843
5.3273,128.181756,37.953686,6986.150112,91.766,-0.153,181.857
5.3439,128.181753,37.953638,6985.9385808,91.98,-0.176,181.872
5.3606,128.18175,37.95359,6985.724611200001,92.19,-0.199,181.887
5.3774,128.181747,37.953542,6985.508508,92.396,-0.221,181.902
5.3941,128.181744,37.953494,6985.2902712,92.599,-0.244,181.917
5.4108,128.181741,37.953446,6985.069596,92.799,-0.266,181.933
5.4275,128.181738,37.953398,6984.8467872,92.996,-0.289,181.949
5.4441,128.181735,37.95335,6984.6218448,93.19,-0.311,181.965
5.4609,128.181732,37.953302,6984.394464000001,93.38,-0.334,181.981
5.4776,128.181729,37.953253,6984.1649496,93.568,-0.356,181.998
5.4943,128.181726,37.953205,6983.933301600001,93.753,-0.379,182.014
5.511,128.181723,37.953157,6983.699215200001,93.935,-0.401,182.031
5.5277,128.18172,37.953109,6983.4629952000005,94.115,-0.423,182.048
5.5443,128.181717,37.953061,6983.224336800001,94.293,-0.446,182.064
5.5611,128.181714,37.953013,6982.9832400000005,94.468,-0.468,182.081
5.5778,128.181711,37.952965,6982.740314400001,94.642,-0.491,182.098
5.5945,128.181708,37.952917,6982.494645600001,94.814,-0.513,182.116
5.6112,128.181704,37.952868,6982.2471479999995,94.984,-0.536,182.133
5.6278,128.181701,37.95282,6981.996907199999,95.153,-0.558,182.15
5.6445,128.181698,37.952772,6981.7448376,95.322,-0.581,182.167
5.6613,128.181695,37.952724,6981.490024800001,95.49,-0.604,182.184
5.678,128.181692,37.952676,6981.2333832,95.657,-0.627,182.202
5.6947,128.181689,37.952628,6980.9752176,95.945,-0.664,182.218
5.7114,128.181685,37.952579,6980.7149184,96.349,-0.715,182.232
5.728,128.181682,37.952531,6980.4524856,96.873,-0.775,182.246
5.7448,128.181679,37.952483,6980.187919200001,97.52,-0.837,182.258
5.7615,128.181676,37.952435,6979.9212192,98.286,-0.9,182.27
5.7782,128.181672,37.952386,6979.6520808000005,99.153,-0.96,182.282
5.7949,128.181669,37.952338,6979.3808088000005,100.105,-1.017,182.293
5.8115,128.181666,37.95229,6979.1077080000005,101.129,-1.071,182.304
5.8282,128.181663,37.952242,6978.8321688000005,102.211,-1.121,182.314
5.845,128.18166,37.952193,6978.5548008000005,103.345,-1.17,182.325
5.8617,128.181657,37.952145,6978.2749944,104.523,-1.217,182.334
5.8784,128.181654,37.952097,6977.993359200001,105.743,-1.263,182.344
5.8951,128.18165,37.952049,6977.709895200001,107.001,-1.308,182.352
5.9117,128.181647,37.952,6977.423992800001,108.297,-1.353,182.36
5.9285,128.181644,37.951952,6977.1365663999995,109.632,-1.398,182.367
5.9452,128.181641,37.951904,6976.847006400001,111.004,-1.443,182.373
5.9619,128.181638,37.951855,6976.5556176,112.416,-1.487,182.378
5.9786,128.181635,37.951807,6976.2624000000005,113.868,-1.532,182.382
5.9952,128.181632,37.951759,6975.9673536,115.36,-1.576,182.386
6.0119,128.181629,37.95171,6975.670783200001,116.895,-1.62,182.388
6.0287,128.181626,37.951662,6975.3726888,118.473,-1.665,182.39
6.0454,128.181623,37.951614,6975.072765600001,120.096,-1.709,182.39
6.0621,128.18162,37.951565,6974.7713184,121.764,-1.752,182.389
6.0788,128.181617,37.951517,6974.4686520000005,123.48,-1.796,182.387
6.0954,128.181614,37.951468,6974.1647664,125.245,-1.839,182.384
6.1121,128.181611,37.95142,6973.8596615999995,127.059,-1.882,182.38
6.1289,128.181608,37.951371,6973.5533376,128.923,-1.924,182.374
6.1456,128.181605,37.951323,6973.2457944,130.839,-1.966,182.367
6.1623,128.181602,37.951275,6972.9376416000005,132.807,-2.008,182.359
6.179,128.181599,37.951226,6972.628574400001,134.829,-2.048,182.349
6.1956,128.181597,37.951178,6972.318592800001,136.904,-2.088,182.338
6.2124,128.181594,37.951129,6972.0076968,139.029,-2.126,182.326
6.2291,128.181591,37.951081,6971.696191200001,141.202,-2.163,182.313
6.2458,128.181588,37.951032,6971.384076,143.421,-2.199,182.299
6.2625,128.181585,37.950984,6971.0710464,145.683,-2.233,182.284
6.2791,128.181583,37.950935,6970.757712,147.985,-2.266,182.268
6.2958,128.18158,37.950887,6970.4434632,150.325,-2.297,182.252
6.3126,128.181577,37.950838,6970.1286048,152.701,-2.327,182.235
6.3293,128.181574,37.950789,6969.8134416,155.11,-2.355,182.217
6.346,128.181572,37.950741,6969.497364000001,157.551,-2.381,182.198
6.3627,128.181569,37.950692,6969.1809816,160.021,-2.406,182.179
6.3793,128.181566,37.950644,6968.8639896,162.518,-2.428,182.16
6.3961,128.181563,37.950595,6968.546083200001,165.04,-2.449,182.14
6.4128,128.181561,37.950546,6968.227872,167.586,-2.468,182.119
6.4295,128.181558,37.950498,6967.909356000001,170.154,-2.485,182.099
6.4462,128.181555,37.950449,6967.5899256,172.741,-2.501,182.078
6.4628,128.181553,37.9504,6967.2698856,175.347,-2.514,182.058
6.4795,128.18155,37.950352,6966.949236,177.97,-2.526,182.037
6.4963,128.181547,37.950303,6966.6276720000005,-179.392,-2.535,182.017
6.513,128.181544,37.950254,6966.3054984,-176.74,-2.545,181.997
6.5297,128.181542,37.950205,6965.982410400001,-174.076,-2.563,181.977
6.5464,128.181539,37.950157,6965.6581032,-171.401,-2.596,181.954
6.5631,128.181536,37.950108,6965.332272000001,-168.716,-2.648,181.928
6.5798,128.181533,37.950059,6965.0049168,-166.023,-2.723,181.897
6.5965,128.181531,37.95001,6964.6754280000005,-163.322,-2.819,181.858
6.6132,128.181528,37.949962,6964.3441104,-160.618,-2.938,181.809
6.6299,128.181525,37.949913,6964.0091352,-157.923,-3.076,181.75
6.6466,128.181523,37.949864,6963.6705024,-155.254,-3.234,181.679
6.6633,128.18152,37.949815,6963.3276024,-152.621,-3.41,181.596
6.68,128.181517,37.949767,6962.9798256,-150.037,-3.6,181.499
6.6967,128.181514,37.949718,6962.626867200001,-147.511,-3.802,181.387
6.7134,128.181512,37.949669,6962.268117600001,-145.049,-4.012,181.26
6.7301,128.181509,37.94962,6961.9035768,-142.658,-4.227,181.119
6.7468,128.181506,37.949571,6961.5326352,-140.34,-4.445,180.963
6.7635,128.181504,37.949522,6961.154988000001,-138.098,-4.664,180.794
6.7802,128.181501,37.949474,6960.7703304,-135.933,-4.881,180.61
6.7969,128.181499,37.949425,6960.3789672,-133.844,-5.095,180.414
6.8136,128.181496,37.949376,6959.9802887999995,-131.832,-5.305,180.207
6.8303,128.181494,37.949327,6959.5742952,-129.894,-5.509,179.989
6.847,128.181492,37.949278,6959.1609864,-128.028,-5.706,179.761
6.8637,128.181489,37.94923,6958.7400576,-126.233,-5.895,179.524
6.8804,128.181487,37.949181,6958.3115088,-124.507,-6.077,179.279
6.8971,128.181485,37.949132,6957.8756448,-122.846,-6.251,179.027
6.9138,128.181483,37.949083,6957.432465600001,-121.25,-6.416,178.77
6.9305,128.181481,37.949034,6956.9813616,-119.716,-6.573,178.507
6.9472,128.181479,37.948985,6956.522942400001,-118.241,-6.721,178.239
6.9639,128.181477,37.948937,6956.0569032,-116.823,-6.86,177.968
6.9806,128.181476,37.948888,6955.5835488,-115.461,-6.99,177.694
6.9973,128.181474,37.948839,6955.102879200001,-114.152,-7.113,177.417
7.014,128.181472,37.94879,6954.6148944,-112.895,-7.227,177.137
7.0307,128.181471,37.948741,6954.1195944,-111.689,-7.333,176.856
7.0474,128.18147,37.948693,6953.617284000001,-110.532,-7.432,176.573
7.0641,128.181469,37.948644,6953.1079632,-109.421,-7.523,176.288
7.0808,128.181468,37.948595,6952.591632000001,-108.357,-7.608,176.003
7.0975,128.181467,37.948546,6952.0685952,-107.338,-7.685,175.717
7.1142,128.181466,37.948497,6951.5388528,-106.362,-7.756,175.433
7.1309,128.181465,37.948449,6951.0027096,-105.43,-7.82,175.152
7.1476,128.181465,37.9484,6950.459860800001,-104.539,-7.876,174.876
7.1643,128.181465,37.948351,6949.910916,-103.69,-7.925,174.607
7.181,128.181464,37.948302,6949.3558752,-102.881,-7.968,174.346
7.1977,128.181464,37.948254,6948.794738400001,-102.112,-8.004,174.091
7.2144,128.181464,37.948205,6948.227505600001,-101.382,-8.034,173.844
7.2311,128.181465,37.948156,6947.6547864,-100.689,-8.059,173.604
7.2478,128.181465,37.948107,6947.076276,-100.034,-8.08,173.37
7.2645,128.181466,37.948059,6946.492279200001,-99.414,-8.096,173.141
7.2812,128.181466,37.94801,6945.9031008,-98.828,-8.108,172.918
7.2979,128.181467,37.947961,6945.308436,-98.276,-8.116,172.7
7.3146,128.181468,37.947912,6944.7085896,-97.678,-8.116,172.486
7.3313,128.181469,37.947864,6944.1038664,-97.042,-8.108,172.276
7.348,128.18147,37.947815,6943.4945712,-96.382,-8.095,172.07
7.3647,128.181472,37.947766,6942.880704,-95.709,-8.08,171.868
7.3814,128.181473,37.947718,6942.2625696000005,-95.039,-8.065,171.67
7.3981,128.181475,37.947669,6941.6398632,-94.382,-8.05,171.476
7.4148,128.181477,37.947621,6941.0131944,-93.75,-8.034,171.285
7.4315,128.181479,37.947572,6940.3825632,-93.151,-8.018,171.097
7.4482,128.181481,37.947523,6939.747969600001,-92.591,-8.002,170.911
7.4649,128.181483,37.947475,6939.1094136,-92.073,-7.985,170.728
7.4816,128.181486,37.947426,6938.4672,-91.6,-7.966,170.547
7.4983,128.181489,37.947378,6937.8216336000005,-91.17,-7.947,170.368
7.515,128.181492,37.947329,6937.172409600001,-90.783,-7.927,170.191
7.5317,128.181495,37.94728,6936.519832800001,-90.437,-7.906,170.016
7.5484,128.181498,37.947232,6935.864208,-90.126,-7.886,169.842
7.5651,128.181501,37.947183,6935.2055352,-89.847,-7.866,169.669
7.5818,128.181505,37.947135,6934.5435096,-89.599,-7.847,169.497
7.5985,128.181508,37.947087,6933.878436,-89.378,-7.827,169.326
7.6152,128.181512,37.947038,6933.210924000001,-89.18,-7.808,169.157
7.6319,128.181516,37.94699,6932.5400592000005,-89.002,-7.79,168.989
7.6486,128.18152,37.946941,6931.866756,-88.838,-7.774,168.821
7.6653,128.181525,37.946893,6931.1907096,-88.687,-7.761,168.655
7.682,128.181529,37.946845,6930.511920000001,-88.546,-7.75,168.489
7.6987,128.181534,37.946796,6929.830692,-88.416,-7.741,168.325
7.7154,128.181539,37.946748,6929.146416,-88.296,-7.734,168.161
7.7321,128.181544,37.946699,6928.459701600001,-88.189,-7.727,167.999
7.7488,128.181549,37.946651,6927.7705488,-88.094,-7.721,167.837
7.7655,128.181554,37.946603,6927.0786528,-88.012,-7.715,167.676
7.7822,128.18156,37.946555,6926.384318400001,-87.942,-7.71,167.516
7.7989,128.181565,37.946506,6925.687545600001,-87.884,-7.705,167.356
7.8156,128.181571,37.946458,6924.9880296,-87.838,-7.7,167.197
7.8323,128.181577,37.94641,6924.2860752,-87.805,-7.696,167.039
7.849,128.181583,37.946362,6923.5819872,-87.784,-7.692,166.881
7.8657,128.181589,37.946314,6922.875156000001,-87.776,-7.689,166.724
7.8824,128.181596,37.946266,6922.1658864,-87.78,-7.686,166.567
7.8991,128.181602,37.946217,6921.454483200001,-87.797,-7.685,166.411
7.9158,128.181609,37.946169,6920.7406416,-87.827,-7.683,166.255
7.9325,128.181616,37.946121,6920.0243616,-87.87,-7.683,166.099
7.9492,128.181623,37.946073,6919.305948,-87.925,-7.683,165.943
7.9659,128.18163,37.946025,6918.585096000001,-87.992,-7.684,165.787
7.9826,128.181638,37.945977,6917.8621104,-88.072,-7.685,165.631
7.9993,128.181645,37.945929,6917.1363816,-88.164,-7.687,165.476
8.016,128.181653,37.945881,6916.408824000001,-88.268,-7.691,165.321
8.0327,128.181661,37.945834,6915.6785232,-88.383,-7.695,165.166
8.0494,128.181669,37.945786,6914.946088799999,-88.509,-7.699,165.011
8.0661,128.181677,37.945738,6914.210911200001,-88.645,-7.705,164.856
8.0828,128.181686,37.94569,6913.4736,-88.791,-7.712,164.702
8.0994,128.181694,37.945642,6912.733850400001,-88.946,-7.719,164.548
8.1161,128.181703,37.945595,6911.9916624,-89.11,-7.728,164.394
8.1329,128.181712,37.945547,6911.247036000001,-89.283,-7.737,164.24
8.1496,128.181721,37.945499,6910.4999712,-89.462,-7.747,164.087
8.1663,128.18173,37.945452,6909.7501632,-89.649,-7.759,163.934
8.183,128.181739,37.945404,6908.9979168,-89.842,-7.771,163.781
8.1997,128.181749,37.945357,6908.2429272,-90.041,-7.785,163.628
8.2164,128.181758,37.945309,6907.4854992,-90.244,-7.799,163.475
8.2331,128.181768,37.945262,6906.725023200001,-90.452,-7.814,163.323
8.2498,128.181778,37.945214,6905.9618040000005,-90.664,-7.831,163.171
8.2665,128.181788,37.945167,6905.195841600001,-90.879,-7.848,163.019
8.2831,128.181799,37.94512,6904.4268312,-91.097,-7.867,162.868
8.2998,128.181809,37.945072,6903.6550776,-91.316,-7.886,162.717
8.3166,128.18182,37.945025,6902.880276,-91.538,-7.907,162.566
8.3333,128.18183,37.944978,6902.1024264,-91.761,-7.929,162.416
8.35,128.181841,37.94493,6901.321528800001,-91.984,-7.951,162.265
8.3667,128.181852,37.944883,6900.537583200001,-92.208,-7.975,162.114
8.3834,128.181863,37.944836,6899.7502848,-92.432,-8.0,161.964
8.4001,128.181875,37.944789,6898.959938400001,-92.655,-8.026,161.813
8.4168,128.181886,37.944742,6898.166544,-92.878,-8.053,161.663
8.4335,128.181898,37.944695,6897.369492000001,-93.101,-8.081,161.512
8.4502,128.18191,37.944648,6896.569392,-93.322,-8.11,161.362
8.4668,128.181922,37.944601,6895.7659392,-93.542,-8.14,161.211
8.4835,128.181934,37.944554,6894.9588288,-93.761,-8.172,161.061
8.5003,128.181946,37.944507,6894.148365600001,-93.979,-8.204,160.91
8.517,128.181958,37.94446,6893.3345496,-94.195,-8.237,160.76
8.5337,128.181971,37.944413,6892.517076,-94.409,-8.271,160.61
8.5504,128.181984,37.944366,6891.696249600001,-94.621,-8.307,160.459
8.5671,128.181997,37.944319,6890.871460800001,-94.832,-8.343,160.309
8.5838,128.18201,37.944273,6890.0430144,-95.041,-8.38,160.159
8.6005,128.182023,37.944226,6889.211215200001,-95.248,-8.418,160.009
8.6172,128.182036,37.944179,6888.3751488,-95.453,-8.458,159.859
8.6339,128.182049,37.944133,6887.5357296,-95.655,-8.498,159.708
8.6505,128.182063,37.944086,6886.692348,-95.856,-8.539,159.558
8.6672,128.182077,37.944039,6885.845004,-96.055,-8.58,159.409
8.684,128.182091,37.943993,6884.993697600001,-96.253,-8.623,159.259
8.7007,128.182105,37.943946,6884.138733600001,-96.449,-8.667,159.109
8.7174,128.182119,37.9439,6883.2795024,-96.643,-8.712,158.959
8.7341,128.182133,37.943854,6882.4163088000005,-96.836,-8.757,158.81
8.7508,128.182148,37.943807,6881.5491528,-97.026,-8.803,158.66
8.7675,128.182162,37.943761,6880.6777296,-97.214,-8.85,158.51
8.7842,128.182177,37.943715,6879.8020392,-97.4,-8.898,158.361
8.8009,128.182192,37.943668,6878.9223864000005,-97.585,-8.947,158.212
8.8176,128.182207,37.943622,6878.0384664,-97.767,-8.996,158.062
8.8342,128.182223,37.943576,6877.150279200001,-97.948,-9.046,157.913
8.8509,128.182238,37.94353,6876.257824800001,-98.127,-9.097,157.764
8.8676,128.182253,37.943484,6875.3607984,-98.305,-9.149,157.615
8.8844,128.182269,37.943438,6874.459809600001,-98.482,-9.202,157.466
8.9011,128.182285,37.943392,6873.553944,-98.657,-9.255,157.317
8.9178,128.182301,37.943346,6872.6441159999995,-98.83,-9.309,157.169
8.9345,128.182317,37.9433,6871.729411200001,-99.003,-9.364,157.02
8.9512,128.182333,37.943254,6870.8104392,-99.174,-9.419,156.871
8.9679,128.18235,37.943208,6869.8868952,-99.344,-9.475,156.723
8.9846,128.182366,37.943162,6868.9584744,-99.513,-9.532,156.574
9.0013,128.182383,37.943116,6868.0257864000005,-99.681,-9.589,156.426
9.0179,128.1824,37.943071,6867.0882216,-99.848,-9.647,156.278
9.0346,128.182417,37.943025,6866.1460848,-100.014,-9.706,156.13
9.0513,128.182434,37.942979,6865.1993760000005,-100.18,-9.766,155.982
9.0681,128.182451,37.942934,6864.2474856,-100.346,-9.826,155.834
9.0848,128.182468,37.942888,6863.291328,-100.51,-9.887,155.686
9.1015,128.182486,37.942843,6862.3299888,-100.674,-9.948,155.539
9.1182,128.182504,37.942797,6861.3637728,-100.837,-10.01,155.391
9.1349,128.182521,37.942752,6860.39268,-100.999,-10.073,155.244
9.1516,128.182539,37.942706,6859.417015200001,-101.161,-10.136,155.096
9.1683,128.182557,37.942661,6858.435864,-101.321,-10.2,154.949
9.185,128.182576,37.942616,6857.450140800001,-101.482,-10.264,154.802
9.2016,128.182594,37.942571,6856.459236000001,-101.641,-10.329,154.655
9.2183,128.182613,37.942525,6855.4631496,-101.8,-10.395,154.508
9.235,128.182631,37.94248,6854.4621864,-101.958,-10.461,154.361
9.2518,128.18265,37.942435,6853.4560416,-102.115,-10.528,154.214
9.2685,128.182669,37.94239,6852.445020000001,-102.272,-10.595,154.067
9.2852,128.182688,37.942345,6851.4285119999995,-102.428,-10.663,153.921
9.3019,128.182707,37.9423,6850.4071272,-102.584,-10.731,153.774
9.3186,128.182727,37.942255,6849.380256,-102.739,-10.8,153.628
9.3353,128.182746,37.942211,6848.3482032,-102.893,-10.87,153.482
9.352,128.182766,37.942166,6847.3109688,-103.047,-10.94,153.335
9.3687,128.182785,37.942121,6846.268247999999,-103.201,-11.011,153.189
9.3854,128.182805,37.942076,6845.220345600001,-103.354,-11.082,153.044
9.402,128.182825,37.942032,6844.166956800001,-103.506,-11.153,152.898
9.4187,128.182846,37.941987,6843.1080816,-103.658,-11.225,152.752
9.4355,128.182866,37.941943,6842.0440248,-103.81,-11.298,152.607
9.4522,128.182886,37.941898,6840.9741768,-103.961,-11.371,152.462
9.4689,128.182907,37.941854,6839.898842400001,-104.112,-11.445,152.317
9.4856,128.182928,37.941809,6838.8183264,-104.262,-11.519,152.172
9.5023,128.182948,37.941765,6837.732019200001,-104.412,-11.594,152.027
9.519,128.182969,37.941721,6836.6399208,-104.561,-11.669,151.883
9.5357,128.18299,37.941677,6835.542336,-104.71,-11.744,151.738
9.5524,128.183012,37.941633,6834.4392648,-104.859,-11.82,151.594
9.5691,128.183033,37.941588,6833.3304024,-105.007,-11.897,151.45
9.5857,128.183054,37.941544,6832.2157488,-105.155,-11.974,151.306
9.6024,128.183076,37.9415,6831.095304,-105.302,-12.051,151.162
9.6192,128.183098,37.941457,6829.969068,-105.449,-12.129,151.018
9.6359,128.18312,37.941413,6828.8370408,-105.596,-12.208,150.874
9.6526,128.183142,37.941369,6827.6992224000005,-105.742,-12.287,150.731
9.6693,128.183164,37.941325,6826.5556128,-105.888,-12.366,150.588
9.686,128.183186,37.941281,6825.4059072,-106.034,-12.446,150.444
9.7027,128.183209,37.941238,6824.250105600001,-106.18,-12.526,150.301
9.7194,128.183231,37.941194,6823.0888176,-106.325,-12.607,150.158
9.7361,128.183254,37.941151,6821.921128800001,-106.469,-12.688,150.015
9.7528,128.183277,37.941107,6820.7476488,-106.614,-12.769,149.873
9.7694,128.183299,37.941064,6819.568072800001,-106.758,-12.851,149.73
9.7861,128.183323,37.94102,6818.382096,-106.901,-12.934,149.588
9.8029,128.183346,37.940977,6817.190328000001,-107.044,-13.017,149.445
9.8196,128.183369,37.940934,6815.992464000001,-107.187,-13.1,149.303
9.8363,128.183392,37.940891,6814.7881992,-107.33,-13.184,149.161
9.853,128.183416,37.940848,6813.5778384000005,-107.472,-13.268,149.019
9.8697,128.18344,37.940805,6812.3610768,-107.614,-13.352,148.877
9.8864,128.183463,37.940762,6811.138219200001,-107.755,-13.437,148.735
9.9031,128.183487,37.940719,6809.9089608,-107.896,-13.523,148.594
9.9198,128.183511,37.940676,6808.673606400001,-108.037,-13.608,148.452
9.9365,128.183536,37.940633,6807.431851200001,-108.177,-13.694,148.311
9.9531,128.18356,37.94059,6806.1833904000005,-108.317,-13.781,148.17
9.9698,128.183584,37.940548,6804.928833600001,-108.457,-13.868,148.029
9.9865,128.183609,37.940505,6803.6675712,-108.596,-13.955,147.888
10.0033,128.183634,37.940463,6802.4002128,-108.735,-14.043,147.747
10.02,128.183658,37.94042,6801.1261488,-108.874,-14.131,147.606
10.0367,128.183683,37.940378,6799.845379200001,-109.012,-14.22,147.465
10.0534,128.183708,37.940335,6798.5582088,-109.15,-14.309,147.325
10.0701,128.183733,37.940293,6797.2646376,-109.287,-14.398,147.185
10.0868,128.183759,37.940251,6795.964360800001,-109.424,-14.488,147.044
10.1035,128.183784,37.940209,6794.6573784,-109.561,-14.578,146.904
10.1202,128.18381,37.940166,6793.3436904,-109.697,-14.668,146.764
10.1368,128.183835,37.940124,6792.023296800001,-109.833,-14.759,146.624
10.1535,128.183861,37.940082,6790.696197600001,-109.968,-14.85,146.484
10.1702,128.183887,37.94004,6789.362392800001,-110.103,-14.942,146.345
10.187,128.183913,37.939999,6788.0218824,-110.237,-15.034,146.205
10.2037,128.183939,37.939957,6786.674361599999,-110.372,-15.126,146.066
10.2204,128.183965,37.939915,6785.3201352,-110.506,-15.219,145.926
10.2371,128.183992,37.939873,6783.9592032,-110.639,-15.312,145.787
10.2538,128.184018,37.939832,6782.591260800001,-110.773,-15.405,145.648
10.2705,128.184045,37.93979,6781.216308,-110.905,-15.499,145.509
10.2872,128.184071,37.939749,6779.8343448000005,-111.038,-15.593,145.37
10.3039,128.184098,37.939708,6778.445676,-111.17,-15.687,145.232
10.3205,128.184125,37.939666,6777.0499968,-111.302,-15.782,145.093
10.3372,128.184152,37.939625,6775.6470024,-111.433,-15.877,144.954
10.3539,128.184179,37.939584,6774.2373024,-111.564,-15.973,144.816
10.3707,128.184207,37.939543,6772.8202872,-111.695,-16.068,144.678
10.3874,128.184234,37.939502,6771.3962616,-111.825,-16.164,144.539
10.4041,128.184262,37.939461,6769.9652256,-111.954,-16.261,144.401
10.4208,128.184289,37.93942,6768.5268744,-112.084,-16.358,144.263
10.4375,128.184317,37.939379,6767.0812080000005,-112.212,-16.455,144.125
10.4542,128.184345,37.939338,6765.6285312,-112.341,-16.552,143.988
10.4709,128.184373,37.939298,6764.168844,-112.469,-16.65,143.85
10.4876,128.184401,37.939257,6762.7015368,-112.596,-16.748,143.712
10.5042,128.184429,37.939216,6761.227219200001,-112.723,-16.846,143.575
10.5209,128.184457,37.939176,6759.7452816,-112.85,-16.945,143.438
10.5376,128.184486,37.939135,6758.2560288,-113.079,-17.051,143.304
10.5544,128.184514,37.939095,6756.7588512,-113.41,-17.166,143.174
10.5711,128.184543,37.939055,6755.253444,-113.84,-17.286,143.047
10.5878,128.184572,37.939015,6753.7398072,-114.372,-17.409,142.921
10.6045,128.184601,37.938975,6752.217636,-115.003,-17.534,142.795
10.6212,128.18463,37.938935,6750.6863207999995,-115.731,-17.662,142.668
10.6379,128.184659,37.938895,6749.1461664,-116.552,-17.792,142.542
10.6546,128.184688,37.938855,6747.596563200001,-117.463,-17.925,142.415
10.6713,128.184717,37.938815,6746.0369016,-118.462,-18.061,142.287
10.6879,128.184747,37.938775,6744.467791200001,-119.546,-18.201,142.159
10.7046,128.184777,37.938736,6742.8883176,-120.711,-18.345,142.031
10.7213,128.184807,37.938696,6741.2987856,-121.955,-18.494,141.903
10.7381,128.184836,37.938657,6739.6973664,-123.092,-18.623,141.775
10.7548,128.184866,37.938618,6738.0861936,-124.127,-18.725,141.656
10.7715,128.184897,37.938578,6736.4649624,-125.054,-18.81,141.547
10.7882,128.184927,37.938539,6734.8339776,-125.868,-18.885,141.449
10.8049,128.184957,37.9385,6733.1929344,-126.565,-18.956,141.358
10.8216,128.184987,37.938461,6731.542747200001,-127.149,-19.026,141.273
10.8383,128.185018,37.938422,6729.883111200001,-127.623,-19.098,141.193
10.855,128.185048,37.938383,6728.2140264,-127.991,-19.171,141.115
10.8717,128.185079,37.938344,6726.536102399999,-128.257,-19.246,141.039
10.8883,128.18511,37.938305,6724.8493392,-128.427,-19.323,140.965
10.905,128.185141,37.938267,6723.153736800001,-128.504,-19.401,140.89
10.9218,128.185171,37.938228,6721.449904800001,-128.493,-19.481,140.816
10.9385,128.185202,37.938189,6719.7378432,-128.397,-19.561,140.741
10.9552,128.185233,37.938151,6718.017856800001,-128.218,-19.641,140.666
10.9719,128.185264,37.938112,6716.2899456000005,-127.962,-19.722,140.591
10.9886,128.185295,37.938074,6714.5544144000005,-127.629,-19.803,140.514
11.0053,128.185327,37.938035,6712.811568,-127.224,-19.884,140.436
11.022,128.185358,37.937997,6711.061711200001,-126.748,-19.964,140.358
11.0387,128.185389,37.937958,6709.3042344,-126.204,-20.044,140.277
11.0554,128.185421,37.93792,6707.539137600001,-125.594,-20.123,140.195
11.072,128.185452,37.937881,6705.7670304,-124.92,-20.2,140.112
11.0887,128.185484,37.937843,6703.987608,-124.184,-20.277,140.026
11.1054,128.185515,37.937805,6702.200870400001,-123.388,-20.352,139.938
11.1222,128.185547,37.937767,6700.4068176,-122.532,-20.426,139.847
11.1389,128.185579,37.937728,6698.6057544000005,-121.62,-20.498,139.754
11.1556,128.18561,37.93769,6696.7976808,-120.651,-20.568,139.658
11.1723,128.185642,37.937652,6694.983511200001,-119.821,-20.662,139.558
11.189,128.185674,37.937614,6693.1617216,-119.119,-20.784,139.443
11.2057,128.185706,37.937576,6691.332312,-118.549,-20.927,139.311
11.2224,128.185738,37.937538,6689.4952824,-118.117,-21.082,139.166
11.2391,128.185771,37.937501,6687.650023200001,-117.823,-21.242,139.011
11.2557,128.185803,37.937463,6685.7965343999995,-117.666,-21.403,138.851
11.2724,128.185835,37.937425,6683.934816,-117.642,-21.563,138.687
11.2891,128.185868,37.937387,6682.0642584,-117.747,-21.72,138.522
11.3059,128.185901,37.93735,6680.1851664,-117.974,-21.874,138.358
11.3226,128.185933,37.937312,6678.2969304,-118.32,-22.027,138.196
11.3393,128.185966,37.937275,6676.3995504,-118.778,-22.178,138.036
11.356,128.185999,37.937238,6674.4930264,-119.343,-22.328,137.88
11.3727,128.186032,37.937201,6672.576444,-120.011,-22.478,137.727
11.3894,128.186065,37.937164,6670.650108,-120.778,-22.628,137.576
11.4061,128.186098,37.937127,6668.7137136,-121.639,-22.78,137.428
11.4228,128.186132,37.93709,6666.766346400001,-122.591,-22.934,137.283
11.4394,128.186165,37.937053,6664.808311200001,-123.631,-23.091,137.14
11.4561,128.186199,37.937016,6662.8393032,-124.755,-23.25,136.999
11.4728,128.186232,37.93698,6660.8587128,-125.961,-23.414,136.861
11.4896,128.186266,37.936943,6658.8668448,-127.246,-23.582,136.725
11.5063,128.1863,37.936907,6656.8630896,-128.608,-23.755,136.591
11.523,128.186334,37.93687,6654.846837600001,-129.851,-23.906,136.459
11.5397,128.186368,37.936834,6652.819308,-130.988,-24.024,136.339
11.5564,128.186402,37.936798,6650.7811104,-132.015,-24.106,136.249
11.5731,128.186436,37.936762,6648.7316352,-132.927,-24.163,136.186
11.5898,128.18647,37.936726,6646.6717968,-133.72,-24.207,136.142
11.6065,128.186504,37.93669,6644.6012904,-134.393,-24.245,136.11
11.6231,128.186539,37.936654,6642.5210304,-134.95,-24.282,136.084
11.6398,128.186573,37.936619,6640.430712,-135.394,-24.321,136.06
11.6565,128.186607,37.936583,6638.33064,-135.73,-24.363,136.037
11.6733,128.186642,37.936547,6636.221424,-135.963,-24.408,136.012
11.69,128.186676,37.936512,6634.103064000001,-136.097,-24.457,135.986
11.7067,128.186711,37.936476,6631.975864800001,-136.136,-24.508,135.957
11.7234,128.186746,37.93644,6629.840436,-136.084,-24.562,135.926
11.7401,128.18678,37.936405,6627.6964728,-135.946,-24.619,135.893
11.7568,128.186815,37.93637,6625.5445848,-135.723,-24.677,135.857
11.7735,128.18685,37.936334,6623.384772,-135.419,-24.737,135.819
11.7902,128.186885,37.936299,6621.217644,-135.037,-24.799,135.778
11.8068,128.18692,37.936264,6619.043200800001,-134.58,-24.862,135.735
11.8235,128.186954,37.936228,6616.861137600001,-134.05,-24.926,135.689
11.8402,128.186989,37.936193,6614.6717592,-133.449,-24.99,135.641
11.857,128.187024,37.936158,6612.475065600001,-132.78,-25.055,135.589
11.8737,128.187059,37.936123,6610.270752000001,-132.045,-25.121,135.534
11.8904,128.187095,37.936088,6608.059123200001,-131.245,-25.186,135.476
11.9071,128.18713,37.936053,6605.8401792,-130.383,-25.252,135.415
11.9238,128.187165,37.936017,6603.613920000001,-129.46,-25.317,135.35
11.9405,128.1872,37.935982,6601.3803456000005,-128.477,-25.382,135.281
11.9572,128.187235,37.935947,6599.139760800001,-127.436,-25.446,135.208
