Time,Longitude,Latitude,Altitude,Roll (deg),Pitch (deg),Yaw (deg)
0.0,128.181881,37.923647,6000.141619200001,0.0,-0.004,0.0
0.0167,128.181881,37.923692,6000.156249600001,0.0,-0.014,0.0
0.0334,128.181881,37.923737,6000.1705752,0.0,-0.015,359.999
0.0501,128.181881,37.923782,6000.185205600001,0.0,0.008,359.999
0.0668,128.181881,37.923827,6000.199836,0.0,0.071,359.999
0.0834,128.181881,37.923872,6000.215076,0.0,0.188,359.999
0.1002,128.181881,37.923917,6000.2321448,0.0,0.37,359.999
0.1169,128.181881,37.923962,6000.2507376,-0.001,0.626,359.999
0.1336,128.181881,37.924007,6000.272378400001,-0.001,0.965,359.999
0.1503,128.181881,37.924052,6000.2970672,-0.001,1.383,359.999
0.1669,128.181881,37.924097,6000.3254136000005,-0.002,1.865,359.999
0.1837,128.181881,37.924142,6000.358332000001,-0.002,2.398,359.999
0.2004,128.181881,37.924187,6000.3958224,-0.002,2.964,359.999
0.2171,128.181881,37.924232,6000.439104,-0.003,3.544,359.999
0.2338,128.181881,37.924277,6000.4881768000005,-0.003,4.12,359.999
0.2505,128.181881,37.924322,6000.543650400001,-0.004,4.673,359.999
0.2672,128.181881,37.924367,6000.6061344,-0.005,5.186,359.999
0.2839,128.181881,37.924412,6000.6759336000005,-0.005,5.657,359.999
0.3006,128.181881,37.924457,6000.7539624,-0.006,6.092,359.999
0.3172,128.181881,37.924502,6000.839916,-0.007,6.495,359.999
0.3339,128.181881,37.924547,6000.9350136,-0.007,6.872,359.999
0.3507,128.181881,37.924592,6001.0389504,-0.008,7.227,359.999
0.3674,128.181881,37.924637,6001.152336,-0.009,7.561,359.999
0.3841,128.181881,37.924682,6001.275170400001,-0.01,7.878,359.998
0.4008,128.181881,37.924727,6001.4080632000005,-0.012,8.179,359.998
0.4175,128.181881,37.924772,6001.551014400001,-0.013,8.467,359.998
0.4342,128.181881,37.924817,6001.7043288,-0.014,8.741,359.998
0.4509,128.181881,37.924862,6001.867701600001,-0.016,9.004,359.998
0.4676,128.181881,37.924907,6002.0420472000005,-0.017,9.257,359.998
0.4843,128.181881,37.924952,6002.227060800001,-0.019,9.5,359.998
0.501,128.181881,37.924997,6002.423047200001,-0.021,9.735,359.997
0.5176,128.181881,37.925042,6002.630006400001,-0.023,9.962,359.997
0.5344,128.181881,37.925087,6002.847938400001,-0.025,10.182,359.997
0.5511,128.181881,37.925132,6003.077147999999,-0.028,10.395,359.997
0.5678,128.181881,37.925177,6003.31794,-0.031,10.603,359.997
0.5845,128.181881,37.925222,6003.5697048,-0.034,10.805,359.996
0.6012,128.181881,37.925267,6003.833356800001,-0.037,11.003,359.996
0.6179,128.181881,37.925312,6004.1082864,-0.04,11.196,359.996
0.6345,128.181881,37.925357,6004.3951031999995,-0.044,11.385,359.995
0.6513,128.181881,37.925401,6004.6931976000005,-0.048,11.57,359.995
0.6679,128.181881,37.925446,6005.003179200001,-0.053,11.752,359.994
0.6847,128.181881,37.925491,6005.325048,-0.058,11.931,359.994
0.7014,128.181881,37.925536,6005.658804000001,-0.063,12.107,359.993
0.7181,128.181881,37.925581,6006.004447200001,-0.069,12.281,359.993
0.7348,128.181881,37.925626,6006.361672800001,-0.076,12.452,359.992
0.7514,128.181881,37.92567,6006.7310904000005,-0.083,12.621,359.991
0.7682,128.181881,37.925715,6007.1123952,-0.09,12.788,359.991
0.7848,128.181881,37.92576,6007.5055872,-0.099,12.954,359.99
0.8016,128.181881,37.925805,6007.9109712,-0.108,13.118,359.989
0.8183,128.181881,37.92585,6008.328242400001,-0.118,13.281,359.988
0.835,128.181881,37.925894,6008.757705600001,-0.129,13.442,359.987
0.8517,128.181881,37.925939,6009.199056,-0.14,13.602,359.986
0.8684,128.181881,37.925984,6009.6525984,-0.153,13.761,359.984
0.8851,128.181881,37.926028,6010.118332800001,-0.167,13.919,359.983
0.9018,128.181881,37.926073,6010.595954400001,-0.183,14.076,359.981
0.9185,128.181881,37.926118,6011.085768,-0.199,14.233,359.979
0.9352,128.181881,37.926162,6011.588078400001,-0.218,14.388,359.978
0.9519,128.181881,37.926207,6012.102276,-0.238,14.544,359.975
0.9686,128.181881,37.926252,6012.628665600001,-0.259,14.698,359.973
0.9853,128.181881,37.926296,6013.167247200001,-0.283,14.852,359.971
1.002,128.181881,37.926341,6013.7180208,-0.309,15.006,359.968
1.0187,128.181881,37.926385,6014.2812912,-0.337,15.159,359.965
1.0353,128.181881,37.92643,6014.8564488,-0.368,15.312,359.962
1.0521,128.181881,37.926474,6015.4441032,-0.401,15.464,359.958
1.0688,128.181881,37.926519,6016.0439496,-0.437,15.616,359.954
1.0855,128.181881,37.926563,6016.655988,-0.477,15.768,359.95
1.1022,128.181881,37.926608,6017.2802184,-0.521,15.92,359.945
1.1189,128.181881,37.926652,6017.9169456,-0.568,16.072,359.94
1.1356,128.181881,37.926696,6018.565864800001,-0.62,16.224,359.935
1.1522,128.181881,37.926741,6019.2272808,-0.676,16.375,359.929
1.169,128.181881,37.926785,6019.9008888,-0.738,16.526,359.922
1.1857,128.181881,37.926829,6020.5869936,-0.805,16.678,359.915
1.2024,128.181881,37.926874,6021.2855952,-0.878,16.829,359.907
1.2191,128.181881,37.926918,6021.9966936,-0.958,16.98,359.899
1.2358,128.181881,37.926962,6022.719984000001,-1.045,17.132,359.889
1.2525,128.181881,37.927006,6023.4557712,-1.14,17.283,359.879
1.2691,128.181881,37.92705,6024.204360000001,-1.244,17.434,359.868
1.2859,128.181881,37.927095,6024.9651408,-1.357,17.586,359.855
1.3026,128.181881,37.927139,6025.7387232,-1.48,17.738,359.842
1.3193,128.181881,37.927183,6026.5248024,-1.615,17.889,359.827
1.3359,128.18188,37.927227,6027.3236832,-1.762,18.041,359.811
1.3527,128.18188,37.927271,6028.135365600001,-1.922,18.194,359.794
1.3694,128.18188,37.927315,6028.9598496,-2.097,18.346,359.775
1.386,128.18188,37.927359,6029.7971352,-2.288,18.499,359.754
1.4028,128.18188,37.927403,6030.6472224,-2.497,18.651,359.732
1.4195,128.18188,37.927447,6031.510416,-2.726,18.804,359.709
1.4362,128.18188,37.927491,6032.386411200001,-2.976,18.958,359.684
1.4528,128.18188,37.927534,6033.2758176,-3.25,19.112,359.657
1.4696,128.18188,37.927578,6034.1783304,-3.549,19.266,359.629
1.4863,128.18188,37.927622,6035.0942544,-3.875,19.42,359.599
1.5029,128.18188,37.927666,6036.0235896,-4.232,19.575,359.566
1.5197,128.18188,37.927709,6036.9666408,-4.622,19.73,359.531
1.5364,128.181879,37.927753,6037.923408,-5.047,19.886,359.494
1.5531,128.181879,37.927797,6038.8938912,-5.512,20.042,359.453
1.5697,128.181879,37.92784,6039.8783952,-6.019,20.199,359.409
1.5865,128.181879,37.927884,6040.876920000001,-6.573,20.356,359.362
1.6032,128.181879,37.927927,6041.8900752,-7.177,20.513,359.311
1.6198,128.181878,37.927971,6042.917556,-7.838,20.671,359.256
1.6366,128.181878,37.928014,6043.959972000001,-8.559,20.829,359.195
1.6533,128.181878,37.928058,6045.017323200001,-9.346,20.988,359.13
1.67,128.181877,37.928101,6046.089609600001,-10.205,21.147,359.059
1.6867,128.181877,37.928144,6047.1768312,-11.137,21.306,358.982
1.7034,128.181877,37.928187,6048.278988000001,-12.141,21.466,358.9
1.7201,128.181876,37.928231,6049.395470400001,-13.213,21.626,358.812
1.7368,128.181876,37.928274,6050.526888,-14.354,21.786,358.719
1.7535,128.181875,37.928317,6051.6723264,-15.562,21.946,358.619
1.7702,128.181875,37.92836,6052.8323952,-16.834,22.106,358.513
1.7869,128.181874,37.928403,6054.0064848,-18.17,22.265,358.4
1.8036,128.181873,37.928446,6055.1942904,-19.569,22.423,358.279
1.8203,128.181873,37.928489,6056.3961168,-21.028,22.58,358.151
1.837,128.181872,37.928531,6057.611659200001,-22.547,22.736,358.015
1.8537,128.181871,37.928574,6058.840308,-24.125,22.889,357.87
1.8704,128.18187,37.928617,6060.082368,-25.76,23.041,357.717
1.8871,128.181869,37.92866,6061.3372296,-27.454,23.19,357.556
1.9038,128.181868,37.928702,6062.604892800001,-29.204,23.336,357.385
1.9205,128.181867,37.928745,6063.8850528,-31.01,23.479,357.205
1.9372,128.181865,37.928787,6065.1771,-32.872,23.618,357.016
1.9539,128.181864,37.92883,6066.4810344,-34.788,23.754,356.818
1.9706,128.181863,37.928872,6067.796551200001,-36.759,23.884,356.609
1.9873,128.181861,37.928915,6069.1230408,-38.785,24.01,356.391
2.004,128.181859,37.928957,6070.4605032,-40.864,24.13,356.162
2.0207,128.181857,37.928999,6071.808024000001,-42.996,24.244,355.923
2.0374,128.181855,37.929042,6073.1656032,-45.182,24.352,355.674
2.0541,128.181853,37.929084,6074.5326312,-47.421,24.452,355.414
2.0707,128.181851,37.929126,6075.9088032,-49.712,24.544,355.144
2.0875,128.181849,37.929168,6077.2932048,-52.056,24.627,354.863
2.1042,128.181846,37.92921,6078.6861408,-54.452,24.702,354.572
2.1208,128.181844,37.929252,6080.0860872,-56.901,24.766,354.271
2.1376,128.181841,37.929294,6081.4933488,-59.402,24.819,353.959
2.1543,128.181838,37.929336,6082.907011200001,-61.956,24.861,353.637
2.171,128.181835,37.929378,6084.3267696,-64.561,24.888,353.304
2.1877,128.181832,37.92942,6085.7517096,-67.217,24.9,352.961
2.2044,128.181829,37.929462,6087.1815264,-69.922,24.896,352.609
2.2211,128.181825,37.929504,6088.615610400001,-72.677,24.873,352.247
2.2378,128.181821,37.929546,6090.053047200001,-75.48,24.83,351.876
2.2544,128.181818,37.929588,6091.493532,-78.33,24.765,351.497
2.2712,128.181814,37.929629,6092.936150400001,-81.227,24.678,351.112
2.2879,128.18181,37.929671,6094.380597600001,-84.168,24.566,350.722
2.3045,128.181805,37.929713,6095.826264,-87.153,24.43,350.328
2.3213,128.181801,37.929754,6097.2719304,-90.181,24.266,349.933
2.338,128.181796,37.929796,6098.717596800001,-93.25,24.076,349.538
2.3546,128.181792,37.929838,6100.162044,-96.358,23.857,349.145
2.3714,128.181787,37.929879,6101.6049672,-99.505,23.61,348.758
2.3881,128.181782,37.929921,6103.045756800001,-102.688,23.335,348.378
2.4048,128.181776,37.929963,6104.4834984,-105.906,23.031,348.008
2.4215,128.181771,37.930004,6105.9175824,-109.154,22.699,347.65
2.4382,128.181766,37.930046,6107.347704,-112.428,22.341,347.306
2.4549,128.18176,37.930087,6108.7732536,-115.722,21.957,346.98
2.4716,128.181754,37.930129,6110.1933168,-119.032,21.548,346.672
2.4882,128.181748,37.930171,6111.6075888,-122.355,21.117,346.386
2.505,128.181742,37.930212,6113.0154600000005,-125.688,20.664,346.121
2.5217,128.181736,37.930254,6114.4166256,-129.028,20.192,345.881
2.5383,128.18173,37.930295,6115.810476,-132.372,19.703,345.666
2.5551,128.181723,37.930337,6117.196706400001,-135.718,19.199,345.478
2.5718,128.181717,37.930378,6118.5744024,-139.066,18.681,345.317
2.5884,128.18171,37.93042,6119.943564,-142.414,18.153,345.183
2.6052,128.181703,37.930462,6121.3035816,-145.761,17.615,345.078
2.6219,128.181697,37.930503,6122.654150400001,-149.105,17.072,345.0
2.6386,128.18169,37.930545,6123.9955752,-152.405,16.525,344.949
2.6553,128.181683,37.930586,6125.327856000001,-155.601,15.979,344.917
2.6719,128.181676,37.930628,6126.6509928000005,-158.647,15.437,344.902
2.6887,128.181669,37.93067,6127.964985600001,-161.543,14.9,344.901
2.7054,128.181662,37.930712,6129.270444,-164.295,14.37,344.913
2.722,128.181654,37.930753,6130.5670632,-166.907,13.847,344.939
2.7388,128.181647,37.930795,6131.855148,-169.385,13.331,344.976
2.7555,128.18164,37.930837,6133.1350032,-171.735,12.824,345.024
2.7721,128.181633,37.930879,6134.406933600001,-173.96,12.325,345.082
2.7889,128.181625,37.93092,6135.6709392,-176.064,11.836,345.15
2.8056,128.181618,37.930962,6136.927324800001,-178.053,11.356,345.227
2.8222,128.181611,37.931004,6138.1760904,-179.931,10.886,345.311
2.839,128.181603,37.931046,6139.4178456,178.3,10.426,345.405
2.8557,128.181596,37.931088,6140.6525904,176.639,9.976,345.507
2.8724,128.181588,37.93113,6141.8809344,175.082,9.536,345.618
2.8891,128.181581,37.931172,6143.1013536,173.63,9.107,345.74
2.9057,128.181573,37.931214,6144.3141528,172.269,8.689,345.867
2.9225,128.181566,37.931256,6145.519332000001,170.998,8.281,345.998
2.9392,128.181558,37.931298,6146.7162816,169.814,7.884,346.135
2.9558,128.181551,37.93134,6147.905001600001,168.718,7.497,346.277
2.9726,128.181543,37.931382,6149.085492,167.707,7.122,346.425
2.9893,128.181536,37.931424,6150.256838400001,166.778,6.758,346.579
3.0059,128.181528,37.931466,6151.4193456,165.927,6.405,346.738
3.0227,128.181521,37.931508,6152.5727088,165.153,6.062,346.9
3.0394,128.181513,37.93155,6153.716928000001,164.451,5.731,347.066
3.056,128.181505,37.931593,6154.8513936,163.82,5.41,347.235
3.0728,128.181498,37.931635,6155.976105600001,163.257,5.099,347.405
3.0895,128.18149,37.931677,6157.091064,162.758,4.798,347.577
3.1062,128.181483,37.93172,6158.1962688,162.322,4.506,347.749
3.1229,128.181475,37.931762,6159.290805600001,161.947,4.224,347.92
3.1395,128.181468,37.931804,6160.374674400001,161.628,3.95,348.092
3.1563,128.18146,37.931847,6161.447570400001,161.359,3.686,348.264
3.173,128.181452,37.931889,6162.508884000001,161.135,3.43,348.435
3.1896,128.181445,37.931931,6163.55892,160.951,3.182,348.606
3.2064,128.181437,37.931974,6164.596764000001,160.805,2.942,348.776
3.2231,128.18143,37.932016,6165.6227208,160.691,2.709,348.945
3.2397,128.181422,37.932059,6166.6361808,160.607,2.484,349.113
3.2565,128.181415,37.932102,6167.637144,160.55,2.265,349.28
3.2732,128.181407,37.932144,6168.625000800001,160.516,2.052,349.444
3.2899,128.1814,37.932187,6169.600360800001,160.503,1.844,349.608
3.3066,128.181393,37.932229,6170.562309600001,160.508,1.642,349.768
3.3233,128.181385,37.932272,6171.510847200001,160.53,1.444,349.926
3.34,128.181378,37.932315,6172.445973600001,160.567,1.251,350.081
3.3567,128.18137,37.932357,6173.3676888,160.616,1.061,350.233
3.3734,128.181363,37.9324,6174.275383200001,160.675,0.874,350.381
3.3901,128.181356,37.932443,6175.1693616,160.745,0.69,350.525
3.4068,128.181349,37.932486,6176.0493192,160.821,0.508,350.664
3.4235,128.181341,37.932528,6176.915256,160.905,0.328,350.798
3.4402,128.181334,37.932571,6177.7668672,160.995,0.15,350.928
3.4569,128.181327,37.932614,6178.6041528,161.091,-0.026,351.055
3.4736,128.18132,37.932657,6179.426808,161.194,-0.201,351.178
3.4903,128.181313,37.9327,6180.235137600001,161.302,-0.374,351.298
3.507,128.181306,37.932743,6181.029141600001,161.417,-0.546,351.415
3.5237,128.181299,37.932786,6181.807905600001,161.536,-0.717,351.53
3.5404,128.181292,37.932829,6182.572344,161.66,-0.887,351.642
3.5571,128.181285,37.932872,6183.321542400001,161.788,-1.055,351.753
3.5738,128.181278,37.932915,6184.056110400001,161.919,-1.223,351.861
3.5905,128.181271,37.932958,6184.775438400001,162.053,-1.391,351.966
3.6072,128.181264,37.933001,6185.4798312,162.189,-1.558,352.07
3.6239,128.181257,37.933044,6186.168984000001,162.326,-1.724,352.171
3.6406,128.18125,37.933087,6186.843201600001,162.465,-1.89,352.271
3.6573,128.181243,37.93313,6187.501874400001,162.604,-2.056,352.368
3.674,128.181237,37.933173,6188.1453071999995,162.744,-2.222,352.464
3.6907,128.18123,37.933217,6188.7735,162.884,-2.387,352.558
3.7074,128.181223,37.93326,6189.386148,163.024,-2.553,352.649
3.7241,128.181216,37.933303,6189.983556000001,163.164,-2.719,352.739
3.7408,128.18121,37.933346,6190.5654192,163.304,-2.885,352.827
3.7575,128.181203,37.933389,6191.131737600001,163.443,-3.051,352.914
3.7742,128.181197,37.933433,6191.682511200001,163.581,-3.217,352.999
3.7909,128.18119,37.933476,6192.2174352,163.718,-3.384,353.082
3.8076,128.181184,37.933519,6192.738643199999,163.918,-3.553,353.158
3.8243,128.181177,37.933562,6193.2452207999995,164.179,-3.723,353.228
3.841,128.181171,37.933606,6193.7377776,164.497,-3.894,353.293
3.8577,128.181164,37.933649,6194.216923200001,164.864,-4.065,353.355
3.8744,128.181158,37.933692,6194.6826576,165.274,-4.236,353.415
3.8911,128.181152,37.933736,6195.133152000001,165.718,-4.407,353.473
3.9078,128.181145,37.933779,6195.5687112000005,166.186,-4.577,353.53
3.9245,128.181139,37.933823,6195.9893352,166.672,-4.746,353.586
3.9412,128.181133,37.933866,6196.394109600001,167.168,-4.915,353.641
3.9579,128.181126,37.933909,6196.7833392,167.668,-5.083,353.694
3.9746,128.18112,37.933953,6197.1561096000005,168.165,-5.25,353.745
3.9913,128.181114,37.933996,6197.5130304,168.654,-5.417,353.794
4.008,128.181108,37.93404,6197.8531872,169.133,-5.585,353.842
4.0247,128.181102,37.934083,6198.1768848,169.597,-5.752,353.887
4.0414,128.181095,37.934127,6198.4838184,170.043,-5.92,353.931
4.058,128.181089,37.93417,6198.773988000001,170.472,-6.088,353.972
4.0748,128.181083,37.934214,6199.0470888,170.88,-6.258,354.011
4.0915,128.181077,37.934257,6199.3034256,171.267,-6.428,354.047
4.1082,128.181071,37.934301,6199.542693599999,171.633,-6.6,354.081
4.1249,128.181065,37.934344,6199.764892800001,171.979,-6.773,354.114
4.1415,128.181059,37.934388,6199.970328,172.304,-6.947,354.144
4.1583,128.181053,37.934431,6200.1583896,172.609,-7.122,354.172
4.175,128.181047,37.934475,6200.3296872,172.897,-7.298,354.199
4.1917,128.181041,37.934518,6200.483916,173.168,-7.476,354.225
4.2084,128.181035,37.934562,6200.621076,173.423,-7.654,354.251
4.2251,128.181029,37.934605,6200.741472,173.662,-7.834,354.276
4.2417,128.181023,37.934649,6200.8444944,173.886,-8.015,354.299
4.2585,128.181018,37.934692,6200.9310576,174.095,-8.197,354.322
4.2752,128.181012,37.934736,6201.000247200001,174.29,-8.38,354.343
4.2919,128.181006,37.934779,6201.0526728,174.473,-8.564,354.362
4.3086,128.181,37.934823,6201.088334399999,174.644,-8.749,354.381
4.3252,128.180994,37.934866,6201.1069272,174.804,-8.935,354.398
4.342,128.180988,37.93491,6201.1087560000005,174.954,-9.122,354.414
4.3587,128.180983,37.934954,6201.0938208,175.094,-9.309,354.429
4.3754,128.180977,37.934997,6201.0618168,175.227,-9.498,354.443
4.3921,128.180971,37.935041,6201.0133536,175.351,-9.686,354.456
4.4088,128.180965,37.935084,6200.9478216,175.469,-9.876,354.468
4.4254,128.180959,37.935128,6200.8655256,175.58,-10.066,354.48
4.4422,128.180954,37.935171,6200.7667704000005,175.686,-10.257,354.49
4.4589,128.180948,37.935215,6200.650946400001,175.786,-10.448,354.5
4.4756,128.180942,37.935258,6200.518358400001,175.881,-10.639,354.51
4.4923,128.180937,37.935302,6200.369311200001,175.971,-10.831,354.519
4.5089,128.180931,37.935345,6200.203195200001,176.058,-11.023,354.527
4.5256,128.180925,37.935389,6200.020620000001,176.14,-11.215,354.535
4.5424,128.18092,37.935432,6199.8212808,176.22,-11.408,354.542
4.5591,128.180914,37.935476,6199.6051776,176.296,-11.601,354.549
4.5758,128.180908,37.935519,6199.372310400001,176.369,-11.794,354.555
4.5925,128.180903,37.935563,6199.122679200001,176.439,-11.988,354.561
4.6091,128.180897,37.935606,6198.856588799999,176.507,-12.181,354.567
4.6259,128.180891,37.93565,6198.5734296,176.572,-12.375,354.572
4.6426,128.180886,37.935693,6198.273811200001,176.635,-12.569,354.577
4.6593,128.18088,37.935737,6197.957733600001,176.696,-12.763,354.581
4.676,128.180875,37.93578,6197.624587200001,176.755,-12.957,354.586
4.6927,128.180869,37.935824,6197.2749816000005,176.812,-13.151,354.59
4.7093,128.180863,37.935867,6196.908612,176.867,-13.345,354.593
4.7261,128.180858,37.93591,6196.525478400001,176.921,-13.54,354.597
4.7428,128.180852,37.935954,6196.1258856,176.973,-13.734,354.6
4.7595,128.180847,37.935997,6195.709528800001,177.024,-13.928,354.603
4.7762,128.180841,37.936041,6195.276408,177.073,-14.123,354.606
4.7928,128.180836,37.936084,6194.826828,177.121,-14.317,354.609
4.8096,128.18083,37.936127,6194.360484000001,177.167,-14.512,354.611
4.8263,128.180825,37.936171,6193.877376,177.213,-14.707,354.613
4.843,128.180819,37.936214,6193.3778088,177.257,-14.901,354.615
4.8597,128.180814,37.936258,6192.8614776,177.3,-15.096,354.617
4.8764,128.180808,37.936301,6192.328687200001,177.342,-15.29,354.619
4.893,128.180803,37.936344,6191.778828,177.383,-15.485,354.621
4.9098,128.180797,37.936387,6191.212814400001,177.423,-15.679,354.622
4.9265,128.180792,37.936431,6190.629732,177.462,-15.874,354.623
4.9432,128.180787,37.936474,6190.030495200001,177.5,-16.068,354.625
4.9599,128.180781,37.936517,6189.4141896,177.537,-16.263,354.626
4.9765,128.180776,37.93656,6188.7814248,177.573,-16.457,354.627
4.9932,128.18077,37.936604,6188.132200800001,177.608,-16.651,354.627
5.01,128.180765,37.936647,6187.4662128,177.643,-16.846,354.628
5.0267,128.180759,37.93669,6186.7834608,177.676,-17.04,354.629
5.0434,128.180754,37.936733,6186.0842496000005,177.709,-17.234,354.629
5.0601,128.180749,37.936776,6185.368579200001,177.741,-17.429,354.63
5.0767,128.180743,37.93682,6184.6361448,177.773,-17.623,354.63
5.0935,128.180738,37.936863,6183.887251200001,177.803,-17.817,354.63
5.1102,128.180733,37.936906,6183.1215936,177.833,-18.011,354.63
5.1269,128.180727,37.936949,6182.3394768,177.862,-18.205,354.63
5.1436,128.180722,37.936992,6181.540900800001,177.891,-18.399,354.63
5.1602,128.180717,37.937035,6180.7255608000005,177.919,-18.593,354.63
5.1769,128.180711,37.937078,6179.893761599999,177.946,-18.787,354.63
5.1937,128.180706,37.937121,6179.0455032,177.972,-18.981,354.63
5.2104,128.180701,37.937164,6178.1804808,177.998,-19.175,354.63
5.2271,128.180695,37.937207,6177.2989992,178.024,-19.368,354.629
5.2438,128.18069,37.93725,6176.4010584,178.048,-19.562,354.629
5.2604,128.180685,37.937293,6175.4866584,178.073,-19.756,354.628
5.2772,128.18068,37.937336,6174.5557992,178.096,-19.949,354.628
5.2939,128.180674,37.937378,6173.608176,178.119,-20.143,354.627
5.3106,128.180669,37.937421,6172.6440936,178.142,-20.336,354.627
5.3273,128.180664,37.937464,6171.663552000001,178.164,-20.53,354.626
5.3439,128.180659,37.937507,6170.666551200001,178.185,-20.723,354.626
5.3606,128.180653,37.93755,6169.653091200001,178.206,-20.916,354.625
5.3774,128.180648,37.937592,6168.6231720000005,178.226,-21.11,354.624
5.3941,128.180643,37.937635,6167.5767936,178.246,-21.303,354.623
5.4108,128.180638,37.937678,6166.513956000001,178.266,-21.496,354.623
5.4275,128.180632,37.93772,6165.434964,178.285,-21.689,354.622
5.4441,128.180627,37.937763,6164.339208,178.303,-21.882,354.621
5.4609,128.180622,37.937806,6163.2269928000005,178.321,-22.074,354.62
5.4776,128.180617,37.937848,6162.098318400001,178.339,-22.267,354.619
5.4943,128.180612,37.937891,6160.9534896,178.356,-22.46,354.618
5.511,128.180607,37.937933,6159.792201600001,178.373,-22.652,354.618
5.5277,128.180601,37.937976,6158.6144544,178.389,-22.845,354.617
5.5443,128.180596,37.938018,6157.420247999999,178.405,-23.037,354.616
5.5611,128.180591,37.93806,6156.209887200001,178.42,-23.23,354.615
5.5778,128.180586,37.938103,6154.9830672,178.436,-23.422,354.614
5.5945,128.180581,37.938145,6153.739788000001,178.45,-23.614,354.613
5.6112,128.180576,37.938188,6152.480354400001,178.465,-23.806,354.612
5.6278,128.180571,37.93823,6151.2047664,178.478,-23.998,354.611
5.6445,128.180565,37.938272,6149.912414400001,178.492,-24.19,354.61
5.6613,128.18056,37.938314,6148.603908,178.505,-24.382,354.609
5.678,128.180555,37.938356,6147.279247200001,178.518,-24.574,354.608
5.6947,128.18055,37.938399,6145.938432,178.53,-24.766,354.607
5.7114,128.180545,37.938441,6144.5811576,178.542,-24.957,354.606
5.728,128.18054,37.938483,6143.207424,178.554,-25.149,354.605
5.7448,128.180535,37.938525,6141.8178408,178.566,-25.34,354.604
5.7615,128.18053,37.938567,6140.4117983999995,178.577,-25.532,354.603
5.7782,128.180525,37.938609,6138.989601600001,178.587,-25.723,354.602
5.7949,128.18052,37.938651,6137.551250400001,178.598,-25.914,354.602
5.8115,128.180515,37.938693,6136.09644,178.608,-26.105,354.601
5.8282,128.18051,37.938735,6134.62578,178.617,-26.297,354.6
5.845,128.180505,37.938776,6133.138660800001,178.627,-26.487,354.599
5.8617,128.1805,37.938818,6131.635692000001,178.636,-26.678,354.598
5.8784,128.180495,37.93886,6130.116264,178.645,-26.869,354.597
5.8951,128.18049,37.938902,6128.5809864,178.653,-27.06,354.596
5.9117,128.180485,37.938943,6127.0292496,178.662,-27.25,354.595
5.9285,128.18048,37.938985,6125.4616632,178.67,-27.441,354.595
5.9452,128.180475,37.939026,6123.8779224,178.677,-27.631,354.594
5.9619,128.18047,37.939068,6122.2780272,178.685,-27.822,354.593
5.9786,128.180465,37.93911,6120.662282400001,178.692,-28.012,354.592
5.9952,128.18046,37.939151,6119.030383200001,178.698,-28.202,354.592
6.0119,128.180455,37.939192,6117.3823296,178.705,-28.392,354.591
6.0287,128.18045,37.939234,6115.7184264,178.711,-28.582,354.59
6.0454,128.180445,37.939275,6114.0383688,178.717,-28.772,354.589
6.0621,128.18044,37.939316,6112.3424616,178.723,-28.962,354.589
6.0788,128.180436,37.939358,6110.6304,178.729,-29.151,354.588
6.0954,128.180431,37.939399,6108.902488799999,178.734,-29.341,354.588
6.1121,128.180426,37.93944,6107.1584232000005,178.739,-29.53,354.587
6.1289,128.180421,37.939481,6105.3988128,178.744,-29.72,354.587
6.1456,128.180416,37.939522,6103.6230479999995,178.748,-29.909,354.586
6.1623,128.180411,37.939563,6101.8311288,178.752,-30.098,354.586
6.179,128.180406,37.939604,6100.023664800001,178.756,-30.287,354.585
6.1956,128.180401,37.939645,6098.200351200001,178.76,-30.476,354.585
6.2124,128.180397,37.939686,6096.360883200001,178.764,-30.665,354.584
6.2291,128.180392,37.939727,6094.505870400001,178.767,-30.854,354.584
6.2458,128.180387,37.939768,6092.635008,178.77,-31.043,354.584
6.2625,128.180382,37.939808,6090.748296000001,178.773,-31.231,354.583
6.2791,128.180377,37.939849,6088.8457344,178.776,-31.42,354.583
6.2958,128.180373,37.93989,6086.9273232000005,178.779,-31.608,354.583
6.3126,128.180368,37.93993,6084.9930624,178.781,-31.797,354.583
6.3293,128.180363,37.939971,6083.043256800001,178.783,-31.985,354.582
6.346,128.180358,37.940011,6081.077906400001,178.785,-32.173,354.582
6.3627,128.180354,37.940052,6079.096401600001,178.787,-32.361,354.582
6.3793,128.180349,37.940092,6077.099656800001,178.788,-32.549,354.582
6.3961,128.180344,37.940132,6075.0867576,178.79,-32.737,354.582
6.4128,128.180339,37.940173,6073.0586184,178.791,-32.925,354.582
6.4295,128.180335,37.940213,6071.014629599999,178.792,-33.113,354.582
6.4462,128.18033,37.940253,6068.955096000001,178.793,-33.3,354.582
6.4628,128.180325,37.940293,6066.8800176,178.793,-33.488,354.582
6.4795,128.180321,37.940333,6064.7890896,178.794,-33.675,354.583
6.4963,128.180316,37.940373,6062.6829216,178.794,-33.862,354.583
6.513,128.180311,37.940413,6060.560904,178.794,-34.049,354.583
6.5297,128.180307,37.940453,6058.423341600001,178.794,-34.236,354.583
6.5464,128.180302,37.940493,6056.2705392,178.794,-34.423,354.584
6.5631,128.180297,37.940533,6054.102192,178.793,-34.61,354.584
6.5798,128.180293,37.940573,6051.9179952,178.793,-34.797,354.584
6.5965,128.180288,37.940612,6049.7188632,178.792,-34.984,354.585
6.6132,128.180283,37.940652,6047.503881600001,178.791,-35.17,354.585
6.6299,128.180279,37.940691,6045.273660000001,178.79,-35.357,354.586
6.6466,128.180274,37.940731,6043.0278935999995,178.789,-35.543,354.586
6.6633,128.18027,37.94077,6040.7668872,178.788,-35.73,354.587
6.68,128.180265,37.94081,6038.490640800001,178.786,-35.916,354.588
6.6967,128.18026,37.940849,6036.1988496,178.785,-36.102,354.588
6.7134,128.180256,37.940888,6033.8918184,178.783,-36.288,354.589
6.7301,128.180251,37.940928,6031.569242400001,178.781,-36.474,354.59
6.7468,128.180247,37.940967,6029.2317312000005,178.779,-36.659,354.591
6.7635,128.180242,37.941006,6026.8786752,178.777,-36.845,354.591
6.7802,128.180238,37.941045,6024.510684000001,178.775,-37.031,354.592
6.7969,128.180233,37.941084,6022.127148,178.773,-37.216,354.593
6.8136,128.180229,37.941123,6019.7286768,178.77,-37.402,354.594
6.8303,128.180224,37.941162,6017.314660800001,178.767,-37.587,354.595
6.847,128.18022,37.9412,6014.8857096,178.765,-37.772,354.596
6.8637,128.180215,37.941239,6012.441823200001,178.762,-37.957,354.597
6.8804,128.180211,37.941278,6009.982392000001,178.759,-38.142,354.599
6.8971,128.180206,37.941316,6007.5080256,178.756,-38.327,354.6
6.9138,128.180202,37.941355,6005.0187240000005,178.753,-38.512,354.601
6.9305,128.180197,37.941393,6002.5141824,178.749,-38.696,354.602
6.9472,128.180193,37.941432,5999.994705600001,178.746,-38.881,354.604
6.9639,128.180189,37.94147,5997.4602936,178.742,-39.066,354.605
6.9806,128.180184,37.941508,5994.9106416,178.739,-39.25,354.607
6.9973,128.18018,37.941547,5992.346359200001,178.735,-39.434,354.608
7.014,128.180175,37.941585,5989.7668368,178.731,-39.618,354.61
7.0307,128.180171,37.941623,5987.172379200001,178.727,-39.803,354.611
7.0474,128.180167,37.941661,5984.5632912,178.723,-39.986,354.613
7.0641,128.180162,37.941699,5981.9389632,178.719,-40.17,354.615
7.0808,128.180158,37.941737,5979.3000048,178.715,-40.354,354.616
7.0975,128.180154,37.941775,5976.646111200001,178.711,-40.538,354.618
7.1142,128.180149,37.941812,5973.977587200001,178.707,-40.721,354.62
7.1309,128.180145,37.94185,5971.2941280000005,178.702,-40.905,354.622
7.1476,128.180141,37.941888,5968.595733600001,178.698,-41.088,354.624
7.1643,128.180137,37.941925,5965.8827088,178.693,-41.272,354.626
7.181,128.180132,37.941963,5963.1550536,178.688,-41.455,354.628
7.1977,128.180128,37.942,5960.4124632,178.684,-41.638,354.63
7.2144,128.180124,37.942037,5957.655547200001,178.679,-41.821,354.632
7.2311,128.18012,37.942075,5954.883696000001,178.674,-42.004,354.634
7.2478,128.180115,37.942112,5952.097214400001,178.669,-42.187,354.636
7.2645,128.180111,37.942149,5949.2964071999995,178.664,-42.369,354.638
7.2812,128.180107,37.942186,5946.4806648,178.659,-42.552,354.641
7.2979,128.180103,37.942223,5943.650596800001,178.654,-42.734,354.643
7.3146,128.180099,37.94226,5940.8058984,178.648,-42.917,354.645
7.3313,128.180094,37.942297,5937.9468744000005,178.643,-43.099,354.648
7.348,128.18009,37.942333,5935.0729152,178.638,-43.281,354.65
7.3647,128.180086,37.94237,5932.1849352,178.632,-43.463,354.653
7.3814,128.180082,37.942407,5929.2823248,178.627,-43.645,354.655
7.3981,128.180078,37.942443,5926.3653888,178.621,-43.827,354.658
7.4148,128.180074,37.942479,5923.4338224,178.616,-44.009,354.661
7.4315,128.18007,37.942516,5920.4882352,178.61,-44.191,354.664
7.4482,128.180066,37.942552,5917.528017600001,178.605,-44.372,354.666
7.4649,128.180061,37.942588,5914.5537792000005,178.599,-44.554,354.669
7.4816,128.180057,37.942625,5911.5649104,178.593,-44.735,354.672
7.4983,128.180053,37.942661,5908.5620208,178.587,-44.916,354.675
7.515,128.180049,37.942697,5905.5448056000005,178.581,-45.098,354.678
7.5317,128.180045,37.942732,5902.513264800001,178.575,-45.279,354.681
7.5484,128.180041,37.942768,5899.4677032,178.569,-45.46,354.684
7.5651,128.180037,37.942804,5896.4081208,178.563,-45.641,354.687
7.5818,128.180033,37.94284,5893.3342128,178.557,-45.822,354.691
7.5985,128.180029,37.942875,5890.245979200001,178.551,-46.002,354.694
7.6152,128.180025,37.942911,5887.1440296,178.545,-46.183,354.697
7.6319,128.180021,37.942946,5884.0277544,178.539,-46.363,354.7
7.6486,128.180017,37.942982,5880.8974584,178.533,-46.544,354.704
7.6653,128.180013,37.943017,5877.753446400001,178.527,-46.724,354.707
7.682,128.18001,37.943052,5874.5951088,178.52,-46.904,354.711
7.6987,128.180006,37.943087,5871.423055200001,178.514,-47.085,354.714
7.7154,128.180002,37.943122,5868.2369808,178.508,-47.265,354.718
7.7321,128.179998,37.943157,5865.0368856000005,178.501,-47.445,354.722
7.7488,128.179994,37.943192,5861.823074400001,178.495,-47.624,354.725
7.7655,128.17999,37.943227,5858.5955472000005,178.489,-47.804,354.729
7.7822,128.179986,37.943262,5855.3539992000005,178.482,-47.984,354.733
7.7989,128.179982,37.943296,5852.0987352,178.476,-48.163,354.737
7.8156,128.179979,37.943331,5848.8297552,178.469,-48.343,354.741
7.8323,128.179975,37.943365,5845.5467544,178.463,-48.522,354.745
7.849,128.179971,37.943399,5842.250342400001,178.456,-48.702,354.749
7.8657,128.179967,37.943434,5838.9402144000005,178.45,-48.881,354.753
7.8824,128.179964,37.943468,5835.616370400001,178.443,-49.06,354.757
7.8991,128.17996,37.943502,5832.278810400001,178.436,-49.239,354.761
7.9158,128.179956,37.943536,5828.9278392,178.43,-49.418,354.765
7.9325,128.179952,37.94357,5825.563152000001,178.423,-49.597,354.77
7.9492,128.179949,37.943604,5822.1850536,178.417,-49.775,354.774
7.9659,128.179945,37.943638,5818.7932392,178.41,-49.954,354.778
7.9826,128.179941,37.943671,5815.388318400001,178.403,-50.132,354.783
7.9993,128.179938,37.943705,5811.9696816000005,178.397,-50.311,354.787
8.016,128.179934,37.943738,5808.537633600001,178.39,-50.489,354.792
8.0327,128.17993,37.943772,5805.092174400001,178.383,-50.667,354.796
8.0494,128.179927,37.943805,5801.633304,178.376,-50.846,354.801
8.0661,128.179923,37.943838,5798.161022400001,178.37,-51.024,354.806
8.0828,128.179919,37.943872,5794.6756344,178.363,-51.202,354.81
8.0994,128.179916,37.943905,5791.1768352,178.356,-51.38,354.815
8.1161,128.179912,37.943938,5787.6649296,178.349,-51.557,354.82
8.1329,128.179909,37.94397,5784.1396128,178.342,-51.735,354.825
8.1496,128.179905,37.944003,5780.6011896,178.336,-51.913,354.83
8.1663,128.179902,37.944036,5777.049660000001,178.329,-52.09,354.835
8.183,128.179898,37.944069,5773.4850240000005,178.322,-52.268,354.84
8.1997,128.179895,37.944101,5769.9072816,178.315,-52.445,354.845
8.2164,128.179891,37.944133,5766.316128,178.308,-52.622,354.851
8.2331,128.179888,37.944166,5762.7121728,178.301,-52.799,354.856
8.2498,128.179884,37.944198,5759.095416,178.295,-52.976,354.861
8.2665,128.179881,37.94423,5755.4655528,178.288,-53.153,354.867
8.2831,128.179877,37.944262,5751.822583200001,178.281,-53.33,354.872
8.2998,128.179874,37.944294,5748.1668119999995,178.274,-53.507,354.877
8.3166,128.17987,37.944326,5744.497934399999,178.267,-53.684,354.883
8.3333,128.179867,37.944358,5740.8162552,178.26,-53.86,354.889
8.35,128.179864,37.944389,5737.1220792,178.253,-54.037,354.894
8.3667,128.17986,37.944421,5733.414796800001,178.246,-54.213,354.9
8.3834,128.179857,37.944452,5729.6947128,178.239,-54.39,354.906
8.4001,128.179854,37.944484,5725.962132000001,178.233,-54.566,354.912
8.4168,128.17985,37.944515,5722.2167496,178.226,-54.742,354.917
8.4335,128.179847,37.944546,5718.458565600001,178.219,-54.918,354.923
8.4502,128.179844,37.944577,5714.6878848,178.212,-55.094,354.929
8.4668,128.17984,37.944608,5710.9044023999995,178.205,-55.27,354.935
8.4835,128.179837,37.944639,5707.1084232,178.198,-55.446,354.942
8.5003,128.179834,37.94467,5703.299947200001,178.191,-55.622,354.948
8.517,128.179831,37.944701,5699.478974400001,178.184,-55.798,354.954
8.5337,128.179828,37.944731,5695.645504800001,178.177,-55.973,354.96
8.5504,128.179824,37.944762,5691.7995384000005,178.17,-56.149,354.967
8.5671,128.179821,37.944792,5687.941075199999,178.163,-56.324,354.973
8.5838,128.179818,37.944823,5684.070420000001,178.156,-56.499,354.98
8.6005,128.179815,37.944853,5680.187268000001,178.149,-56.675,354.986
8.6172,128.179812,37.944883,5676.291924000001,178.142,-56.85,354.993
8.6339,128.179809,37.944913,5672.3840832000005,178.135,-57.025,355.0
8.6505,128.179805,37.944943,5668.464050400001,178.128,-57.2,355.006
8.6672,128.179802,37.944973,5664.5318256,178.121,-57.375,355.013
8.684,128.179799,37.945002,5660.5874088,178.114,-57.55,355.02
8.7007,128.179796,37.945032,5656.6308,178.107,-57.724,355.027
8.7174,128.179793,37.945062,5652.6619992000005,178.099,-57.899,355.034
8.7341,128.17979,37.945091,5648.681311200001,178.092,-58.074,355.041
8.7508,128.179787,37.94512,5644.6884312,178.085,-58.248,355.048
8.7675,128.179784,37.945149,5640.6833592,178.078,-58.423,355.055
8.7842,128.179781,37.945179,5636.6667048,178.071,-58.597,355.063
8.8009,128.179778,37.945208,5632.6378584,178.064,-58.771,355.07
8.8176,128.179775,37.945236,5628.596820000001,178.057,-58.945,355.077
8.8342,128.179772,37.945265,5624.5441992,178.05,-59.12,355.085
8.8509,128.179769,37.945294,5620.4796912,178.042,-59.294,355.093
8.8676,128.179766,37.945322,5616.403296,178.035,-59.468,355.1
8.8844,128.179764,37.945351,5612.3150136,178.028,-59.641,355.108
8.9011,128.179761,37.945379,5608.2151488,178.021,-59.815,355.116
8.9178,128.179758,37.945408,5604.103396800001,178.013,-59.989,355.124
8.9345,128.179755,37.945436,5599.9800624,178.006,-60.162,355.131
8.9512,128.179752,37.945464,5595.8451456,177.999,-60.336,355.139
8.9679,128.179749,37.945492,5591.6983416,177.992,-60.509,355.148
8.9846,128.179747,37.94552,5587.540260000001,177.984,-60.682,355.156
9.0013,128.179744,37.945547,5583.370291200001,177.977,-60.855,355.164
9.0179,128.179741,37.945575,5579.1890448,177.97,-61.028,355.172
9.0346,128.179738,37.945602,5574.996216,177.962,-61.201,355.181
9.0513,128.179736,37.94563,5570.7921096,177.955,-61.374,355.189
9.0681,128.179733,37.945657,5566.5764208,177.947,-61.546,355.198
9.0848,128.17973,37.945684,5562.3494544000005,177.94,-61.718,355.206
9.1015,128.179727,37.945711,5558.1112104,177.932,-61.891,355.215
9.1182,128.179725,37.945738,5553.8616888,177.925,-62.063,355.224
9.1349,128.179722,37.945765,5549.6005847999995,177.917,-62.235,355.232
9.1516,128.17972,37.945792,5545.328508,177.91,-62.407,355.241
9.1683,128.179717,37.945819,5541.0454584,177.902,-62.579,355.25
9.185,128.179714,37.945845,5536.7508264,177.895,-62.751,355.259
9.2016,128.179712,37.945872,5532.4455264,177.887,-62.922,355.269
9.2183,128.179709,37.945898,5528.128644,177.879,-63.094,355.278
9.235,128.179707,37.945924,5523.8010936,177.871,-63.266,355.287
9.2518,128.179704,37.94595,5519.462570400001,177.864,-63.437,355.297
9.2685,128.179702,37.945976,5515.1127696,177.856,-63.608,355.306
9.2852,128.179699,37.946002,5510.752300800001,177.848,-63.779,355.316
9.3019,128.179697,37.946028,5506.3808592000005,177.84,-63.951,355.326
9.3186,128.179694,37.946053,5501.9984448000005,177.832,-64.122,355.336
9.3353,128.179692,37.946079,5497.6053624,177.824,-64.293,355.346
9.352,128.179689,37.946104,5493.201612,177.816,-64.464,355.356
9.3687,128.179687,37.94613,5488.786888799999,177.808,-64.634,355.366
9.3854,128.179684,37.946155,5484.361497600001,177.8,-64.805,355.376
9.402,128.179682,37.94618,5479.9257431999995,177.791,-64.976,355.386
9.4187,128.17968,37.946205,5475.479015999999,177.783,-65.146,355.397
9.4355,128.179677,37.94623,5471.0219256,177.775,-65.317,355.407
9.4522,128.179675,37.946254,5466.5541672,177.766,-65.487,355.418
9.4689,128.179673,37.946279,5462.0757408,177.758,-65.658,355.429
9.4856,128.17967,37.946303,5457.587256000001,177.749,-65.828,355.44
9.5023,128.179668,37.946328,5453.0877984,177.741,-65.998,355.451
9.519,128.179666,37.946352,5448.578282400001,177.732,-66.168,355.462
9.5357,128.179664,37.946376,5444.0584032,177.723,-66.338,355.473
9.5524,128.179661,37.9464,5439.5281608000005,177.714,-66.508,355.485
9.5691,128.179659,37.946424,5434.98786,177.705,-66.678,355.496
9.5857,128.179657,37.946448,5430.4368912,177.696,-66.848,355.508
9.6024,128.179655,37.946472,5425.8761688,177.687,-67.018,355.52
9.6192,128.179653,37.946495,5421.305083200001,177.678,-67.187,355.532
9.6359,128.17965,37.946519,5416.723634399999,177.669,-67.357,355.544
9.6526,128.179648,37.946542,5412.132432,177.659,-67.526,355.556
9.6693,128.179646,37.946565,5407.5311712,177.65,-67.696,355.568
9.686,128.179644,37.946588,5402.919547200001,177.64,-67.865,355.581
9.7027,128.179642,37.946611,5398.2984744000005,177.631,-68.034,355.593
9.7194,128.17964,37.946634,5393.667038400001,177.621,-68.204,355.606
9.7361,128.179638,37.946657,5389.0258488,177.611,-68.373,355.619
9.7528,128.179636,37.946679,5384.374905600001,177.601,-68.542,355.632
9.7694,128.179634,37.946702,5379.7142088,177.591,-68.711,355.645
9.7861,128.179632,37.946724,5375.0437584,177.58,-68.88,355.659
9.8029,128.17963,37.946746,5370.3632496,177.57,-69.049,355.672
9.8196,128.179628,37.946769,5365.673292,177.56,-69.217,355.686
9.8363,128.179626,37.946791,5360.9738856,177.549,-69.386,355.7
9.853,128.179624,37.946812,5356.2644208,177.538,-69.555,355.714
9.8697,128.179622,37.946834,5351.545812,177.527,-69.723,355.729
9.8864,128.17962,37.946856,5346.8174496,177.516,-69.892,355.743
9.9031,128.179618,37.946877,5342.0796384000005,177.505,-70.06,355.758
9.9198,128.179617,37.946899,5337.3323784,177.494,-70.229,355.773
9.9365,128.179615,37.94692,5332.575669600001,177.482,-70.397,355.788
9.9531,128.179613,37.946941,5327.8098168,177.47,-70.566,355.803
9.9698,128.179611,37.946962,5323.034515200001,177.458,-70.734,355.819
9.9865,128.179609,37.946983,5318.249764800001,177.446,-70.904,355.834
10.0033,128.179608,37.947004,5313.455870400001,177.434,-71.074,355.851
10.02,128.179606,37.947025,5308.652832000001,177.421,-71.244,355.867
10.0367,128.179604,37.947045,5303.8406496,177.408,-71.416,355.884
10.0534,128.179602,37.947066,5299.0193232,177.395,-71.588,355.901
10.0701,128.179601,37.947086,5294.1888528,177.382,-71.76,355.919
10.0868,128.179599,37.947106,5289.349238400001,177.368,-71.933,355.936
10.1035,128.179597,37.947126,5284.5007848,177.354,-72.107,355.955
10.1202,128.179596,37.947146,5279.6431872,177.339,-72.281,355.973
10.1368,128.179594,37.947166,5274.7767504,177.325,-72.455,355.992
10.1535,128.179593,37.947185,5269.901474400001,177.31,-72.63,356.011
10.1702,128.179591,37.947205,5265.0170544,177.295,-72.805,356.031
10.187,128.179589,37.947224,5260.1241,177.279,-72.98,356.051
10.2037,128.179588,37.947244,5255.222001600001,177.263,-73.156,356.072
10.2204,128.179586,37.947263,5250.3113688,177.247,-73.332,356.093
10.2371,128.179585,37.947282,5245.391896800001,177.231,-73.508,356.114
10.2538,128.179583,37.947301,5240.4638904,177.214,-73.685,356.135
10.2705,128.179582,37.947319,5235.5270448,177.197,-73.862,356.158
10.2872,128.17958,37.947338,5230.581664800001,177.179,-74.038,356.18
10.3039,128.179579,37.947357,5225.6277504,177.162,-74.215,356.203
10.3205,128.179578,37.947375,5220.665301600001,177.143,-74.393,356.227
10.3372,128.179576,37.947393,5215.6943184,177.125,-74.57,356.25
10.3539,128.179575,37.947411,5210.7148008,177.106,-74.747,356.275
10.3707,128.179573,37.947429,5205.7270536,177.086,-74.925,356.3
10.3874,128.179572,37.947447,5200.730772,177.066,-75.103,356.325
10.4041,128.179571,37.947465,5195.726260800001,177.046,-75.28,356.351
10.4208,128.179569,37.947482,5190.713520000001,177.025,-75.458,356.378
10.4375,128.179568,37.9475,5185.6922448000005,177.004,-75.636,356.405
10.4542,128.179567,37.947517,5180.6630448000005,176.982,-75.815,356.433
10.4709,128.179566,37.947534,5175.6256152000005,176.959,-75.993,356.461
10.4876,128.179564,37.947551,5170.5799560000005,176.936,-76.171,356.49
10.5042,128.179563,37.947568,5165.5260672,176.912,-76.349,356.52
10.5209,128.179562,37.947585,5160.4642536,176.888,-76.528,356.55
10.5376,128.179561,37.947602,5155.394515200001,176.863,-76.707,356.581
10.5544,128.17956,37.947618,5150.316852000001,176.838,-76.885,356.613
10.5711,128.179558,37.947635,5145.231264,176.812,-77.064,356.646
10.5878,128.179557,37.947651,5140.1374464,176.785,-77.243,356.679
10.6045,128.179556,37.947667,5135.0360088,176.757,-77.422,356.713
10.6212,128.179555,37.947683,5129.926951200001,176.729,-77.601,356.748
10.6379,128.179554,37.947699,5124.8099688,176.699,-77.78,356.785
10.6546,128.179553,37.947715,5119.6853664,176.669,-77.959,356.822
10.6713,128.179552,37.94773,5114.5528392,176.638,-78.138,356.86
10.6879,128.179551,37.947746,5109.412996800001,176.605,-78.317,356.899
10.7046,128.17955,37.947761,5104.2652296,176.572,-78.497,356.939
10.7213,128.179549,37.947776,5099.110147200001,176.538,-78.676,356.98
10.7381,128.179548,37.947791,5093.9474448,176.502,-78.856,357.023
10.7548,128.179547,37.947806,5088.777427200001,176.466,-79.035,357.067
10.7715,128.179546,37.947821,5083.6000944,176.428,-79.215,357.112
10.7882,128.179545,37.947835,5078.4151416,176.389,-79.395,357.158
10.8049,128.179544,37.94785,5073.222873600001,176.348,-79.575,357.206
10.8216,128.179543,37.947864,5068.0235952,176.306,-79.755,357.256
10.8383,128.179543,37.947878,5062.8166968000005,176.263,-79.935,357.307
10.855,128.179542,37.947892,5057.602788000001,176.217,-80.115,357.36
10.8717,128.179541,37.947906,5052.3818688,176.171,-80.295,357.414
10.8883,128.17954,37.94792,5047.1536344,176.122,-80.475,357.471
10.905,128.179539,37.947934,5041.9186944,176.071,-80.655,357.529
10.9218,128.179539,37.947947,5036.6764392,176.018,-80.836,357.59
10.9385,128.179538,37.947961,5031.427478400001,175.963,-81.016,357.653
10.9552,128.179537,37.947974,5026.1712024,175.906,-81.196,357.718
10.9719,128.179536,37.947987,5020.9085256,175.846,-81.377,357.786
10.9886,128.179536,37.948,5015.638838400001,175.783,-81.558,357.857
11.0053,128.179535,37.948013,5010.3621408,175.718,-81.738,357.931
11.022,128.179534,37.948025,5005.079042400001,175.649,-81.919,358.007
11.0387,128.179534,37.948038,4999.789238400001,175.577,-82.1,358.087
11.0554,128.179533,37.94805,4994.492728800001,175.502,-82.281,358.171
11.072,128.179533,37.948062,4989.1895136,175.423,-82.462,358.258
11.0887,128.179532,37.948074,4983.8798976,175.34,-82.643,358.35
11.1054,128.179531,37.948086,4978.5638808,175.253,-82.824,358.445
11.1222,128.179531,37.948098,4973.2414632,175.161,-83.005,358.546
11.1389,128.17953,37.94811,4967.9126448,175.064,-83.186,358.651
11.1556,128.17953,37.948121,4962.5774256,174.961,-83.367,358.763
11.1723,128.179529,37.948132,4957.2358056,174.853,-83.549,358.88
11.189,128.179529,37.948143,4951.8880896,174.738,-83.73,359.003
11.2057,128.179529,37.948154,4946.5339728,174.616,-83.911,359.134
11.2224,128.179528,37.948165,4941.1740647999995,174.487,-84.093,359.273
11.2391,128.179528,37.948176,4935.807756,174.349,-84.274,359.42
11.2557,128.179527,37.948187,4930.435656,174.201,-84.456,359.576
11.2724,128.179527,37.948197,4925.057460000001,174.044,-84.637,359.743
11.2891,128.179527,37.948207,4919.673168,173.875,-84.819,359.921
11.3059,128.179526,37.948218,4914.2830848,173.694,-85.001,0.112
11.3226,128.179526,37.948228,4908.8872104,173.498,-85.182,0.316
11.3393,128.179526,37.948237,4903.4858496,173.287,-85.364,0.537
11.356,128.179526,37.948247,4898.0783928,173.057,-85.546,0.775
11.3727,128.179525,37.948257,4892.6654496,172.809,-85.727,1.034
11.3894,128.179525,37.948266,4887.2467152,172.537,-85.909,1.314
11.4061,128.179525,37.948275,4881.8224944,172.24,-86.091,1.621
11.4228,128.179525,37.948284,4876.3924824000005,171.914,-86.272,1.957
11.4394,128.179525,37.948293,4870.9572888,171.553,-86.454,2.326
11.4561,128.179524,37.948302,4865.5166088000005,171.153,-86.636,2.736
11.4728,128.179524,37.948311,4860.0707472,170.707,-86.817,3.191
11.4896,128.179524,37.948319,4854.6193992,170.207,-86.998,3.702
11.5063,128.179524,37.948327,4849.1628696,169.641,-87.179,4.277
11.523,128.179524,37.948336,4843.7008536,168.997,-87.36,4.931
11.5397,128.179524,37.948344,4838.2339608,168.257,-87.541,5.68
11.5564,128.179524,37.948351,4832.761886400001,167.4,-87.721,6.547
11.5731,128.179524,37.948359,4827.2849352,166.394,-87.9,7.563
11.5898,128.179524,37.948367,4821.8028024000005,165.199,-88.079,8.768
11.6065,128.179524,37.948374,4816.3157928,163.758,-88.257,10.219
11.6231,128.179524,37.948381,4810.8239064,161.989,-88.434,11.998
11.6398,128.179524,37.948388,4805.3271432,159.77,-88.609,14.227
11.6565,128.179524,37.948395,4799.825503200001,156.915,-88.781,17.092
11.6733,128.179524,37.948402,4794.3192912,153.13,-88.95,20.887
11.69,128.179524,37.948409,4788.8085072,147.929,-89.112,26.099
11.7067,128.179524,37.948415,4783.2931512,140.495,-89.263,33.543
11.7234,128.179525,37.948422,4777.773223200001,129.509,-89.397,44.539
11.7401,128.179525,37.948428,4772.2487232,113.313,-89.497,60.745
11.7568,128.179525,37.948434,4766.7196512,91.805,-89.541,82.263
11.7735,128.179525,37.94844,4761.186312000001,69.481,-89.514,104.596
11.7902,128.179525,37.948445,4755.6487056000005,51.794,-89.426,122.293
11.8068,128.179526,37.948451,4750.106832,39.624,-89.299,134.473
11.8235,128.179526,37.948456,4744.5606912,31.415,-89.15,142.691
11.8402,128.179526,37.948461,4739.010588,25.71,-88.99,148.404
11.857,128.179527,37.948466,4733.4562176,21.583,-88.822,152.54
11.8737,128.179527,37.948471,4727.897884800001,18.481,-88.65,155.65
11.8904,128.179527,37.948476,4722.3352848,16.07,-88.475,158.07
11.9071,128.179528,37.948481,4716.7690272,14.142,-88.297,160.005
11.9238,128.179528,37.948485,4711.199112,12.562,-88.119,161.592
11.9405,128.179528,37.948489,4705.6249296000005,11.24,-87.939,162.922
11.9572,128.179529,37.948493,4700.0473944,10.112,-87.758,164.056
11.9739,128.179529,37.948497,4694.4658968,9.135,-87.576,165.039
11.9905,128.17953,37.948501,4688.881046400001,8.278,-87.394,165.901
12.0072,128.17953,37.948505,4683.2925384,7.517,-87.211,166.667
12.0239,128.179531,37.948508,4677.7003728,6.834,-87.028,167.355
12.0407,128.179531,37.948511,4672.1048544000005,6.214,-86.845,167.979
12.0574,128.179532,37.948514,4666.5059832,5.647,-86.661,168.55
12.0741,128.179532,37.948517,4660.9037592,5.126,-86.477,169.074
12.0908,128.179533,37.94852,4655.298182400001,4.646,-86.293,169.557
12.1075,128.179534,37.948523,4649.689557600001,4.202,-86.108,170.003
12.1242,128.179534,37.948525,4644.07758,3.79,-85.923,170.418
12.1409,128.179535,37.948528,4638.4628592,3.408,-85.738,170.802
12.1576,128.179535,37.94853,4632.8447856,3.053,-85.553,171.16
12.1743,128.179536,37.948532,4627.2239688,2.722,-85.367,171.493
12.1909,128.179537,37.948534,4621.600104,2.415,-85.182,171.802
12.2076,128.179537,37.948535,4615.973191200001,2.129,-84.996,172.09
12.2243,128.179538,37.948537,4610.3438400000005,1.864,-84.81,172.357
12.2411,128.179539,37.948538,4604.7117456000005,1.618,-84.623,172.605
12.2578,128.17954,37.948539,4599.076908,1.39,-84.437,172.834
12.2745,128.179541,37.94854,4593.439327200001,1.18,-84.25,173.046
12.2912,128.179541,37.948541,4587.799308,0.987,-84.063,173.241
12.3079,128.179542,37.948542,4582.1571552000005,0.809,-83.876,173.42
12.3246,128.179543,37.948542,4576.512259200001,0.647,-83.689,173.584
12.3413,128.179544,37.948543,4570.8649248,0.499,-83.502,173.732
12.358,128.179545,37.948543,4565.2154568000005,0.366,-83.315,173.867
12.3746,128.179546,37.948543,4559.5638552,0.246,-83.127,173.988
12.3913,128.179546,37.948543,4553.9101200000005,0.138,-82.939,174.096
12.408,128.179547,37.948542,4548.2542512,0.043,-82.752,174.192
12.4248,128.179548,37.948542,4542.5962488000005,-0.039,-82.564,174.276
12.4415,128.179549,37.948541,4536.9364176,-0.111,-82.376,174.348
12.4582,128.17955,37.948541,4531.2744528,-0.173,-82.188,174.41
12.4749,128.179551,37.94854,4525.610964,-0.224,-82.0,174.462
12.4916,128.179552,37.948538,4519.9456464,-0.266,-81.812,174.504
12.5083,128.179553,37.948537,4514.2785,-0.299,-81.624,174.537
12.525,128.179554,37.948536,4508.6098296,-0.324,-81.436,174.562
12.5417,128.179555,37.948534,4502.9393304000005,-0.341,-81.248,174.578
12.5583,128.179556,37.948532,4497.267612000001,-0.35,-81.059,174.588
12.575,128.179558,37.94853,4491.5943696,-0.353,-80.871,174.59
12.5917,128.179559,37.948528,4485.919908,-0.349,-80.682,174.586
12.6085,128.17956,37.948526,4480.2439224,-0.34,-80.494,174.577
12.6252,128.179561,37.948523,4474.5670224000005,-0.326,-80.305,174.562
12.6419,128.179562,37.948521,4468.888598400001,-0.307,-80.117,174.543
12.6586,128.179563,37.948518,4463.2092600000005,-0.284,-79.928,174.52
12.6753,128.179564,37.948515,4457.5287024,-0.258,-79.739,174.494
12.692,128.179566,37.948512,4451.847230400001,-0.228,-79.55,174.464
12.7087,128.179567,37.948508,4446.164844000001,-0.196,-79.361,174.433
12.7254,128.179568,37.948505,4440.481848,-0.161,-79.172,174.399
12.742,128.179569,37.948501,4434.7979376,-0.126,-78.983,174.364
12.7587,128.179571,37.948497,4429.1131128,-0.089,-78.794,174.329
12.7754,128.179572,37.948493,4423.4279832,-0.051,-78.605,174.293
12.7922,128.179573,37.948489,4417.7419392,-0.014,-78.415,174.257
12.8089,128.179575,37.948485,4412.0555904,0.021,-78.226,174.223
12.8256,128.179576,37.94848,4406.3689368000005,0.055,-78.036,174.191
12.8423,128.179577,37.948475,4400.6816736,0.086,-77.847,174.162
12.859,128.179579,37.948471,4394.9944104,0.113,-77.657,174.137
12.8757,128.17958,37.948465,4389.3065376,0.136,-77.468,174.116
12.8924,128.179582,37.94846,4383.6186648,0.155,-77.278,174.099
12.9091,128.179583,37.948455,4377.930792,0.168,-77.088,174.089
12.9257,128.179585,37.948449,4372.242919200001,0.176,-76.898,174.083
12.9424,128.179586,37.948444,4366.5547416,0.18,-76.708,174.082
12.9591,128.179588,37.948438,4360.866868800001,0.181,-76.518,174.084
12.9759,128.179589,37.948432,4355.1793008,0.18,-76.328,174.09
12.9926,128.179591,37.948425,4349.4920376,0.179,-76.138,174.097
13.0093,128.179592,37.948419,4343.8047744000005,0.179,-75.948,174.106
13.026,128.179594,37.948412,4338.118120800001,0.18,-75.758,174.114
13.0427,128.179595,37.948406,4332.431772,0.183,-75.568,174.123
13.0594,128.179597,37.948399,4326.746032800001,0.188,-75.377,174.131
13.0761,128.179599,37.948392,4321.0609032,0.195,-75.187,174.138
13.0928,128.1796,37.948384,4315.376688,0.203,-74.997,174.146
13.1095,128.179602,37.948377,4309.6927776,0.212,-74.806,174.153
13.1262,128.179604,37.948369,4304.010086400001,0.221,-74.615,174.16
13.1429,128.179605,37.948362,4298.328004800001,0.23,-74.425,174.168
13.1596,128.179607,37.948354,4292.6471424,0.239,-74.234,174.176
13.1763,128.179609,37.948346,4286.9671944,0.249,-74.043,174.184
13.193,128.179611,37.948337,4281.288465600001,0.258,-73.852,174.193
13.2097,128.179613,37.948329,4275.6106512,0.268,-73.661,174.201
13.2264,128.179614,37.94832,4269.9343608,0.278,-73.47,174.21
13.2431,128.179616,37.948311,4264.259289600001,0.289,-73.279,174.219
13.2598,128.179618,37.948302,4258.5854376,0.299,-73.088,174.229
13.2765,128.17962,37.948293,4252.9134144,0.31,-72.896,174.238
13.2932,128.179622,37.948284,4247.2426104,0.321,-72.705,174.248
13.3099,128.179624,37.948274,4241.5736352,0.332,-72.513,174.258
13.3266,128.179626,37.948265,4235.906184,0.343,-72.322,174.268
13.3433,128.179627,37.948255,4230.240561600001,0.354,-72.13,174.278
13.36,128.179629,37.948245,4224.576768,0.366,-71.939,174.288
13.3767,128.179631,37.948235,4218.9148032,0.378,-71.747,174.299
13.3934,128.179633,37.948224,4213.254972,0.39,-71.555,174.31
13.4101,128.179635,37.948214,4207.5972744,0.402,-71.363,174.321
13.4268,128.179637,37.948203,4201.9414056000005,0.414,-71.171,174.332
13.4435,128.179639,37.948192,4196.2879752,0.426,-70.979,174.343
13.4602,128.179642,37.948181,4190.6366784,0.439,-70.786,174.355
13.4769,128.179644,37.94817,4184.98782,0.451,-70.594,174.366
13.4936,128.179646,37.948158,4179.3414,0.464,-70.402,174.378
13.5103,128.179648,37.948147,4173.6974184,0.477,-70.209,174.39
13.527,128.17965,37.948135,4168.0561800000005,0.49,-70.017,174.402
13.5437,128.179652,37.948123,4162.41738,0.503,-69.824,174.414
13.5604,128.179654,37.948111,4156.781323200001,0.516,-69.631,174.427
13.5771,128.179656,37.948099,4151.1480096000005,0.53,-69.438,174.439
13.5938,128.179659,37.948086,4145.517744000001,0.544,-69.246,174.452
13.6105,128.179661,37.948073,4139.8902216,0.557,-69.053,174.465
13.6272,128.179663,37.948061,4134.2657472,0.571,-68.86,174.478
13.6439,128.179665,37.948048,4128.6446256,0.585,-68.667,174.491
13.6606,128.179668,37.948035,4123.0262472,0.6,-68.473,174.504
13.6773,128.17967,37.948021,4117.4115264,0.614,-68.28,174.517
13.694,128.179672,37.948008,4111.7998536,0.628,-68.087,174.531
13.7107,128.179674,37.947994,4106.1915336,0.643,-67.893,174.545
13.7274,128.179677,37.94798,4100.5868712,0.657,-67.7,174.558
13.7441,128.179679,37.947966,4094.9858664000003,0.672,-67.506,174.572
13.7608,128.179681,37.947952,4089.3882144000004,0.687,-67.312,174.586
13.7775,128.179684,37.947937,4083.79422,0.702,-67.119,174.6
13.7942,128.179686,37.947923,4078.204188,0.717,-66.925,174.615
13.8109,128.179689,37.947908,4072.6178136000003,0.733,-66.731,174.629
13.8276,128.179691,37.947893,4067.0357064,0.748,-66.537,174.643
13.8443,128.179694,37.947878,4061.4572568000003,0.764,-66.343,174.658
13.861,128.179696,37.947863,4055.8830744,0.779,-66.149,174.673
13.8777,128.179698,37.947847,4050.3128544,0.795,-65.955,174.688
13.8944,128.179701,37.947832,4044.7469016,0.811,-65.76,174.703
13.9111,128.179703,37.947816,4039.1855208,0.827,-65.566,174.718
13.9278,128.179706,37.9478,4033.6281024000004,0.843,-65.372,174.733
13.9445,128.179708,37.947784,4028.075256,0.859,-65.177,174.748
13.9612,128.179711,37.947768,4022.5272864000003,0.876,-64.982,174.764
13.9779,128.179714,37.947751,4016.983584,0.892,-64.788,174.779
13.9946,128.179716,37.947735,4011.4444536,0.909,-64.593,174.795
14.0113,128.179719,37.947718,4005.9105048,0.926,-64.398,174.81
14.028,128.179721,37.947701,4000.3811280000004,0.943,-64.203,174.826
14.0447,128.179724,37.947684,3994.8566280000005,0.96,-64.008,174.842
14.0614,128.179727,37.947666,3989.3370048,0.977,-63.813,174.858
14.0781,128.179729,37.947649,3983.822868,0.994,-63.618,174.874
14.0948,128.179732,37.947631,3978.313608,1.012,-63.423,174.891
14.1115,128.179734,37.947613,3972.8095296,1.029,-63.228,174.907
14.1282,128.179737,37.947595,3967.3106328000003,1.047,-63.032,174.924
14.1449,128.17974,37.947577,3961.8175272000003,1.065,-62.837,174.94
14.1616,128.179743,37.947558,3956.3296032000003,1.083,-62.641,174.957
14.1783,128.179745,37.94754,3950.8471656,1.101,-62.446,174.974
14.195,128.179748,37.947521,3945.3702144000003,1.119,-62.25,174.99
14.2117,128.179751,37.947502,3939.8993592,1.138,-62.054,175.007
14.2284,128.179753,37.947483,3934.4339904,1.157,-61.859,175.024
14.2451,128.179756,37.947464,3928.9744128,1.175,-61.663,175.042
14.2618,128.179759,37.947444,3923.5209312,1.194,-61.467,175.059
14.2785,128.179762,37.947425,3918.0732408000003,1.213,-61.271,175.076
14.2952,128.179765,37.947405,3912.6316464000006,1.233,-61.075,175.094
14.3119,128.179767,37.947385,3907.1961480000004,1.252,-60.879,175.111
14.3286,128.17977,37.947365,3901.7670504000002,1.272,-60.682,175.129
14.3453,128.179773,37.947345,3896.3443536,1.291,-60.486,175.147
14.362,128.179776,37.947324,3890.9277528000002,1.311,-60.29,175.165
14.3787,128.179779,37.947303,3885.5175528000004,1.331,-60.093,175.183
14.3954,128.179782,37.947283,3880.1140584,1.352,-59.897,175.201
14.4121,128.179784,37.947262,3874.7172696,1.372,-59.7,175.219
14.4288,128.179787,37.94724,3869.3268816,1.393,-59.504,175.237
14.4455,128.17979,37.947219,3863.943504,1.414,-59.307,175.256
14.4622,128.179793,37.947198,3858.5668320000004,1.436,-59.11,175.274
14.4789,128.179796,37.947176,3853.1971704000002,1.457,-58.913,175.293
14.4956,128.179799,37.947154,3847.8342144000003,1.479,-58.716,175.312
14.5123,128.179802,37.947132,3842.4785736000003,1.502,-58.519,175.331
14.529,128.179805,37.94711,3837.1302480000004,1.524,-58.322,175.35
14.5457,128.179808,37.947087,3831.7889328000006,1.547,-58.125,175.369
14.5624,128.179811,37.947065,3826.4549328000003,1.57,-57.928,175.388
14.5791,128.179814,37.947042,3821.1282480000004,1.593,-57.731,175.407
14.5958,128.179817,37.947019,3815.8088784000006,1.617,-57.534,175.427
14.6125,128.17982,37.946996,3810.4974336,1.641,-57.336,175.446
14.6292,128.179823,37.946973,3805.193304,1.665,-57.139,175.466
14.6459,128.179826,37.94695,3799.8967944,1.689,-56.941,175.486
14.6626,128.179829,37.946926,3794.6082096000005,1.714,-56.744,175.505
14.6793,128.179832,37.946902,3789.3275496,1.739,-56.546,175.525
14.696,128.179835,37.946878,3784.0548144000004,1.765,-56.349,175.546
14.7127,128.179838,37.946854,3778.790004,1.79,-56.151,175.566
14.7294,128.179841,37.94683,3773.5331184,1.816,-55.953,175.586
14.7461,128.179844,37.946806,3768.2844624000004,1.843,-55.755,175.607
14.7628,128.179847,37.946781,3763.0440360000002,1.87,-55.557,175.628
14.7795,128.17985,37.946756,3757.8118392,1.898,-55.359,175.649
14.7962,128.179853,37.946731,3752.5881768,1.926,-55.161,175.67
14.8129,128.179856,37.946706,3747.3727440000002,1.954,-54.963,175.691
14.8296,128.179859,37.946681,3742.1658456,1.983,-54.765,175.712
14.8463,128.179862,37.946656,3736.9677864,2.013,-54.567,175.733
14.863,128.179865,37.94663,3731.7782616000004,2.043,-54.369,175.755
14.8797,128.179868,37.946604,3726.5975760000006,2.074,-54.17,175.777
14.8964,128.179871,37.946578,3721.4254248,2.105,-53.972,175.799
14.9131,128.179875,37.946552,3716.2624176,2.137,-53.774,175.821
14.9298,128.179878,37.946526,3711.1085544000002,2.17,-53.575,175.843
14.9465,128.179881,37.9465,3705.9635304000003,2.204,-53.377,175.866
14.9632,128.179884,37.946473,3700.8276504000005,2.238,-53.178,175.888
14.9799,128.179887,37.946446,3695.7009144000003,2.273,-52.98,175.911
14.9966,128.17989,37.946419,3690.5833224000003,2.309,-52.781,175.934
15.0133,128.179893,37.946392,3685.475484,2.346,-52.582,175.957
15.03,128.179896,37.946365,3680.3767896000004,2.383,-52.384,175.981
15.0467,128.179899,37.946337,3675.2875440000003,2.422,-52.185,176.005
15.0634,128.179903,37.94631,3670.208052,2.462,-51.986,176.029
15.0801,128.179906,37.946282,3665.1380088,2.502,-51.787,176.053
15.0968,128.179909,37.946254,3660.078024,2.545,-51.588,176.077
15.1135,128.179912,37.946226,3655.027488,2.588,-51.39,176.102
15.1302,128.179915,37.946198,3649.9870104,2.633,-51.191,176.127
15.1469,128.179918,37.946169,3644.9562864000004,2.68,-50.992,176.152
15.1636,128.179921,37.946141,3639.9356208000004,2.73,-50.793,176.177
15.1803,128.179925,37.946112,3634.9250136,2.781,-50.594,176.202
