Time,Longitude,Latitude,Altitude,Roll (deg),Pitch (deg),Yaw (deg)
0.0,128.182449,37.914482,3999.992508,0.0,-0.003,179.999
0.0167,128.182449,37.914444,3999.9763536,0.0,-0.013,180.0
0.0334,128.182449,37.914407,3999.9580656000003,0.011,-0.014,180.002
0.0501,128.182449,37.914369,3999.9385584,0.035,0.005,180.007
0.0668,128.182449,37.914332,3999.9184416000003,0.07,0.058,180.014
0.0834,128.182449,37.914294,3999.89802,0.116,0.158,180.022
0.1002,128.182449,37.914257,3999.8775984000004,0.173,0.315,180.03
0.1169,128.182449,37.914219,3999.8580912,0.24,0.537,180.039
0.1336,128.182449,37.914182,3999.8398032000005,0.316,0.833,180.048
0.1503,128.182449,37.914144,3999.8233440000004,0.402,1.205,180.057
0.1669,128.182449,37.914107,3999.8090184000002,0.497,1.643,180.068
0.1837,128.182449,37.914069,3999.7974360000003,0.601,2.138,180.08
0.2004,128.182449,37.914032,3999.7889016,0.714,2.68,180.094
0.2171,128.182449,37.913994,3999.7840248,0.837,3.254,180.11
0.2338,128.182449,37.913957,3999.7831104,0.97,3.847,180.127
0.2505,128.182449,37.91392,3999.786768,1.115,4.447,180.147
0.2672,128.182449,37.913882,3999.7949976,1.273,5.042,180.169
0.2839,128.182449,37.913845,3999.8084088,1.444,5.618,180.192
0.3006,128.182449,37.913807,3999.8270016,1.63,6.17,180.218
0.3172,128.182449,37.91377,3999.8513856,1.833,6.698,180.246
0.3339,128.182449,37.913733,3999.8821704,2.054,7.206,180.275
0.3507,128.182449,37.913695,3999.9190512,2.295,7.697,180.307
0.3674,128.182449,37.913658,3999.9623328000002,2.557,8.171,180.341
0.3841,128.182449,37.91362,4000.0126248,2.842,8.631,180.378
0.4008,128.182449,37.913583,4000.0696224000003,3.152,9.077,180.417
0.4175,128.182449,37.913546,4000.1333256000003,3.489,9.511,180.46
0.4342,128.182449,37.913508,4000.204344,3.855,9.933,180.505
0.4509,128.182449,37.913471,4000.2823728000003,4.252,10.344,180.554
0.4676,128.182449,37.913434,4000.3671072,4.684,10.744,180.607
0.4843,128.182449,37.913396,4000.4591568,5.152,11.134,180.664
0.501,128.182448,37.913359,4000.5582168000005,5.661,11.514,180.725
0.5176,128.182448,37.913322,4000.6639824000004,6.212,11.884,180.791
0.5344,128.182448,37.913285,4000.7791968,6.744,12.246,180.854
0.5511,128.182448,37.913247,4000.9041647999998,7.255,12.6,180.914
0.5678,128.182448,37.91321,4001.0391912000005,7.749,12.948,180.973
0.5845,128.182448,37.913173,4001.1858,8.227,13.288,181.034
0.6012,128.182448,37.913136,4001.3446008000005,8.693,13.622,181.098
0.6179,128.182447,37.913099,4001.5140696,9.152,13.949,181.166
0.6345,128.182447,37.913062,4001.6945112000003,9.606,14.271,181.238
0.6513,128.182447,37.913025,4001.8859256000005,10.061,14.587,181.315
0.6679,128.182447,37.912988,4002.0883128,10.518,14.898,181.397
0.6847,128.182446,37.912951,4002.3016728000002,10.981,15.204,181.483
0.7014,128.182446,37.912914,4002.5257008000003,11.452,15.505,181.574
0.7181,128.182446,37.912877,4002.7603968,11.934,15.802,181.668
0.7348,128.182445,37.91284,4003.0057608,12.428,16.094,181.767
0.7514,128.182445,37.912803,4003.261488,12.936,16.382,181.87
0.7682,128.182445,37.912766,4003.5281880000002,13.458,16.666,181.978
0.7848,128.182444,37.912729,4003.8049464000005,13.997,16.946,182.089
0.8016,128.182444,37.912692,4004.0923728000002,14.552,17.221,182.204
0.8183,128.182443,37.912656,4004.3901624000005,15.125,17.493,182.323
0.835,128.182442,37.912619,4004.6983152000003,15.716,17.76,182.446
0.8517,128.182442,37.912582,4005.0165264,16.326,18.023,182.573
0.8684,128.182441,37.912546,4005.3451008,16.956,18.281,182.704
0.8851,128.182441,37.912509,4005.6834288,17.606,18.536,182.84
0.9018,128.18244,37.912472,4006.0318152,18.276,18.786,182.98
0.9185,128.182439,37.912436,4006.3899552000003,18.968,19.032,183.125
0.9352,128.182438,37.912399,4006.7578488000004,19.681,19.273,183.274
0.9519,128.182437,37.912363,4007.1351912000005,20.416,19.51,183.428
0.9686,128.182437,37.912326,4007.5222872000004,21.174,19.743,183.586
0.9853,128.182436,37.91229,4007.9182224,21.955,19.97,183.749
1.002,128.182435,37.912253,4008.3236064000002,22.76,20.193,183.917
1.0187,128.182434,37.912217,4008.7378296,23.589,20.412,184.09
1.0353,128.182433,37.912181,4009.1608920000003,24.443,20.626,184.268
1.0521,128.182432,37.912145,4009.5924888000004,25.322,20.834,184.451
1.0688,128.18243,37.912108,4010.0323152,26.226,21.038,184.639
1.0855,128.182429,37.912072,4010.4806760000006,27.157,21.236,184.833
1.1022,128.182428,37.912036,4010.9369616000004,28.114,21.429,185.031
1.1189,128.182427,37.912,4011.4008672,29.097,21.617,185.235
1.1356,128.182425,37.911964,4011.8726976000003,30.107,21.799,185.444
1.1522,128.182424,37.911928,4012.3521480000004,31.141,21.975,185.658
1.169,128.182422,37.911891,4012.8395232000003,32.196,22.146,185.878
1.1857,128.182421,37.911855,4013.3345184000004,33.271,22.31,186.102
1.2024,128.182419,37.911819,4013.8371336,34.363,22.469,186.331
1.2191,128.182418,37.911784,4014.3470640000005,35.469,22.622,186.564
1.2358,128.182416,37.911748,4014.8643096000005,36.588,22.769,186.802
1.2525,128.182414,37.911712,4015.3891752000004,37.718,22.91,187.045
1.2691,128.182412,37.911676,4015.9210512,38.856,23.044,187.292
1.2859,128.18241,37.91164,4016.4602424,40.002,23.172,187.544
1.3026,128.182408,37.911604,4017.0061392000002,41.154,23.293,187.8
1.3193,128.182406,37.911569,4017.5590464000006,42.311,23.408,188.061
1.3359,128.182404,37.911533,4018.1186592000004,43.471,23.515,188.327
1.3527,128.182402,37.911497,4018.6849776000004,44.633,23.616,188.597
1.3694,128.1824,37.911462,4019.2576968,45.796,23.709,188.872
1.386,128.182397,37.911426,4019.8368168000006,46.958,23.794,189.153
1.4028,128.182395,37.911391,4020.4223376,48.118,23.87,189.439
1.4195,128.182392,37.911355,4021.0136496,49.273,23.937,189.731
1.4362,128.18239,37.91132,4021.6110576000005,50.424,23.995,190.028
1.4528,128.182387,37.911284,4022.2145616000003,51.568,24.043,190.331
1.4696,128.182384,37.911249,4022.8235520000003,52.706,24.08,190.64
1.4863,128.182381,37.911213,4023.4380288,53.836,24.107,190.955
1.5029,128.182379,37.911178,4024.0579920000005,54.957,24.123,191.276
1.5197,128.182376,37.911143,4024.6831368000003,56.068,24.127,191.602
1.5364,128.182372,37.911107,4025.3134632,57.17,24.12,191.934
1.5531,128.182369,37.911072,4025.9486664000005,58.261,24.1,192.271
1.5697,128.182366,37.911037,4026.5887464,59.341,24.068,192.612
1.5865,128.182363,37.911002,4027.2333984,60.41,24.023,192.959
1.6032,128.182359,37.910967,4027.8823176,61.468,23.965,193.309
1.6198,128.182356,37.910932,4028.5358088000003,62.514,23.895,193.663
1.6366,128.182352,37.910897,4029.1935672,63.549,23.811,194.021
1.6533,128.182348,37.910862,4029.8549832,64.572,23.714,194.381
1.67,128.182344,37.910827,4030.5203616000003,65.583,23.604,194.744
1.6867,128.18234,37.910792,4031.1893976,66.583,23.48,195.109
1.7034,128.182336,37.910757,4031.8620912,67.571,23.344,195.476
1.7201,128.182332,37.910722,4032.5378328000006,68.549,23.195,195.844
1.7368,128.182328,37.910687,4033.2169272,69.516,23.032,196.212
1.7535,128.182324,37.910652,4033.8990696,70.473,22.858,196.58
1.7702,128.182319,37.910618,4034.5839552,71.42,22.67,196.947
1.7869,128.182315,37.910583,4035.2712792,72.357,22.471,197.314
1.8036,128.18231,37.910548,4035.9613464000004,73.286,22.26,197.679
1.8203,128.182305,37.910514,4036.6535472,74.206,22.038,198.042
1.837,128.182301,37.910479,4037.3475768000003,75.119,21.804,198.403
1.8537,128.182296,37.910444,4038.0440448,76.025,21.561,198.761
1.8704,128.182291,37.91041,4038.7417320000004,76.924,21.307,199.116
1.8871,128.182285,37.910375,4039.441248,77.818,21.043,199.467
1.9038,128.18228,37.910341,4040.142288,78.706,20.77,199.814
1.9205,128.182275,37.910306,4040.8442424,79.591,20.489,200.157
1.9372,128.182269,37.910272,4041.5471112,80.472,20.199,200.496
1.9539,128.182264,37.910238,4042.2511992,81.351,19.902,200.829
1.9706,128.182258,37.910203,4042.9555920000003,82.228,19.598,201.157
1.9873,128.182252,37.910169,4043.6602896000004,83.104,19.287,201.48
2.004,128.182246,37.910135,4044.3652920000004,83.979,18.971,201.798
2.0207,128.18224,37.9101,4045.0705992,84.855,18.649,202.11
2.0374,128.182234,37.910066,4045.7752968,85.732,18.322,202.415
2.0541,128.182228,37.910032,4046.4799944,86.61,17.992,202.715
2.0707,128.182221,37.909998,4047.1840824000005,87.492,17.657,203.009
2.0875,128.182215,37.909964,4047.887256,88.376,17.319,203.296
2.1042,128.182208,37.90993,4048.5895152,89.264,16.978,203.577
2.1208,128.182202,37.909896,4049.2905552,90.157,16.635,203.852
2.1376,128.182195,37.909862,4049.9903760000007,91.054,16.291,204.12
2.1543,128.182188,37.909828,4050.6886728000004,91.957,15.945,204.382
2.171,128.182181,37.909794,4051.3851408,92.865,15.598,204.637
2.1877,128.182174,37.90976,4052.0797800000005,93.78,15.25,204.886
2.2044,128.182166,37.909726,4052.7722856,94.701,14.903,205.129
2.2211,128.182159,37.909692,4053.4623528,95.629,14.556,205.366
2.2378,128.182152,37.909659,4054.1499816,96.563,14.209,205.596
2.2544,128.182144,37.909625,4054.8345624000003,97.505,13.863,205.82
2.2712,128.182136,37.909591,4055.5167048000003,98.453,13.518,206.039
2.2879,128.182128,37.909558,4056.1954944,99.408,13.175,206.251
2.3045,128.18212,37.909524,4056.8709312,100.371,12.833,206.458
2.3213,128.182112,37.90949,4057.5430152,101.34,12.493,206.658
2.338,128.182104,37.909457,4058.2114416000004,102.316,12.155,206.854
2.3546,128.182096,37.909423,4058.8759056000004,103.299,11.819,207.043
2.3714,128.182087,37.90939,4059.5364072,104.288,11.485,207.228
2.3881,128.182079,37.909356,4060.1926416000006,105.283,11.153,207.407
2.4048,128.18207,37.909323,4060.844304,106.284,10.823,207.581
2.4215,128.182061,37.909289,4061.4916992,107.289,10.496,207.749
2.4382,128.182052,37.909256,4062.1342176000003,108.299,10.171,207.913
2.4549,128.182043,37.909223,4062.7718592,109.312,9.848,208.073
2.4716,128.182034,37.909189,4063.4043192000004,110.329,9.528,208.227
2.4882,128.182025,37.909156,4064.0312928000003,111.347,9.209,208.377
2.505,128.182016,37.909123,4064.6530848,112.368,8.893,208.523
2.5217,128.182006,37.90909,4065.2693904000002,113.389,8.579,208.664
2.5383,128.181997,37.909057,4065.8796,114.409,8.267,208.801
2.5551,128.181987,37.909024,4066.4840184000004,115.43,7.957,208.934
2.5718,128.181977,37.90899,4067.0826456000004,116.449,7.648,209.063
2.5884,128.181968,37.908957,4067.674872,117.465,7.341,209.187
2.6052,128.181958,37.908924,4068.2606976,118.479,7.036,209.308
2.6219,128.181947,37.908891,4068.8401224,119.489,6.731,209.425
2.6386,128.181937,37.908858,4069.4128416000003,120.494,6.428,209.537
2.6553,128.181927,37.908825,4069.9788552000005,121.495,6.126,209.646
2.6719,128.181917,37.908792,4070.5381632,122.49,5.824,209.751
2.6887,128.181906,37.90876,4071.090156,123.478,5.523,209.852
2.7054,128.181896,37.908727,4071.6351384,124.459,5.222,209.949
2.722,128.181885,37.908694,4072.1728056000006,125.432,4.922,210.043
2.7388,128.181874,37.908661,4072.7031576000004,126.397,4.622,210.132
2.7555,128.181863,37.908628,4073.2261944,127.354,4.322,210.217
2.7721,128.181852,37.908596,4073.7413064,128.3,4.021,210.298
2.7889,128.181841,37.908563,4074.2487984000004,129.238,3.72,210.376
2.8056,128.18183,37.90853,4074.7486704000003,130.164,3.419,210.449
2.8222,128.181819,37.908498,4075.2406176,131.081,3.117,210.518
2.839,128.181808,37.908465,4075.7243352000005,131.986,2.815,210.582
2.8557,128.181796,37.908432,4076.2001280000004,132.88,2.512,210.643
2.8724,128.181785,37.9084,4076.6673864000004,133.763,2.208,210.699
2.8891,128.181773,37.908367,4077.12672,134.633,1.903,210.751
2.9057,128.181762,37.908335,4077.5766048,135.487,1.597,210.799
2.9225,128.18175,37.908302,4078.0176504,136.323,1.291,210.843
2.9392,128.181738,37.90827,4078.4489424,137.137,0.985,210.883
2.9558,128.181726,37.908237,4078.8707856,137.928,0.678,210.919
2.9726,128.181714,37.908205,4079.2828752,138.693,0.372,210.952
2.9893,128.181702,37.908173,4079.6846016,139.432,0.065,210.982
3.0059,128.18169,37.90814,4080.0762696,140.143,-0.241,211.008
3.0227,128.181678,37.908108,4080.4575744,140.825,-0.547,211.032
3.0394,128.181665,37.908076,4080.8279064000003,141.478,-0.854,211.052
3.056,128.181653,37.908044,4081.1878752000002,142.102,-1.16,211.07
3.0728,128.18164,37.908011,4081.5365664000005,142.697,-1.467,211.085
3.0895,128.181628,37.907979,4081.8745896000005,143.262,-1.773,211.098
3.1062,128.181615,37.907947,4082.2013352000004,143.8,-2.079,211.109
3.1229,128.181602,37.907915,4082.5168032000006,144.309,-2.384,211.118
3.1395,128.181589,37.907883,4082.8212984,144.792,-2.69,211.125
3.1563,128.181576,37.907851,4083.1142112,145.248,-2.994,211.13
3.173,128.181563,37.907819,4083.3958464,145.678,-3.299,211.133
3.1896,128.18155,37.907787,4083.6658992,146.084,-3.603,211.135
3.2064,128.181537,37.907755,4083.9243696,146.467,-3.906,211.136
3.2231,128.181524,37.907723,4084.1712576000004,146.828,-4.209,211.136
3.2397,128.18151,37.907691,4084.4065632,147.167,-4.511,211.135
3.2565,128.181497,37.90766,4084.6302864000004,147.487,-4.812,211.133
3.2732,128.181483,37.907628,4084.8421224000003,147.787,-5.112,211.131
3.2899,128.18147,37.907596,4085.0423760000003,148.07,-5.411,211.129
3.3066,128.181456,37.907564,4085.2304375999997,148.336,-5.708,211.126
3.3233,128.181443,37.907533,4085.4069168000005,148.587,-6.005,211.124
3.34,128.181429,37.907501,4085.5715088,148.824,-6.3,211.122
3.3567,128.181415,37.907469,4085.7242136,149.047,-6.593,211.121
3.3734,128.181401,37.907438,4085.8647264,149.257,-6.885,211.121
3.3901,128.181387,37.907406,4085.993352,149.457,-7.175,211.122
3.4068,128.181373,37.907375,4086.1100904,149.646,-7.463,211.124
3.4235,128.181359,37.907343,4086.2146368000003,149.825,-7.749,211.128
3.4402,128.181345,37.907312,4086.3069912,149.996,-8.033,211.133
3.4569,128.181331,37.90728,4086.3871536,150.159,-8.315,211.141
3.4736,128.181316,37.907249,4086.4554288,150.314,-8.594,211.15
3.4903,128.181302,37.907218,4086.5112072,150.463,-8.872,211.162
3.507,128.181288,37.907186,4086.5547936000003,150.605,-9.146,211.177
3.5237,128.181273,37.907155,4086.5858832,150.742,-9.419,211.194
3.5404,128.181259,37.907124,4086.6047808,150.874,-9.688,211.215
3.5571,128.181244,37.907092,4086.6111816000002,151.001,-9.955,211.239
3.5738,128.18123,37.907061,4086.6053904,151.124,-10.219,211.265
3.5905,128.181215,37.90703,4086.5871024000003,151.244,-10.481,211.296
3.6072,128.1812,37.906999,4086.5560128,151.36,-10.74,211.33
3.6239,128.181185,37.906968,4086.5127312,151.473,-10.996,211.367
3.6406,128.181171,37.906937,4086.4569528,151.581,-11.25,211.407
3.6573,128.181156,37.906906,4086.3883728,151.684,-11.502,211.449
3.674,128.181141,37.906875,4086.3076008000003,151.781,-11.753,211.493
3.6907,128.181126,37.906844,4086.2140272,151.872,-12.002,211.538
3.7074,128.181111,37.906813,4086.1079568,151.957,-12.25,211.583
3.7241,128.181095,37.906782,4085.9890848000005,152.035,-12.497,211.629
3.7408,128.18108,37.906752,4085.8580208000003,152.107,-12.744,211.676
3.7575,128.181065,37.906721,4085.7144600000006,152.174,-12.989,211.723
3.7742,128.18105,37.90669,4085.5580976,152.235,-13.234,211.769
3.7909,128.181034,37.906659,4085.3892384,152.292,-13.479,211.817
3.8076,128.181019,37.906629,4085.2078824000005,152.344,-13.723,211.864
3.8243,128.181004,37.906598,4085.0140296000004,152.392,-13.966,211.911
3.841,128.180988,37.906568,4084.8073752000005,152.437,-14.208,211.959
3.8577,128.180973,37.906537,4084.5885288,152.478,-14.451,212.006
3.8744,128.180957,37.906507,4084.3568808,152.517,-14.692,212.054
3.8911,128.180941,37.906476,4084.1130408000004,152.554,-14.933,212.102
3.9078,128.180926,37.906446,4083.8563992,152.589,-15.173,212.15
3.9245,128.18091,37.906415,4083.5872608,152.622,-15.413,212.198
3.9412,128.180894,37.906385,4083.3053208,152.654,-15.653,212.246
3.9579,128.180878,37.906355,4083.0111888,152.686,-15.891,212.295
3.9746,128.180862,37.906325,4082.7042552000003,152.716,-16.13,212.344
3.9913,128.180846,37.906294,4082.3848248,152.747,-16.367,212.393
4.008,128.180831,37.906264,4082.0528976,152.777,-16.604,212.443
4.0247,128.180815,37.906234,4081.7081688000003,152.807,-16.841,212.492
4.0414,128.180798,37.906204,4081.3509432,152.838,-17.077,212.542
4.058,128.180782,37.906174,4080.9812208000003,152.868,-17.313,212.592
4.0748,128.180766,37.906144,4080.5986968,152.9,-17.548,212.643
4.0915,128.18075,37.906114,4080.2036760000005,152.931,-17.783,212.694
4.1082,128.180734,37.906084,4079.7961584,152.964,-18.017,212.745
4.1249,128.180717,37.906054,4079.3758392000004,152.997,-18.25,212.796
4.1415,128.180701,37.906025,4078.9427184,153.031,-18.484,212.848
4.1583,128.180685,37.905995,4078.4971008,153.065,-18.716,212.9
4.175,128.180668,37.905965,4078.0389864000003,153.101,-18.949,212.952
4.1917,128.180652,37.905936,4077.5680704,153.137,-19.181,213.005
4.2084,128.180635,37.905906,4077.0843528000005,153.175,-19.412,213.057
4.2251,128.180619,37.905877,4076.5881384,153.213,-19.643,213.111
4.2417,128.180602,37.905847,4076.0791224,153.252,-19.874,213.164
4.2585,128.180586,37.905818,4075.5576096000004,153.292,-20.104,213.218
4.2752,128.180569,37.905788,4075.0229904000003,153.332,-20.335,213.272
4.2919,128.180552,37.905759,4074.4758744,153.373,-20.564,213.326
4.3086,128.180536,37.90573,4073.9162616000003,153.415,-20.794,213.38
4.3252,128.180519,37.9057,4073.3435424,153.458,-21.023,213.435
4.342,128.180502,37.905671,4072.7583264,153.501,-21.252,213.49
4.3587,128.180485,37.905642,4072.1603088,153.545,-21.48,213.546
4.3754,128.180468,37.905613,4071.5494896000005,153.589,-21.708,213.601
4.3921,128.180451,37.905584,4070.9261736000003,153.634,-21.937,213.657
4.4088,128.180434,37.905555,4070.290056,153.679,-22.164,213.713
4.4254,128.180417,37.905526,4069.6411368000004,153.724,-22.392,213.769
4.4422,128.1804,37.905497,4068.979416,153.77,-22.619,213.826
4.4589,128.180383,37.905468,4068.3048936000005,153.816,-22.847,213.882
4.4756,128.180366,37.905439,4067.6178744,153.862,-23.074,213.939
4.4923,128.180349,37.905411,4066.9180536,153.908,-23.3,213.997
4.5089,128.180332,37.905382,4066.2054312,153.954,-23.527,214.054
4.5256,128.180315,37.905353,4065.4800072000003,154.0,-23.754,214.112
4.5424,128.180298,37.905325,4064.7417816,154.047,-23.98,214.17
4.5591,128.18028,37.905296,4063.9910592,154.093,-24.206,214.228
4.5758,128.180263,37.905268,4063.2275352000006,154.139,-24.432,214.286
4.5925,128.180246,37.905239,4062.4512096000003,154.185,-24.658,214.344
4.6091,128.180228,37.905211,4061.6620824,154.23,-24.884,214.403
4.6259,128.180211,37.905183,4060.8604584,154.276,-25.11,214.462
4.6426,128.180194,37.905154,4060.0460328000004,154.321,-25.336,214.521
4.6593,128.180176,37.905126,4059.2188056000005,154.366,-25.561,214.581
4.676,128.180159,37.905098,4058.3790816,154.41,-25.787,214.64
4.6927,128.180141,37.90507,4057.5262512,154.454,-26.012,214.7
4.7093,128.180124,37.905042,4056.6612288,154.498,-26.237,214.76
4.7261,128.180106,37.905014,4055.7834048000004,154.541,-26.463,214.82
4.7428,128.180089,37.904986,4054.8927792,154.584,-26.688,214.881
4.7595,128.180071,37.904958,4053.989352,154.627,-26.913,214.941
4.7762,128.180053,37.90493,4053.0734280000006,154.668,-27.138,215.002
4.7928,128.180036,37.904903,4052.1450072000002,154.71,-27.363,215.063
4.8096,128.180018,37.904875,4051.2037848000004,154.751,-27.588,215.124
4.8263,128.18,37.904847,4050.2500656,154.791,-27.813,215.186
4.843,128.179983,37.90482,4049.2835448,154.831,-28.038,215.248
4.8597,128.179965,37.904792,4048.3060511999997,154.912,-28.264,215.306
4.8764,128.179947,37.904765,4047.3175848000005,155.032,-28.491,215.362
4.893,128.179929,37.904737,4046.3184504,155.191,-28.72,215.416
4.9098,128.179911,37.90471,4045.3095624000002,155.389,-28.949,215.468
4.9265,128.179894,37.904683,4044.2909208,155.623,-29.178,215.519
4.9432,128.179876,37.904655,4043.2619160000004,155.887,-29.408,215.568
4.9599,128.179858,37.904628,4042.2222432000003,156.178,-29.638,215.617
4.9765,128.17984,37.904601,4041.1715976,156.49,-29.868,215.665
4.9932,128.179822,37.904574,4040.1099792,156.818,-30.097,215.713
5.01,128.179804,37.904547,4039.0367784000005,157.158,-30.327,215.759
5.0267,128.179786,37.90452,4037.9519952,157.505,-30.555,215.805
5.0434,128.179768,37.904493,4036.85502,157.856,-30.784,215.85
5.0601,128.17975,37.904466,4035.7461576000005,158.205,-31.012,215.894
5.0767,128.179732,37.904439,4034.6251032000005,158.55,-31.239,215.937
5.0935,128.179714,37.904412,4033.491552,158.888,-31.466,215.979
5.1102,128.179696,37.904385,4032.345504,159.216,-31.693,216.02
5.1269,128.179678,37.904359,4031.1869592000003,159.533,-31.92,216.059
5.1436,128.17966,37.904332,4030.0156128,159.835,-32.147,216.097
5.1602,128.179642,37.904306,4028.8314648,160.122,-32.374,216.134
5.1769,128.179624,37.904279,4027.6345152,160.393,-32.601,216.17
5.1937,128.179606,37.904253,4026.4247640000003,160.647,-32.829,216.204
5.2104,128.179588,37.904226,4025.2022112,160.883,-33.056,216.237
5.2271,128.17957,37.9042,4023.9668568,161.101,-33.284,216.269
5.2438,128.179552,37.904174,4022.7187008000005,161.301,-33.513,216.3
5.2604,128.179534,37.904148,4021.4577432,161.483,-33.742,216.329
5.2772,128.179516,37.904122,4020.1839840000002,161.649,-33.971,216.358
5.2939,128.179498,37.904096,4018.8974232000005,161.798,-34.201,216.386
5.3106,128.17948,37.90407,4017.5983656000003,161.93,-34.431,216.413
5.3273,128.179462,37.904044,4016.2865064000002,162.048,-34.661,216.439
5.3439,128.179444,37.904018,4014.9621504,162.15,-34.892,216.465
5.3606,128.179426,37.903992,4013.6252976,162.24,-35.123,216.49
5.3774,128.179408,37.903966,4012.2759480000004,162.316,-35.355,216.514
5.3941,128.179389,37.903941,4010.9141016,162.381,-35.587,216.538
5.4108,128.179371,37.903915,4009.5397584,162.435,-35.819,216.562
5.4275,128.179353,37.903889,4008.1532232000004,162.479,-36.052,216.586
5.4441,128.179335,37.903864,4006.7544960000005,162.514,-36.285,216.61
5.4609,128.179317,37.903839,4005.3435768,162.542,-36.518,216.633
5.4776,128.179299,37.903813,4003.9201608,162.562,-36.751,216.657
5.4943,128.179281,37.903788,4002.4848576000004,162.576,-36.984,216.681
5.511,128.179263,37.903763,4001.0370576000005,162.584,-37.217,216.705
5.5277,128.179245,37.903738,3999.5776752,162.588,-37.45,216.73
5.5443,128.179227,37.903713,3998.1057960000003,162.588,-37.684,216.755
5.5611,128.179209,37.903688,3996.6220296,162.585,-37.917,216.781
5.5778,128.179191,37.903663,3995.1263760000006,162.58,-38.149,216.809
5.5945,128.179173,37.903638,3993.6188352000004,162.574,-38.382,216.839
5.6112,128.179155,37.903613,3992.0991024000004,162.566,-38.614,216.869
5.6278,128.179137,37.903588,3990.5677872000006,162.556,-38.846,216.901
5.6445,128.179119,37.903563,3989.02428,162.546,-39.077,216.934
5.6613,128.179101,37.903539,3987.4691904,162.535,-39.309,216.968
5.678,128.179083,37.903514,3985.9019088,162.523,-39.54,217.003
5.6947,128.179065,37.90349,3984.3230448,162.511,-39.771,217.038
5.7114,128.179047,37.903465,3982.7322936000005,162.499,-40.002,217.075
5.728,128.179029,37.903441,3981.12996,162.487,-40.232,217.112
5.7448,128.179011,37.903417,3979.5154344000002,162.475,-40.463,217.15
5.7615,128.178993,37.903392,3977.8896312,162.464,-40.693,217.189
5.7782,128.178975,37.903368,3976.2519408000003,162.453,-40.923,217.228
5.7949,128.178957,37.903344,3974.6023632,162.443,-41.153,217.269
5.8115,128.178939,37.90332,3972.9412032000005,162.434,-41.382,217.31
5.8282,128.178921,37.903296,3971.2684608,162.426,-41.612,217.352
5.845,128.178903,37.903272,3969.5838312,162.418,-41.841,217.394
5.8617,128.178885,37.903249,3967.887924,162.412,-42.07,217.437
5.8784,128.178867,37.903225,3966.1801296000003,162.406,-42.299,217.482
5.8951,128.17885,37.903201,3964.4607528,162.401,-42.528,217.526
5.9117,128.178832,37.903178,3962.7297936000004,162.397,-42.756,217.572
5.9285,128.178814,37.903154,3960.9872520000004,162.394,-42.985,217.618
5.9452,128.178796,37.903131,3959.2334328000006,162.391,-43.213,217.665
5.9619,128.178778,37.903107,3957.4677264,162.39,-43.441,217.713
5.9786,128.17876,37.903084,3955.6907424,162.389,-43.669,217.761
5.9952,128.178743,37.903061,3953.9018712,162.388,-43.897,217.81
6.0119,128.178725,37.903037,3952.1020272,162.388,-44.125,217.86
6.0287,128.178707,37.903014,3950.290296,162.389,-44.352,217.91
6.0454,128.178689,37.902991,3948.4672872000006,162.39,-44.58,217.961
6.0621,128.178672,37.902968,3946.6330008000004,162.391,-44.808,218.013
6.0788,128.178654,37.902946,3944.7871320000004,162.393,-45.035,218.065
6.0954,128.178636,37.902923,3942.9296808,162.394,-45.262,218.118
6.1121,128.178619,37.9029,3941.0612568,162.396,-45.49,218.172
6.1289,128.178601,37.902877,3939.1812504000004,162.398,-45.717,218.226
6.1456,128.178583,37.902855,3937.2896616000003,162.399,-45.944,218.281
6.1623,128.178566,37.902832,3935.3871000000004,162.401,-46.171,218.337
6.179,128.178548,37.90281,3933.4732608,162.402,-46.398,218.393
6.1956,128.17853,37.902787,3931.5481440000003,162.403,-46.625,218.45
6.2124,128.178513,37.902765,3929.6117496,162.403,-46.852,218.508
6.2291,128.178495,37.902743,3927.6640776000004,162.403,-47.079,218.566
6.2458,128.178478,37.902721,3925.7051280000005,162.403,-47.306,218.625
6.2625,128.17846,37.902699,3923.7352056000004,162.402,-47.533,218.684
6.2791,128.178443,37.902677,3921.7540056000003,162.4,-47.76,218.745
6.2958,128.178425,37.902655,3919.7618328000003,162.397,-47.987,218.805
6.3126,128.178408,37.902633,3917.7583824000003,162.394,-48.214,218.867
6.3293,128.178391,37.902611,3915.7439592,162.39,-48.441,218.929
6.346,128.178373,37.90259,3913.7185632,162.385,-48.668,218.992
6.3627,128.178356,37.902568,3911.6818896000004,162.379,-48.895,219.055
6.3793,128.178338,37.902547,3909.6345480000004,162.373,-49.122,219.119
6.3961,128.178321,37.902525,3907.5759288,162.365,-49.349,219.184
6.4128,128.178304,37.902504,3905.5066416000004,162.356,-49.576,219.25
6.4295,128.178287,37.902483,3903.4263816000002,162.347,-49.803,219.316
6.4462,128.178269,37.902462,3901.3351488000003,162.336,-50.03,219.383
6.4628,128.178252,37.90244,3899.2332480000005,162.324,-50.257,219.451
6.4795,128.178235,37.902419,3897.1203744,162.312,-50.484,219.519
6.4963,128.178218,37.902398,3894.9968328000004,162.298,-50.711,219.588
6.513,128.178201,37.902378,3892.8626232,162.283,-50.938,219.658
6.5297,128.178183,37.902357,3890.7174408,162.267,-51.165,219.729
6.5464,128.178166,37.902336,3888.5618952,162.25,-51.392,219.8
6.5631,128.178149,37.902316,3886.3953768,162.232,-51.619,219.873
6.5798,128.178132,37.902295,3884.2181904,162.212,-51.846,219.946
6.5965,128.178115,37.902275,3882.0306408,162.192,-52.073,220.02
6.6132,128.178098,37.902254,3879.8324232000004,162.17,-52.3,220.094
6.6299,128.178081,37.902234,3877.6238424,162.147,-52.527,220.17
6.6466,128.178064,37.902214,3875.4045936,162.123,-52.754,220.246
6.6633,128.178048,37.902194,3873.1746768000003,162.097,-52.981,220.323
6.68,128.178031,37.902174,3870.9347016,162.071,-53.208,220.402
6.6967,128.178014,37.902154,3868.6840584,162.043,-53.435,220.481
6.7134,128.177997,37.902134,3866.423052,162.014,-53.662,220.561
6.7301,128.17798,37.902114,3864.1516824000005,161.983,-53.889,220.641
6.7468,128.177964,37.902094,3861.8702544000002,161.952,-54.116,220.723
6.7635,128.177947,37.902075,3859.5781584,161.919,-54.342,220.806
6.7802,128.17793,37.902055,3857.2763088,161.885,-54.569,220.89
6.7969,128.177914,37.902036,3854.9637912000003,161.85,-54.796,220.975
6.8136,128.177897,37.902016,3852.64152,161.813,-55.023,221.06
6.8303,128.17788,37.901997,3850.3088856,161.776,-55.25,221.147
6.847,128.177864,37.901978,3847.9661928,161.736,-55.477,221.235
6.8637,128.177847,37.901959,3845.6131368,161.696,-55.703,221.324
6.8804,128.177831,37.90194,3843.2503272000004,161.654,-55.93,221.414
6.8971,128.177815,37.901921,3840.8774592000004,161.611,-56.157,221.505
6.9138,128.177798,37.901902,3838.4948375999998,161.566,-56.383,221.598
6.9305,128.177782,37.901883,3836.1021576000003,161.521,-56.61,221.691
6.9472,128.177765,37.901865,3833.6994192000006,161.473,-56.837,221.786
6.9639,128.177749,37.901846,3831.2869272000003,161.425,-57.063,221.882
6.9806,128.177733,37.901828,3828.8646816,161.375,-57.29,221.979
6.9973,128.177717,37.901809,3826.4326824000004,161.323,-57.516,222.077
7.014,128.177701,37.901791,3823.9909296,161.271,-57.742,222.177
7.0307,128.177684,37.901773,3821.5394232000003,161.216,-57.969,222.278
7.0474,128.177668,37.901754,3819.0781632000003,161.16,-58.195,222.38
7.0641,128.177652,37.901736,3816.6071496,161.103,-58.421,222.484
7.0808,128.177636,37.901718,3814.1266872000006,161.044,-58.647,222.589
7.0975,128.17762,37.901701,3811.6367760000003,160.983,-58.874,222.695
7.1142,128.177604,37.901683,3809.1371112,160.921,-59.1,222.803
7.1309,128.177588,37.901665,3806.6279976,160.857,-59.326,222.913
7.1476,128.177573,37.901647,3804.1094352000005,160.792,-59.551,223.023
7.1643,128.177557,37.90163,3801.5817288,160.725,-59.777,223.136
7.181,128.177541,37.901613,3799.0442688000003,160.656,-60.003,223.25
7.1977,128.177525,37.901595,3796.4976647999997,160.585,-60.229,223.365
7.2144,128.177509,37.901578,3793.9416120000005,160.513,-60.454,223.482
7.2311,128.177494,37.901561,3791.3764152,160.439,-60.68,223.601
7.2478,128.177478,37.901544,3788.8020744,160.363,-60.905,223.722
7.2645,128.177463,37.901527,3786.2182848,160.285,-61.131,223.844
7.2812,128.177447,37.90151,3783.625656,160.206,-61.356,223.968
7.2979,128.177432,37.901493,3781.0235784000006,160.124,-61.581,224.094
7.3146,128.177416,37.901476,3778.4126616000003,160.041,-61.806,224.221
7.3313,128.177401,37.90146,3775.7926008000004,159.955,-62.031,224.351
7.348,128.177385,37.901443,3773.1637008000002,159.867,-62.256,224.483
7.3647,128.17737,37.901427,3770.5256568,159.778,-62.48,224.616
7.3814,128.177355,37.901411,3767.8787736000004,159.686,-62.705,224.752
7.3981,128.17734,37.901394,3765.2230512,159.592,-62.93,224.889
7.4148,128.177324,37.901378,3762.5584896000005,159.495,-63.154,225.029
7.4315,128.177309,37.901362,3759.8850888,159.396,-63.378,225.171
7.4482,128.177294,37.901346,3757.2031536,159.295,-63.602,225.315
7.4649,128.177279,37.90133,3754.5120744,159.192,-63.826,225.462
7.4816,128.177264,37.901315,3751.8127656,159.086,-64.05,225.611
7.4983,128.177249,37.901299,3749.1046176,158.977,-64.274,225.762
7.515,128.177234,37.901283,3746.3876304000005,158.866,-64.497,225.916
7.5317,128.177219,37.901268,3743.6624136,158.752,-64.721,226.072
7.5484,128.177204,37.901252,3740.9286624000006,158.636,-64.944,226.231
7.5651,128.17719,37.901237,3738.1863768000003,158.517,-65.167,226.392
7.5818,128.177175,37.901222,3735.4355568,158.395,-65.39,226.556
7.5985,128.17716,37.901207,3732.6765072000003,158.269,-65.613,226.723
7.6152,128.177146,37.901192,3729.9089232,158.141,-65.835,226.893
7.6319,128.177131,37.901177,3727.1334144,158.01,-66.058,227.066
7.6486,128.177117,37.901162,3724.3493712000004,157.876,-66.28,227.242
7.6653,128.177102,37.901147,3721.5570984000005,157.739,-66.502,227.42
7.682,128.177088,37.901133,3718.756596,157.598,-66.724,227.603
7.6987,128.177073,37.901118,3715.9481688000005,157.454,-66.945,227.788
7.7154,128.177059,37.901104,3713.1315120000004,157.306,-67.167,227.977
7.7321,128.177045,37.90109,3710.3066256,157.155,-67.388,228.169
7.7488,128.17703,37.901075,3707.4741192000006,157.0,-67.609,228.365
7.7655,128.177016,37.901061,3704.6333832,156.841,-67.83,228.564
7.7822,128.177002,37.901047,3701.7847224,156.678,-68.05,228.767
7.7989,128.176988,37.901033,3698.9281368,156.512,-68.27,228.974
7.8156,128.176974,37.901019,3696.0639312,156.341,-68.49,229.185
7.8323,128.17696,37.901006,3693.1918008000002,156.166,-68.71,229.401
7.849,128.176946,37.900992,3690.3120504000003,155.987,-68.929,229.62
7.8657,128.176932,37.900978,3687.4243752,155.803,-69.149,229.844
7.8824,128.176919,37.900965,3684.5293848000006,155.614,-69.367,230.072
7.8991,128.176905,37.900952,3681.6264696,155.421,-69.586,230.305
7.9158,128.176891,37.900938,3678.7159344,155.223,-69.804,230.542
7.9325,128.176877,37.900925,3675.798084,155.02,-70.022,230.785
7.9492,128.176864,37.900912,3672.8726136,154.812,-70.24,231.032
7.9659,128.17685,37.900899,3669.9398280000005,154.598,-70.457,231.285
7.9826,128.176837,37.900886,3666.9997272,154.379,-70.674,231.543
7.9993,128.176823,37.900874,3664.0520064,154.155,-70.891,231.807
8.016,128.17681,37.900861,3661.0972752000002,153.924,-71.107,232.076
8.0327,128.176797,37.900848,3658.134924,153.687,-71.323,232.352
8.0494,128.176783,37.900836,3655.1655624000005,153.445,-71.538,232.633
8.0661,128.17677,37.900823,3652.1891904,153.195,-71.753,232.921
8.0828,128.176757,37.900811,3649.2055032000003,152.94,-71.967,233.215
8.0994,128.176744,37.900799,3646.2148056000005,152.677,-72.181,233.517
8.1161,128.176731,37.900787,3643.2170976,152.407,-72.395,233.825
8.1329,128.176718,37.900775,3640.2123792,152.13,-72.608,234.14
8.1496,128.176705,37.900763,3637.2006504,151.845,-72.821,234.463
8.1663,128.176692,37.900751,3634.1819112000003,151.553,-73.033,234.793
8.183,128.176679,37.90074,3631.1567712000005,151.252,-73.244,235.132
8.1997,128.176667,37.900728,3628.1243160000004,150.943,-73.455,235.479
8.2164,128.176654,37.900717,3625.0854600000002,150.625,-73.666,235.834
8.2331,128.176641,37.900705,3622.0398984000003,150.298,-73.875,236.199
8.2498,128.176629,37.900694,3618.9873264,149.962,-74.085,236.572
8.2665,128.176616,37.900683,3615.9283536,149.616,-74.293,236.955
8.2831,128.176604,37.900672,3612.8629800000003,149.261,-74.501,237.348
8.2998,128.176591,37.900661,3609.7909008000006,148.895,-74.708,237.752
8.3166,128.176579,37.90065,3606.7124208000005,148.518,-74.914,238.166
8.3333,128.176567,37.900639,3603.62754,148.13,-75.12,238.591
8.35,128.176555,37.900629,3600.5362584,147.73,-75.325,239.027
8.3667,128.176542,37.900618,3597.4385760000005,147.319,-75.529,239.476
8.3834,128.17653,37.900608,3594.3347976,146.895,-75.732,239.936
8.4001,128.176518,37.900597,3591.2246184,146.458,-75.934,240.41
8.4168,128.176506,37.900587,3588.1083432,146.007,-76.135,240.897
8.4335,128.176494,37.900577,3584.9856672,145.543,-76.335,241.398
8.4502,128.176483,37.900567,3581.8572000000004,145.064,-76.534,241.913
8.4668,128.176471,37.900557,3578.7226368,144.57,-76.733,242.444
8.4835,128.176459,37.900547,3575.5819776000003,144.06,-76.93,242.989
8.5003,128.176447,37.900538,3572.4355272000003,143.534,-77.125,243.551
8.517,128.176436,37.900528,3569.2829808,142.992,-77.32,244.13
8.5337,128.176424,37.900518,3566.124948,142.431,-77.513,244.727
8.5504,128.176413,37.900509,3562.9608192000005,141.853,-77.705,245.341
8.5671,128.176401,37.9005,3559.7908992,141.255,-77.896,245.975
8.5838,128.17639,37.900491,3556.6154928,140.637,-78.085,246.628
8.6005,128.176379,37.900482,3553.4342952,139.999,-78.272,247.302
8.6172,128.176368,37.900473,3550.2476112,139.34,-78.458,247.997
8.6339,128.176356,37.900464,3547.055136,138.658,-78.642,248.714
8.6505,128.176345,37.900455,3543.8574792,137.953,-78.825,249.454
8.6672,128.176334,37.900446,3540.654336,137.225,-79.005,250.218
8.684,128.176323,37.900438,3537.4454016,136.471,-79.184,251.007
8.7007,128.176313,37.900429,3534.2315904,135.692,-79.361,251.822
8.7174,128.176302,37.900421,3531.0122928,134.885,-79.535,252.663
8.7341,128.176291,37.900413,3527.7875088,134.051,-79.707,253.532
8.7508,128.17628,37.900404,3524.5578480000004,133.188,-79.877,254.43
8.7675,128.17627,37.900396,3521.3230056,132.295,-80.044,255.358
8.7842,128.176259,37.900388,3518.0829816,131.371,-80.208,256.317
8.8009,128.176249,37.900381,3514.8377760000003,130.415,-80.37,257.307
8.8176,128.176238,37.900373,3511.5876936000004,129.426,-80.529,258.331
8.8342,128.176228,37.900365,3508.3327344000004,128.403,-80.685,259.388
8.8509,128.176218,37.900358,3505.0728984,127.345,-80.838,260.481
8.8676,128.176207,37.90035,3501.8081856,126.251,-80.987,261.61
8.8844,128.176197,37.900343,3498.5385960000003,125.119,-81.132,262.775
8.9011,128.176187,37.900336,3495.2644344,123.95,-81.274,263.978
8.9178,128.176177,37.900329,3491.9853960000005,122.742,-81.413,265.221
8.9345,128.176167,37.900322,3488.7017855999998,121.495,-81.547,266.502
8.9512,128.176157,37.900315,3485.4136032000006,120.207,-81.676,267.823
8.9679,128.176148,37.900308,3482.1208488000007,118.879,-81.801,269.185
8.9846,128.176138,37.900302,3478.8235224,117.51,-81.922,270.588
9.0013,128.176128,37.900295,3475.5219288,116.1,-82.038,272.032
9.0179,128.176119,37.900289,3472.2157632,114.649,-82.148,273.517
9.0346,128.176109,37.900282,3468.9053304000004,113.157,-82.253,275.042
9.0513,128.1761,37.900276,3465.5906304000005,111.625,-82.353,276.608
9.0681,128.17609,37.90027,3462.271968,110.053,-82.447,278.214
9.0848,128.176081,37.900264,3458.9487336,108.442,-82.535,279.858
9.1015,128.176072,37.900258,3455.6215368000003,106.794,-82.617,281.539
9.1182,128.176062,37.900252,3452.2903776000003,105.111,-82.692,283.256
9.1349,128.176053,37.900246,3448.9549512,103.393,-82.761,285.007
9.1516,128.176044,37.900241,3445.6158672,101.644,-82.823,286.789
9.1683,128.176035,37.900235,3442.2728208000003,99.867,-82.878,288.6
9.185,128.176026,37.90023,3438.9258120000004,98.063,-82.926,290.436
9.2016,128.176018,37.900225,3435.5748408,96.237,-82.966,292.296
9.2183,128.176009,37.900219,3432.220212,94.391,-82.999,294.175
9.235,128.176,37.900214,3428.8619256,92.53,-83.025,296.069
9.2518,128.175992,37.900209,3425.4999816,90.656,-83.043,297.975
9.2685,128.175983,37.900205,3422.1346848000003,88.776,-83.054,299.888
9.2852,128.175975,37.9002,3418.7654256000005,86.891,-83.057,301.805
9.3019,128.175966,37.900195,3415.3931184000003,85.008,-83.052,303.721
9.3186,128.175958,37.900191,3412.0171536,83.129,-83.04,305.633
9.3353,128.17595,37.900186,3408.6375312,81.26,-83.02,307.535
9.352,128.175942,37.900182,3405.2548608,79.403,-82.993,309.424
9.3687,128.175933,37.900178,3401.8691424,77.563,-82.958,311.296
9.3854,128.175925,37.900174,3398.4797664000002,75.743,-82.915,313.148
9.402,128.175917,37.90017,3395.0873424,73.948,-82.866,314.976
9.4187,128.17591,37.900166,3391.6921752000003,72.179,-82.81,316.777
9.4355,128.175902,37.900162,3388.2936552000006,70.44,-82.746,318.549
9.4522,128.175894,37.900159,3384.8920872000003,68.733,-82.676,320.288
9.4689,128.175886,37.900155,3381.4874712000005,67.06,-82.6,321.992
9.4856,128.175879,37.900152,3378.080112,65.424,-82.517,323.661
9.5023,128.175871,37.900148,3374.6700096000004,63.825,-82.428,325.291
9.519,128.175864,37.900145,3371.2568592000002,62.265,-82.334,326.883
9.5357,128.175857,37.900142,3367.8412704,60.745,-82.233,328.435
9.5524,128.175849,37.900139,3364.4229384,59.265,-82.127,329.947
9.5691,128.175842,37.900136,3361.0018632,57.824,-82.017,331.419
9.5857,128.175835,37.900133,3357.5783496,56.424,-81.901,332.851
9.6024,128.175828,37.900131,3354.1520928,55.062,-81.781,334.243
9.6192,128.175821,37.900128,3350.7237024,53.739,-81.657,335.595
9.6359,128.175814,37.900126,3347.2925688000005,52.455,-81.528,336.91
9.6526,128.175807,37.900123,3343.8593016,51.208,-81.396,338.186
9.6693,128.175801,37.900121,3340.423596,49.998,-81.26,339.425
9.686,128.175794,37.900119,3336.9857568,48.823,-81.12,340.628
9.7027,128.175787,37.900117,3333.5457840000004,47.684,-80.977,341.795
9.7194,128.175781,37.900115,3330.1036776,46.578,-80.831,342.929
9.7361,128.175775,37.900113,3326.6594376,45.506,-80.682,344.029
9.7528,128.175768,37.900111,3323.213064,44.465,-80.531,345.097
9.7694,128.175762,37.90011,3319.7648616,43.455,-80.376,346.133
9.7861,128.175756,37.900108,3316.3148304000006,42.475,-80.219,347.14
9.8029,128.17575,37.900107,3312.8626656,41.524,-80.06,348.118
9.8196,128.175744,37.900106,3309.4089768,40.6,-79.898,349.069
9.8363,128.175738,37.900104,3305.9534592,39.702,-79.735,349.992
9.853,128.175732,37.900103,3302.4964176,38.83,-79.569,350.891
9.8697,128.175726,37.900102,3299.0375472,37.983,-79.402,351.764
9.8864,128.17572,37.900102,3295.5771528000005,37.158,-79.233,352.615
9.9031,128.175715,37.900101,3292.1149296000003,36.356,-79.062,353.444
9.9198,128.175709,37.9001,3288.6517920000006,35.575,-78.89,354.251
9.9365,128.175704,37.9001,3285.1868256000002,34.814,-78.716,355.038
9.9531,128.175698,37.900099,3281.72064,34.072,-78.541,355.806
9.9698,128.175693,37.900099,3278.2532352000003,33.35,-78.364,356.555
9.9865,128.175688,37.900099,3274.7846112,32.646,-78.186,357.285
10.0033,128.175682,37.900099,3271.314768,31.961,-78.007,357.999
10.02,128.175677,37.900099,3267.8437056000002,31.293,-77.827,358.695
10.0367,128.175672,37.900099,3264.3717288,30.642,-77.646,359.375
10.0534,128.175667,37.900099,3260.8985328000003,30.008,-77.463,0.039
10.0701,128.175662,37.9001,3257.4244224,29.391,-77.28,0.687
10.0868,128.175658,37.9001,3253.9497024,28.789,-77.095,1.321
10.1035,128.175653,37.900101,3250.4737632,28.202,-76.909,1.941
10.1202,128.175648,37.900101,3246.9972144000003,27.631,-76.722,2.546
10.1368,128.175644,37.900102,3243.520056,27.074,-76.534,3.138
10.1535,128.175639,37.900103,3240.042288,26.532,-76.346,3.717
10.1702,128.175635,37.900104,3236.5636056000003,26.004,-76.156,4.283
10.187,128.175631,37.900105,3233.0846184,25.49,-75.965,4.836
10.2037,128.175627,37.900106,3229.6053263999997,24.99,-75.774,5.377
10.2204,128.175623,37.900108,3226.1254248,24.504,-75.581,5.906
10.2371,128.175618,37.900109,3222.6449136,24.033,-75.388,6.422
10.2538,128.175615,37.900111,3219.1644024,23.576,-75.193,6.925
10.2705,128.175611,37.900112,3215.6835864,23.136,-74.997,7.415
10.2872,128.175607,37.900114,3212.2027704,22.711,-74.8,7.891
10.3039,128.175603,37.900116,3208.7216496,22.304,-74.602,8.354
10.3205,128.1756,37.900118,3205.2405288,21.914,-74.403,8.801
10.3372,128.175596,37.90012,3201.759408,21.543,-74.202,9.234
10.3539,128.175593,37.900122,3198.2782872000002,21.19,-74.001,9.652
10.3707,128.175589,37.900125,3194.7971664,20.856,-73.797,10.055
10.3874,128.175586,37.900127,3191.3166552000002,20.541,-73.593,10.441
10.4041,128.175583,37.90013,3187.8361440000003,20.247,-73.387,10.812
10.4208,128.17558,37.900132,3184.3559376,19.971,-73.179,11.167
10.4375,128.175577,37.900135,3180.876036,19.716,-72.97,11.505
10.4542,128.175574,37.900138,3177.3967440000006,19.48,-72.76,11.827
10.4709,128.175571,37.900141,3173.9180616000003,19.264,-72.548,12.132
10.4876,128.175568,37.900144,3170.439684,19.067,-72.335,12.42
10.5042,128.175566,37.900147,3166.961916,18.889,-72.12,12.692
10.5209,128.175563,37.900151,3163.4850624000005,18.73,-71.904,12.947
10.5376,128.175561,37.900154,3160.0091232000004,18.587,-71.686,13.186
10.5544,128.175558,37.900157,3156.5337936,18.46,-71.467,13.41
10.5711,128.175556,37.900161,3153.0593784000002,18.348,-71.246,13.62
10.5878,128.175554,37.900165,3149.5858776000005,18.247,-71.025,13.816
10.6045,128.175552,37.900169,3146.113596,18.158,-70.802,13.999
10.6212,128.17555,37.900173,3142.6422288,18.079,-70.578,14.17
10.6379,128.175548,37.900177,3139.1720808,18.007,-70.353,14.331
10.6546,128.175546,37.900181,3135.703152,17.942,-70.127,14.481
10.6713,128.175544,37.900185,3132.2354424,17.881,-69.9,14.622
10.6879,128.175543,37.90019,3128.7692568,17.824,-69.672,14.755
10.7046,128.175541,37.900194,3125.3042904,17.769,-69.443,14.88
10.7213,128.17554,37.900199,3121.8405432,17.715,-69.214,14.999
10.7381,128.175538,37.900203,3118.3783200000003,17.66,-68.984,15.114
10.7548,128.175537,37.900208,3114.9176208000003,17.602,-68.754,15.224
10.7715,128.175536,37.900213,3111.4584456000002,17.54,-68.524,15.332
10.7882,128.175535,37.900218,3108.0010991999998,17.473,-68.293,15.438
10.8049,128.175534,37.900223,3104.544972,17.4,-68.063,15.544
10.8216,128.175533,37.900229,3101.0906736,17.318,-67.832,15.649
10.8383,128.175532,37.900234,3097.638204,17.229,-67.602,15.756
10.855,128.175531,37.900239,3094.1872584,17.13,-67.372,15.865
10.8717,128.175531,37.900245,3090.7381416000003,17.023,-67.143,15.977
10.8883,128.17553,37.900251,3087.2908536,16.905,-66.914,16.091
10.905,128.175529,37.900256,3083.8453944,16.777,-66.686,16.209
10.9218,128.175529,37.900262,3080.4020688000005,16.639,-66.459,16.332
10.9385,128.175529,37.900268,3076.9602672,16.49,-66.232,16.459
10.9552,128.175528,37.900274,3073.5205992,16.331,-66.006,16.591
10.9719,128.175528,37.90028,3070.0830648,16.162,-65.781,16.728
10.9886,128.175528,37.900287,3066.6473592,15.985,-65.557,16.87
11.0053,128.175528,37.900293,3063.2137872000003,15.8,-65.334,17.015
11.022,128.175528,37.900299,3059.7826536,15.611,-65.111,17.163
11.0387,128.175528,37.900306,3056.3533488000003,15.419,-64.891,17.312
11.0554,128.175529,37.900313,3052.9264824,15.228,-64.674,17.46
11.072,128.175529,37.900319,3049.5017496,15.04,-64.464,17.604
11.0887,128.175529,37.900326,3046.0797600000005,14.858,-64.262,17.743
11.1054,128.17553,37.900333,3042.6595992,14.683,-64.068,17.877
11.1222,128.175531,37.90034,3039.2421816,14.516,-63.883,18.004
11.1389,128.175531,37.900347,3035.8272024000003,14.359,-63.707,18.123
11.1556,128.175532,37.900355,3032.4149664,14.212,-63.541,18.234
11.1723,128.175533,37.900362,3029.0048640000005,14.075,-63.384,18.338
11.189,128.175534,37.900369,3025.5975048,13.947,-63.236,18.435
11.2057,128.175535,37.900377,3022.1928888,13.829,-63.097,18.524
11.2224,128.175536,37.900385,3018.7907112000003,13.718,-62.967,18.607
11.2391,128.175537,37.900392,3015.390972,13.616,-62.844,18.684
11.2557,128.175538,37.9004,3011.993976,13.522,-62.729,18.755
11.2724,128.175539,37.900408,3008.5997232000004,13.433,-62.621,18.82
11.2891,128.175541,37.900416,3005.2079088,13.351,-62.519,18.881
11.3059,128.175542,37.900424,3001.8188376,13.275,-62.424,18.938
11.3226,128.175544,37.900432,2998.4322048000004,13.203,-62.335,18.99
11.3393,128.175545,37.900441,2995.0483152,13.137,-62.251,19.039
11.356,128.175547,37.900449,2991.6668640000003,13.074,-62.172,19.084
11.3727,128.175549,37.900457,2988.288156,13.015,-62.098,19.127
11.3894,128.17555,37.900466,2984.9118864,12.96,-62.028,19.166
11.4061,128.175552,37.900474,2981.5383600000005,12.908,-61.963,19.201
11.4228,128.175554,37.900483,2978.167272,12.859,-61.901,19.234
11.4394,128.175556,37.900492,2974.7989272,12.812,-61.843,19.265
11.4561,128.175558,37.900501,2971.4330208,12.767,-61.788,19.294
11.4728,128.175561,37.90051,2968.0692480000002,12.723,-61.736,19.321
11.4896,128.175563,37.900519,2964.7082184,12.681,-61.685,19.347
11.5063,128.175565,37.900528,2961.3496272,12.64,-61.637,19.372
11.523,128.175567,37.900537,2957.9934744,12.599,-61.592,19.395
11.5397,128.17557,37.900546,2954.6397600000005,12.559,-61.548,19.416
11.5564,128.175572,37.900556,2951.288484,12.519,-61.506,19.436
11.5731,128.175575,37.900565,2947.9393416000003,12.479,-61.466,19.455
11.5898,128.175578,37.900575,2944.5926375999998,12.44,-61.427,19.474
11.6065,128.17558,37.900584,2941.2480671999997,12.4,-61.389,19.492
11.6231,128.175583,37.900594,2937.9056304000005,12.361,-61.352,19.51
11.6398,128.175586,37.900604,2934.5656320000003,12.321,-61.316,19.527
11.6565,128.175589,37.900614,2931.2277672,12.282,-61.281,19.543
11.6733,128.175592,37.900623,2927.8923408,12.241,-61.247,19.558
11.69,128.175595,37.900633,2924.5587432,12.201,-61.214,19.573
11.7067,128.175598,37.900643,2921.2269744,12.161,-61.181,19.588
11.7234,128.175601,37.900654,2917.897644,12.12,-61.15,19.602
11.7401,128.175604,37.900664,2914.5704472,12.078,-61.12,19.615
11.7568,128.175607,37.900674,2911.2450792,12.035,-61.09,19.628
11.7735,128.175611,37.900684,2907.9218448,11.993,-61.06,19.641
11.7902,128.175614,37.900695,2904.6004392000004,11.949,-61.03,19.654
11.8068,128.175617,37.900705,2901.2811672,11.904,-61.0,19.666
11.8235,128.175621,37.900716,2897.9637239999997,11.862,-60.981,19.674
11.8402,128.175624,37.900726,2894.6484144000005,11.822,-60.97,19.678
11.857,128.175628,37.900737,2891.3346288,11.785,-60.967,19.678
11.8737,128.175632,37.900748,2888.022672,11.749,-60.969,19.677
11.8904,128.175635,37.900758,2884.7125440000004,11.713,-60.974,19.675
11.9071,128.175639,37.900769,2881.40394,11.677,-60.98,19.671
11.9238,128.175643,37.90078,2878.0971648,11.642,-60.988,19.668
11.9405,128.175647,37.900791,2874.7919136,11.606,-60.994,19.665
11.9572,128.17565,37.900802,2871.4881864000004,11.57,-61.0,19.662
11.9739,128.175654,37.900813,2868.1859832,11.533,-61.004,19.659
11.9905,128.175658,37.900824,2864.885304,11.501,-61.017,19.653
12.0072,128.175662,37.900836,2861.585844,11.473,-61.04,19.644
12.0239,128.175666,37.900847,2858.287908,11.447,-61.07,19.631
12.0407,128.17567,37.900858,2854.9911912000002,11.424,-61.103,19.617
12.0574,128.175675,37.90087,2851.6953888000003,11.403,-61.139,19.602
12.0741,128.175679,37.900881,2848.4008056000002,11.383,-61.174,19.588
12.0908,128.175683,37.900892,2845.1074416,11.364,-61.209,19.574
12.1075,128.175687,37.900904,2841.8149920000005,11.346,-61.241,19.56
12.1242,128.175692,37.900915,2838.5237616000004,11.327,-61.27,19.549
12.1409,128.175696,37.900927,2835.2334456000003,11.309,-61.296,19.538
12.1576,128.1757,37.900939,2831.9440440000003,11.29,-61.318,19.529
12.1743,128.175705,37.90095,2828.6555568000003,11.27,-61.335,19.521
12.1909,128.175709,37.900962,2825.367984,11.25,-61.349,19.516
12.2076,128.175714,37.900974,2822.0813256,11.23,-61.359,19.512
12.2243,128.175718,37.900986,2818.7952768,11.209,-61.365,19.51
12.2411,128.175723,37.900998,2815.5101424,11.188,-61.366,19.509
12.2578,128.175727,37.90101,2812.2259224,11.166,-61.365,19.51
12.2745,128.175732,37.901022,2808.942312,11.144,-61.361,19.512
12.2912,128.175737,37.901034,2805.6596160000004,11.121,-61.353,19.515
12.3079,128.175742,37.901046,2802.3772248,11.098,-61.343,19.52
12.3246,128.175746,37.901058,2799.095748,11.075,-61.33,19.525
12.3413,128.175751,37.90107,2795.8148808,11.051,-61.316,19.532
12.358,128.175756,37.901082,2792.5346232,11.028,-61.3,19.539
12.3746,128.175761,37.901095,2789.2549752,11.004,-61.283,19.546
12.3913,128.175766,37.901107,2785.9759368000005,10.981,-61.265,19.554
12.408,128.175771,37.901119,2782.6972032000003,10.957,-61.246,19.562
12.4248,128.175776,37.901132,2779.4193840000003,10.934,-61.226,19.57
12.4415,128.175781,37.901144,2776.1418696,10.91,-61.206,19.579
12.4582,128.175786,37.901157,2772.8649648,10.887,-61.186,19.587
12.4749,128.175791,37.901169,2769.5883648,10.863,-61.166,19.595
12.4916,128.175796,37.901182,2766.3123744,10.839,-61.146,19.603
12.5083,128.175801,37.901194,2763.0366888000003,10.816,-61.126,19.611
12.525,128.175806,37.901207,2759.7619176,10.792,-61.106,19.619
12.5417,128.175811,37.90122,2756.4871464000003,10.768,-61.087,19.626
12.5583,128.175817,37.901232,2753.21268,10.744,-61.068,19.634
12.575,128.175822,37.901245,2749.9388232,10.719,-61.05,19.641
12.5917,128.175827,37.901258,2746.6652712000005,10.695,-61.033,19.648
12.6085,128.175832,37.901271,2743.3920239999998,10.671,-61.015,19.655
12.6252,128.175838,37.901284,2740.1193864,10.646,-60.999,19.662
12.6419,128.175843,37.901296,2736.8470536,10.622,-60.983,19.668
12.6586,128.175849,37.901309,2733.5747208000003,10.598,-60.967,19.675
12.6753,128.175854,37.901322,2730.3029976000003,10.573,-60.952,19.681
12.692,128.175859,37.901335,2727.0312744,10.548,-60.937,19.687
12.7087,128.175865,37.901348,2723.759856,10.524,-60.923,19.693
12.7254,128.17587,37.901362,2720.4890472,10.499,-60.909,19.699
12.742,128.175876,37.901375,2717.2182384000002,10.474,-60.895,19.705
12.7587,128.175882,37.901388,2713.9474296000003,10.45,-60.882,19.711
12.7754,128.175887,37.901401,2710.6772304000006,10.425,-60.869,19.717
12.7922,128.175893,37.901414,2707.4070312,10.401,-60.856,19.722
12.8089,128.175899,37.901428,2704.1371368000005,10.375,-60.844,19.727
12.8256,128.175904,37.901441,2700.8675472,10.349,-60.832,19.732
12.8423,128.17591,37.901454,2697.5979576000004,10.323,-60.82,19.736
12.859,128.175916,37.901468,2694.3286728000003,10.297,-60.809,19.74
12.8757,128.175921,37.901481,2691.059388,10.269,-60.798,19.744
12.8924,128.175927,37.901494,2687.7901032000004,10.242,-60.786,19.749
12.9091,128.175933,37.901508,2684.5211232,10.214,-60.776,19.753
12.9257,128.175939,37.901521,2681.2521432000003,10.186,-60.765,19.758
12.9424,128.175945,37.901535,2677.9837728,10.157,-60.754,19.761
12.9591,128.175951,37.901548,2674.7147928,10.127,-60.744,19.765
12.9759,128.175957,37.901562,2671.4461176,10.098,-60.734,19.769
12.9926,128.175962,37.901576,2668.1777472,10.067,-60.724,19.772
13.0093,128.175968,37.901589,2664.909072,10.036,-60.714,19.776
13.026,128.175974,37.901603,2661.6407016,10.003,-60.704,19.779
13.0427,128.17598,37.901617,2658.3723312,9.971,-60.694,19.782
13.0594,128.175986,37.901631,2655.103656,9.938,-60.685,19.785
13.0761,128.175993,37.901644,2651.8352856,9.904,-60.675,19.789
13.0928,128.175999,37.901658,2648.5666103999997,9.87,-60.666,19.792
13.1095,128.176005,37.901672,2645.2979352,9.836,-60.657,19.796
13.1262,128.176011,37.901686,2642.0292600000002,9.802,-60.648,19.8
13.1429,128.176017,37.9017,2638.7602800000004,9.769,-60.639,19.804
13.1596,128.176023,37.901714,2635.4916048,9.734,-60.63,19.807
13.1763,128.176029,37.901728,2632.22232,9.7,-60.621,19.811
13.193,128.176036,37.901742,2628.9530352000006,9.667,-60.612,19.815
13.2097,128.176042,37.901756,2625.6840552000003,9.633,-60.603,19.818
13.2264,128.176048,37.90177,2622.4141608,9.599,-60.595,19.822
13.2431,128.176054,37.901784,2619.1448760000003,9.564,-60.586,19.825
13.2598,128.176061,37.901798,2615.8749816,9.529,-60.578,19.828
13.2765,128.176067,37.901812,2612.6050872000005,9.494,-60.57,19.831
13.2932,128.176073,37.901826,2609.334888,9.459,-60.562,19.834
13.3099,128.17608,37.90184,2606.0643840000002,9.424,-60.554,19.838
13.3266,128.176086,37.901854,2602.7941848000005,9.387,-60.546,19.84
13.3433,128.176092,37.901869,2599.5233760000006,9.35,-60.539,19.843
13.36,128.176099,37.901883,2596.252872,9.311,-60.531,19.845
13.3767,128.176105,37.901897,2592.9817583999998,9.271,-60.524,19.846
13.3934,128.176112,37.901911,2589.7100352,9.232,-60.517,19.848
13.4101,128.176118,37.901926,2586.4389216,9.191,-60.51,19.85
13.4268,128.176125,37.90194,2583.1668936,9.15,-60.503,19.853
13.4435,128.176131,37.901954,2579.8948656000002,9.107,-60.496,19.855
13.4602,128.176138,37.901969,2576.6225328000005,9.064,-60.489,19.857
13.4769,128.176144,37.901983,2573.3502000000003,9.019,-60.482,19.858
13.4936,128.176151,37.901998,2570.0772576000004,8.973,-60.476,19.859
13.5103,128.176157,37.902012,2566.8037056000003,8.928,-60.469,19.861
13.527,128.176164,37.902027,2563.5304584,8.881,-60.463,19.862
13.5437,128.176171,37.902041,2560.2562967999997,8.834,-60.456,19.864
13.5604,128.176177,37.902056,2556.9821352000004,8.786,-60.45,19.866
13.5771,128.176184,37.90207,2553.7073640000003,8.739,-60.443,19.868
13.5938,128.176191,37.902085,2550.4325928,8.69,-60.437,19.869
13.6105,128.176197,37.9021,2547.157212,8.64,-60.431,19.871
13.6272,128.176204,37.902114,2543.8812215999997,8.592,-60.425,19.873
13.6439,128.176211,37.902129,2540.6049264,8.543,-60.419,19.875
13.6606,128.176217,37.902144,2537.3280216,8.496,-60.413,19.877
13.6773,128.176224,37.902158,2534.0511168000003,8.447,-60.407,19.879
13.694,128.176231,37.902173,2530.7729928,8.399,-60.401,19.881
13.7107,128.176238,37.902188,2527.4954784000006,8.349,-60.396,19.883
13.7274,128.176244,37.902203,2524.2167448,8.299,-60.39,19.884
13.7441,128.176251,37.902217,2520.9374016,8.251,-60.385,19.886
13.7608,128.176258,37.902232,2517.6580584,8.201,-60.379,19.888
13.7775,128.176265,37.902247,2514.3778008000004,8.153,-60.374,19.891
13.7942,128.176272,37.902262,2511.0975432,8.104,-60.368,19.892
13.8109,128.176279,37.902277,2507.8160664,8.055,-60.363,19.894
13.8276,128.176286,37.902292,2504.5348943999998,8.005,-60.358,19.896
13.8443,128.176292,37.902307,2501.2525032000003,7.955,-60.353,19.897
13.861,128.176299,37.902321,2497.9704168000003,7.903,-60.348,19.898
13.8777,128.176306,37.902336,2494.687416,7.85,-60.343,19.898
13.8944,128.176313,37.902351,2491.4035008,7.797,-60.338,19.899
13.9111,128.17632,37.902366,2488.1195856000004,7.744,-60.334,19.9
13.9278,128.176327,37.902381,2484.8341464,7.692,-60.329,19.902
13.9445,128.176334,37.902396,2481.549012,7.638,-60.324,19.904
13.9612,128.176341,37.902412,2478.2629632,7.585,-60.319,19.905
13.9779,128.176348,37.902427,2474.9766096000003,7.531,-60.315,19.906
13.9946,128.176355,37.902442,2471.6893416,7.477,-60.31,19.907
14.0113,128.176362,37.902457,2468.4020736,7.421,-60.306,19.908
14.028,128.176369,37.902472,2465.1135864000003,7.364,-60.302,19.908
14.0447,128.176376,37.902487,2461.8250992000003,7.305,-60.297,19.908
14.0614,128.176383,37.902502,2458.5356976000003,7.245,-60.294,19.908
14.0781,128.176391,37.902518,2455.2462960000003,7.182,-60.29,19.907
14.0948,128.176398,37.902533,2451.9553704,7.119,-60.286,19.906
14.1115,128.176405,37.902548,2448.6638352,7.057,-60.282,19.907
14.1282,128.176412,37.902563,2445.3719952,6.994,-60.279,19.908
14.1449,128.176419,37.902578,2442.078936,6.934,-60.275,19.91
14.1616,128.176426,37.902594,2438.7855720000002,6.874,-60.271,19.912
14.1783,128.176433,37.902609,2435.4909888,6.815,-60.267,19.914
14.195,128.176441,37.902624,2432.1967104,6.755,-60.263,19.915
14.2117,128.176448,37.90264,2428.9006032,6.696,-60.259,19.916
14.2284,128.176455,37.902655,2425.6048008000002,6.636,-60.255,19.917
14.2451,128.176462,37.90267,2422.3077792,6.575,-60.252,19.917
14.2618,128.176469,37.902686,2419.0104528,6.511,-60.248,19.917
14.2785,128.176477,37.902701,2415.7119072,6.447,-60.245,19.916
14.2952,128.176484,37.902717,2412.4136664000002,6.38,-60.241,19.915
14.3119,128.176491,37.902732,2409.1139016,6.313,-60.238,19.915
14.3286,128.176498,37.902748,2405.8144416,6.242,-60.235,19.914
14.3453,128.176506,37.902763,2402.5131528,6.172,-60.232,19.913
14.362,128.176513,37.902779,2399.2121688,6.097,-60.23,19.911
14.3787,128.17652,37.902794,2395.9096608,6.023,-60.227,19.911
14.3954,128.176528,37.90281,2392.6059336,5.952,-60.224,19.911
14.4121,128.176535,37.902825,2389.3019016000003,5.881,-60.221,19.913
14.4288,128.176542,37.902841,2385.9963456,5.814,-60.218,19.915
14.4455,128.17655,37.902856,2382.6907896000002,5.748,-60.214,19.918
14.4622,128.176557,37.902872,2379.3834048000003,5.684,-60.211,19.92
14.4789,128.176564,37.902888,2376.07602,5.62,-60.207,19.922
14.4956,128.176572,37.902903,2372.7671112000003,5.558,-60.204,19.923
14.5123,128.176579,37.902919,2369.4585072,5.493,-60.201,19.923
14.529,128.176586,37.902935,2366.1477696,5.429,-60.197,19.924
14.5457,128.176594,37.90295,2362.8376416,5.363,-60.194,19.923
14.5624,128.176601,37.902966,2359.5256848,5.297,-60.192,19.923
14.5791,128.176609,37.902982,2356.213728,5.228,-60.189,19.922
14.5958,128.176616,37.902997,2352.9002472,5.158,-60.187,19.921
14.6125,128.176624,37.903013,2349.5870712,5.085,-60.184,19.92
14.6292,128.176631,37.903029,2346.2720664000003,5.012,-60.182,19.919
14.6459,128.176638,37.903045,2342.9573664000004,4.935,-60.179,19.917
14.6626,128.176646,37.90306,2339.6408376,4.858,-60.177,19.916
14.6793,128.176653,37.903076,2336.3243088,4.779,-60.175,19.915
14.696,128.176661,37.903092,2333.0059512000003,4.701,-60.173,19.914
14.7127,128.176668,37.903108,2329.6875936,4.62,-60.171,19.913
14.7294,128.176676,37.903124,2326.3674072000003,4.541,-60.169,19.913
14.7461,128.176683,37.90314,2323.0475256,4.46,-60.167,19.913
14.7628,128.176691,37.903155,2319.7255104,4.38,-60.165,19.912
14.7795,128.176698,37.903171,2316.4038,4.299,-60.163,19.912
14.7962,128.176706,37.903187,2313.079956,4.22,-60.161,19.912
14.8129,128.176714,37.903203,2309.7564168,4.138,-60.159,19.912
14.8296,128.176721,37.903219,2306.4310488,4.059,-60.157,19.912
14.8463,128.176729,37.903235,2303.1056808000003,3.977,-60.155,19.911
14.863,128.176736,37.903251,2299.778484,3.896,-60.153,19.91
14.8797,128.176744,37.903267,2296.451592,3.812,-60.151,19.909
14.8964,128.176751,37.903283,2293.1222616,3.73,-60.149,19.908
14.9131,128.176759,37.903299,2289.7935408000003,3.645,-60.147,19.907
14.9298,128.176767,37.903315,2286.4626864,3.562,-60.146,19.907
14.9465,128.176774,37.903331,2283.131832,3.476,-60.144,19.906
14.9632,128.176782,37.903347,2279.7991488000002,3.392,-60.142,19.905
14.9799,128.176789,37.903363,2276.4664656,3.305,-60.14,19.904
14.9966,128.176797,37.903379,2273.1316488,3.222,-60.139,19.904
15.0133,128.176805,37.903395,2269.7971368000003,3.136,-60.137,19.903
15.03,128.176812,37.903412,2266.4604912,3.052,-60.136,19.903
15.0467,128.17682,37.903428,2263.1241504000004,2.965,-60.134,19.902
15.0634,128.176828,37.903444,2259.7853712,2.882,-60.132,19.902
15.0801,128.176835,37.90346,2256.4472016000004,2.796,-60.131,19.902
15.0968,128.176843,37.903476,2253.1065936,2.712,-60.129,19.901
15.1135,128.176851,37.903492,2249.7662904,2.626,-60.128,19.901
15.1302,128.176858,37.903508,2246.4235488,2.543,-60.126,19.9
15.1469,128.176866,37.903525,2243.081112,2.457,-60.125,19.9
15.1636,128.176874,37.903541,2239.7365416,2.374,-60.123,19.9
15.1803,128.176881,37.903557,2236.392276,2.288,-60.122,19.899
15.197,128.176889,37.903573,2233.045572,2.205,-60.121,19.898
