Time,Longitude,Latitude,Altitude,Roll (deg),Pitch (deg),Yaw (deg)
0.0,128.181881,37.923646,7000.146528,0.0,-0.003,0.0
0.0167,128.181881,37.923691,7000.1605488000005,0.0,-0.012,0.0
0.0334,128.181881,37.923736,7000.173960000001,0.0,-0.025,359.999
0.0501,128.181881,37.923781,7000.186152000001,0.0,-0.039,359.999
0.0668,128.181881,37.923826,7000.1977344,0.0,-0.055,359.999
0.0834,128.181881,37.92387,7000.2084024,0.0,-0.07,0.0
0.1002,128.181881,37.923915,7000.218156000001,0.0,-0.085,0.0
0.1169,128.181881,37.92396,7000.226995200001,0.0,-0.098,0.0
0.1336,128.181881,37.924005,7000.234920000001,0.0,-0.11,0.0
0.1503,128.181881,37.92405,7000.2422352,0.0,-0.12,0.0
0.1669,128.181881,37.924095,7000.248636,0.0,-0.128,0.0
0.1837,128.181881,37.92414,7000.254122400001,0.0,-0.134,0.0
0.2004,128.181881,37.924185,7000.2589992,0.0,-0.139,0.0
0.2171,128.181881,37.92423,7000.2626568000005,0.0,-0.141,0.0
0.2338,128.181881,37.924275,7000.2657048,0.0,-0.143,0.0
0.2505,128.181881,37.92432,7000.2681432,0.0,-0.144,0.0
0.2672,128.181881,37.924365,7000.2696672,0.0,-0.144,0.0
0.2839,128.181881,37.92441,7000.2702768,0.0,-0.143,0.0
0.3006,128.181881,37.924455,7000.2702768,0.0,-0.142,0.0
0.3172,128.181881,37.9245,7000.2696672,0.0,-0.142,0.0
0.3339,128.181881,37.924545,7000.2681432,0.001,-0.141,0.0
0.3507,128.181881,37.92459,7000.2657048,0.001,-0.14,0.0
0.3674,128.181881,37.924635,7000.2626568000005,0.001,-0.14,0.0
0.3841,128.181881,37.92468,7000.2589992,0.001,-0.14,0.0
0.4008,128.181881,37.924725,7000.254732,0.001,-0.141,0.0
0.4175,128.181881,37.92477,7000.249550400001,0.001,-0.142,0.0
0.4342,128.181881,37.924815,7000.243759200001,0.001,-0.143,0.0
0.4509,128.181881,37.92486,7000.2370536,0.001,-0.144,0.0
0.4676,128.181881,37.924905,7000.2300432,0.001,-0.146,0.0
0.4843,128.181881,37.92495,7000.2221184,0.002,-0.148,0.0
0.501,128.181881,37.924995,7000.2138888,0.002,-0.15,0.0
0.5176,128.181881,37.92504,7000.2047448,0.002,-0.152,0.0
0.5344,128.181881,37.925085,7000.1949912,0.002,-0.155,0.0
0.5511,128.181881,37.92513,7000.1843232,0.002,-0.157,0.0
0.5678,128.181881,37.925175,7000.1733504,0.002,-0.159,0.0
0.5845,128.181881,37.92522,7000.161768,0.003,-0.161,0.0
0.6012,128.181881,37.925266,7000.149576,0.003,-0.164,0.0
0.6179,128.181881,37.925311,7000.136469600001,0.003,-0.166,0.0
0.6345,128.181881,37.925356,7000.1230584,0.003,-0.168,0.0
0.6513,128.181881,37.925401,7000.109037600001,0.003,-0.17,0.0
0.6679,128.181881,37.925446,7000.0944072,0.004,-0.172,0.0
0.6847,128.181881,37.925491,7000.0791672000005,0.004,-0.174,0.0
0.7014,128.181881,37.925536,7000.0633176,0.004,-0.175,0.0
0.7181,128.181881,37.925581,7000.0468584,0.004,-0.177,0.0
0.7348,128.181881,37.925626,7000.0300944,0.004,-0.179,0.0
0.7514,128.181881,37.925671,7000.012416,0.005,-0.18,0.0
0.7682,128.181881,37.925716,6999.9944328,0.005,-0.182,0.0
0.7848,128.181881,37.925761,6999.97584,0.005,-0.183,0.001
0.8016,128.181881,37.925807,6999.9566376,0.005,-0.185,0.001
0.8183,128.181881,37.925852,6999.9371304,0.006,-0.186,0.001
0.835,128.181881,37.925897,6999.9170136,0.006,-0.188,0.001
0.8517,128.181881,37.925942,6999.8962872,0.006,-0.189,0.001
0.8684,128.181881,37.925987,6999.8749512,0.006,-0.191,0.001
0.8851,128.181881,37.926032,6999.853310400001,0.007,-0.192,0.001
0.9018,128.181881,37.926077,6999.83106,0.007,-0.194,0.001
0.9185,128.181881,37.926122,6999.8082,0.007,-0.196,0.001
0.9352,128.181881,37.926167,6999.7850352000005,0.008,-0.197,0.001
0.9519,128.181881,37.926213,6999.761260800001,0.008,-0.199,0.001
0.9686,128.181881,37.926258,6999.7371816,0.008,-0.2,0.001
0.9853,128.181881,37.926303,6999.712492800001,0.008,-0.202,0.001
1.002,128.181881,37.926348,6999.6874992,0.009,-0.203,0.001
1.0187,128.181881,37.926393,6999.6618960000005,0.009,-0.205,0.001
1.0353,128.181881,37.926438,6999.635988000001,0.009,-0.206,0.001
1.0521,128.181881,37.926484,6999.609470400001,0.01,-0.207,0.001
1.0688,128.181881,37.926529,6999.5823432,0.01,-0.209,0.001
1.0855,128.181881,37.926574,6999.555216,0.01,-0.21,0.001
1.1022,128.181881,37.926619,6999.527174400001,0.011,-0.212,0.001
1.1189,128.181881,37.926664,6999.499132800001,0.011,-0.213,0.001
1.1356,128.181881,37.926709,6999.4704816,0.011,-0.214,0.001
1.1522,128.181881,37.926755,6999.441220799999,0.012,-0.216,0.001
1.169,128.181881,37.9268,6999.4116552000005,0.012,-0.217,0.001
1.1857,128.181881,37.926845,6999.3817848,0.012,-0.218,0.001
1.2024,128.181881,37.92689,6999.3516096,0.013,-0.22,0.001
1.2191,128.181881,37.926935,6999.320824800001,0.013,-0.221,0.001
1.2358,128.181881,37.926981,6999.2897352,0.013,-0.222,0.001
1.2525,128.181881,37.927026,6999.2583408,0.014,-0.224,0.001
1.2691,128.181881,37.927071,6999.2263368,0.014,-0.225,0.001
1.2859,128.181881,37.927116,6999.194028000001,0.014,-0.226,0.001
1.3026,128.181881,37.927162,6999.1614144000005,0.015,-0.227,0.001
1.3193,128.181881,37.927207,6999.1281912,0.015,-0.229,0.001
1.3359,128.181881,37.927252,6999.094968,0.016,-0.23,0.001
1.3527,128.181881,37.927297,6999.0611352,0.016,-0.231,0.001
1.3694,128.181881,37.927342,6999.026997600001,0.016,-0.232,0.001
1.386,128.181881,37.927388,6998.9925552,0.017,-0.234,0.001
1.4028,128.181881,37.927433,6998.9575032,0.017,-0.235,0.001
1.4195,128.181881,37.927478,6998.922451200001,0.018,-0.236,0.001
1.4362,128.181881,37.927524,6998.8867896,0.018,-0.237,0.001
1.4528,128.181881,37.927569,6998.8508232,0.019,-0.239,0.001
1.4696,128.181881,37.927614,6998.814552000001,0.019,-0.24,0.001
1.4863,128.181881,37.927659,6998.777976,0.019,-0.241,0.001
1.5029,128.181881,37.927705,6998.7410952,0.02,-0.242,0.001
1.5197,128.181881,37.92775,6998.703909600001,0.02,-0.243,0.001
1.5364,128.181881,37.927795,6998.666419200001,0.021,-0.244,0.001
1.5531,128.181881,37.92784,6998.628624000001,0.021,-0.245,0.001
1.5697,128.181881,37.927886,6998.5902192,0.022,-0.247,0.001
1.5865,128.181881,37.927931,6998.551814400001,0.022,-0.248,0.001
1.6032,128.181881,37.927976,6998.5131048,0.023,-0.249,0.002
1.6198,128.181881,37.928022,6998.4737856,0.023,-0.25,0.002
1.6366,128.181881,37.928067,6998.4344664,0.024,-0.251,0.002
1.6533,128.181881,37.928112,6998.394842400001,0.024,-0.252,0.002
1.67,128.181881,37.928158,6998.3546088,0.025,-0.253,0.002
1.6867,128.181881,37.928203,6998.3143752,0.025,-0.254,0.002
1.7034,128.181881,37.928248,6998.2738368,0.026,-0.255,0.002
1.7201,128.181881,37.928294,6998.2329936,0.026,-0.256,0.002
1.7368,128.181881,37.928339,6998.1918456,0.027,-0.258,0.002
1.7535,128.181881,37.928384,6998.150392800001,0.027,-0.259,0.002
1.7702,128.181881,37.92843,6998.1086352,0.028,-0.26,0.002
1.7869,128.181881,37.928475,6998.0665728,0.028,-0.261,0.002
1.8036,128.181881,37.92852,6998.024205600001,0.029,-0.262,0.002
1.8203,128.181881,37.928566,6997.981838400001,0.029,-0.263,0.002
1.837,128.181881,37.928611,6997.9391663999995,0.03,-0.264,0.002
1.8537,128.181881,37.928657,6997.8958848,0.03,-0.265,0.002
1.8704,128.181881,37.928702,6997.8526032,0.031,-0.266,0.002
1.8871,128.181881,37.928747,6997.8090168,0.032,-0.267,0.002
1.9038,128.181881,37.928793,6997.7654304,0.032,-0.268,0.002
1.9205,128.181881,37.928838,6997.7212344,0.033,-0.269,0.002
1.9372,128.181881,37.928883,6997.677038400001,0.033,-0.27,0.002
1.9539,128.181881,37.928929,6997.6325376,0.034,-0.271,0.002
1.9706,128.181881,37.928974,6997.587732,0.034,-0.272,0.002
1.9873,128.181881,37.92902,6997.5426216000005,0.035,-0.273,0.002
2.004,128.181881,37.929065,6997.497511200001,0.035,-0.274,0.002
2.0207,128.181881,37.929111,6997.4517912,0.036,-0.275,0.002
2.0374,128.181881,37.929156,6997.4060712,0.037,-0.276,0.002
2.0541,128.181881,37.929201,6997.360351200001,0.037,-0.276,0.002
2.0707,128.181881,37.929247,6997.3140216,0.038,-0.277,0.002
2.0875,128.181881,37.929292,6997.267692,0.038,-0.278,0.002
2.1042,128.181881,37.929338,6997.2210576,0.039,-0.279,0.002
2.1208,128.181881,37.929383,6997.1741184,0.04,-0.28,0.002
2.1376,128.181881,37.929429,6997.127179200001,0.04,-0.281,0.002
2.1543,128.181881,37.929474,6997.0799352,0.041,-0.282,0.002
2.171,128.181881,37.92952,6997.0326912,0.042,-0.283,0.002
2.1877,128.181881,37.929565,6996.984837600001,0.042,-0.284,0.002
2.2044,128.181882,37.929611,6996.936984000001,0.043,-0.285,0.002
2.2211,128.181882,37.929656,6996.8888256,0.044,-0.286,0.002
2.2378,128.181882,37.929701,6996.8406672,0.044,-0.287,0.002
2.2544,128.181882,37.929747,6996.792204,0.045,-0.288,0.002
2.2712,128.181882,37.929792,6996.7437408000005,0.045,-0.289,0.002
2.2879,128.181882,37.929838,6996.694668,0.046,-0.289,0.002
2.3045,128.181882,37.929883,6996.645595200001,0.047,-0.29,0.002
2.3213,128.181882,37.929929,6996.5965224,0.048,-0.291,0.002
2.338,128.181882,37.929974,6996.5471448,0.048,-0.292,0.002
2.3546,128.181882,37.93002,6996.4974624,0.049,-0.293,0.002
2.3714,128.181882,37.930066,6996.4477799999995,0.05,-0.294,0.002
2.3881,128.181882,37.930111,6996.3977928,0.05,-0.295,0.002
2.4048,128.181882,37.930157,6996.3475008000005,0.051,-0.296,0.003
2.4215,128.181882,37.930202,6996.297208800001,0.052,-0.296,0.003
2.4382,128.181882,37.930248,6996.2469168,0.052,-0.297,0.003
2.4549,128.181882,37.930293,6996.196320000001,0.053,-0.298,0.003
2.4716,128.181882,37.930339,6996.1454184,0.054,-0.299,0.003
2.4882,128.181882,37.930384,6996.0945168,0.055,-0.3,0.003
2.505,128.181882,37.93043,6996.0433104,0.055,-0.301,0.003
2.5217,128.181882,37.930476,6995.9917992,0.056,-0.302,0.003
2.5383,128.181882,37.930521,6995.940592800001,0.057,-0.302,0.003
2.5551,128.181882,37.930567,6995.8887768,0.058,-0.303,0.003
2.5718,128.181882,37.930612,6995.836960800001,0.058,-0.304,0.003
2.5884,128.181882,37.930658,6995.7851448,0.059,-0.305,0.003
2.6052,128.181882,37.930703,6995.733024000001,0.06,-0.306,0.003
2.6219,128.181882,37.930749,6995.6805984,0.061,-0.306,0.003
2.6386,128.181882,37.930795,6995.6284776,0.061,-0.307,0.003
2.6553,128.181882,37.93084,6995.5757472000005,0.062,-0.308,0.003
2.6719,128.181882,37.930886,6995.5230168,0.063,-0.309,0.003
2.6887,128.181882,37.930932,6995.4702864,0.064,-0.31,0.003
2.7054,128.181882,37.930977,6995.4172512000005,0.064,-0.31,0.003
2.722,128.181882,37.931023,6995.364216,0.065,-0.311,0.003
2.7388,128.181882,37.931068,6995.3108760000005,0.066,-0.312,0.003
2.7555,128.181882,37.931114,6995.257536,0.067,-0.313,0.003
2.7721,128.181882,37.93116,6995.203891200001,0.068,-0.314,0.003
2.7889,128.181882,37.931205,6995.1502464000005,0.068,-0.315,0.003
2.8056,128.181882,37.931251,6995.0962968,0.069,-0.315,0.003
2.8222,128.181882,37.931297,6995.042347200001,0.07,-0.316,0.003
2.839,128.181882,37.931342,6994.988397600001,0.071,-0.317,0.003
2.8557,128.181882,37.931388,6994.9341432,0.072,-0.318,0.003
2.8724,128.181882,37.931434,6994.8798888,0.072,-0.318,0.003
2.8891,128.181882,37.931479,6994.8253296,0.073,-0.319,0.003
2.9057,128.181882,37.931525,6994.770770400001,0.074,-0.32,0.003
2.9225,128.181882,37.931571,6994.715906400001,0.075,-0.321,0.003
2.9392,128.181882,37.931617,6994.661042400001,0.076,-0.321,0.003
2.9558,128.181882,37.931662,6994.6061784,0.077,-0.322,0.003
2.9726,128.181882,37.931708,6994.551009600001,0.077,-0.323,0.003
2.9893,128.181882,37.931754,6994.4958408,0.078,-0.324,0.003
3.0059,128.181882,37.931799,6994.440672,0.079,-0.324,0.003
3.0227,128.181882,37.931845,6994.3851984,0.08,-0.325,0.003
3.0394,128.181882,37.931891,6994.329724800001,0.081,-0.326,0.003
3.056,128.181882,37.931937,6994.273946400001,0.082,-0.327,0.003
3.0728,128.181882,37.931982,6994.218168,0.083,-0.328,0.003
3.0895,128.181882,37.932028,6994.1623896,0.084,-0.328,0.003
3.1062,128.181882,37.932074,6994.106306400001,0.085,-0.329,0.003
3.1229,128.181882,37.93212,6994.050223200001,0.086,-0.33,0.003
3.1395,128.181882,37.932165,6993.9938352,0.086,-0.331,0.003
3.1563,128.181882,37.932211,6993.937752000001,0.087,-0.331,0.003
3.173,128.181882,37.932257,6993.881364000001,0.088,-0.332,0.004
3.1896,128.181882,37.932303,6993.8246712,0.089,-0.333,0.004
3.2064,128.181882,37.932349,6993.7679784,0.09,-0.333,0.004
3.2231,128.181882,37.932394,6993.7112856,0.091,-0.334,0.004
3.2397,128.181882,37.93244,6993.6545928000005,0.092,-0.335,0.004
3.2565,128.181882,37.932486,6993.5975952,0.093,-0.336,0.004
3.2732,128.181882,37.932532,6993.540597600001,0.094,-0.337,0.004
3.2899,128.181882,37.932578,6993.4836000000005,0.095,-0.337,0.004
3.3066,128.181882,37.932623,6993.426297600001,0.096,-0.338,0.004
3.3233,128.181882,37.932669,6993.3689952,0.097,-0.339,0.004
3.34,128.181882,37.932715,6993.311692800001,0.098,-0.34,0.004
3.3567,128.181882,37.932761,6993.2540856000005,0.099,-0.34,0.004
3.3734,128.181882,37.932807,6993.196478400001,0.1,-0.341,0.004
3.3901,128.181883,37.932853,6993.1388712,0.101,-0.342,0.004
3.4068,128.181883,37.932898,6993.081264,0.102,-0.343,0.004
3.4235,128.181883,37.932944,6993.023352000001,0.103,-0.343,0.004
3.4402,128.181883,37.93299,6992.96544,0.104,-0.344,0.004
3.4569,128.181883,37.933036,6992.907223200001,0.105,-0.345,0.004
3.4736,128.181883,37.933082,6992.849311200001,0.106,-0.346,0.004
3.4903,128.181883,37.933128,6992.7910944000005,0.107,-0.346,0.004
3.507,128.181883,37.933174,6992.7328776,0.108,-0.347,0.004
3.5237,128.181883,37.93322,6992.674356,0.109,-0.348,0.004
3.5404,128.181883,37.933266,6992.6161392,0.11,-0.348,0.004
3.5571,128.181883,37.933312,6992.5576176,0.111,-0.349,0.004
3.5738,128.181883,37.933357,6992.498791200001,0.112,-0.35,0.004
3.5905,128.181883,37.933403,6992.440269600001,0.113,-0.351,0.004
3.6072,128.181883,37.933449,6992.3814432,0.114,-0.351,0.004
3.6239,128.181883,37.933495,6992.3226168,0.115,-0.352,0.004
3.6406,128.181883,37.933541,6992.2637904,0.116,-0.353,0.004
3.6573,128.181883,37.933587,6992.204659200001,0.117,-0.354,0.004
3.674,128.181883,37.933633,6992.145832800001,0.118,-0.354,0.004
3.6907,128.181883,37.933679,6992.086701600001,0.119,-0.355,0.004
3.7074,128.181883,37.933725,6992.027265600001,0.12,-0.356,0.004
3.7241,128.181883,37.933771,6991.9681344,0.121,-0.356,0.004
3.7408,128.181883,37.933817,6991.9086984,0.122,-0.359,0.004
3.7575,128.181883,37.933863,6991.8492624,0.123,-0.365,0.004
3.7742,128.181883,37.933909,6991.7895216,0.124,-0.371,0.004
3.7909,128.181883,37.933955,6991.7297808,0.126,-0.379,0.004
3.8076,128.181883,37.934001,6991.67004,0.127,-0.387,0.004
3.8243,128.181883,37.934047,6991.6099944,0.128,-0.394,0.004
3.841,128.181883,37.934093,6991.5499488000005,0.129,-0.402,0.004
3.8577,128.181883,37.934139,6991.4895983999995,0.13,-0.408,0.004
3.8744,128.181883,37.934185,6991.4292479999995,0.131,-0.414,0.004
3.8911,128.181883,37.934231,6991.368897600001,0.132,-0.419,0.004
3.9078,128.181883,37.934277,6991.3082424,0.133,-0.422,0.004
3.9245,128.181883,37.934323,6991.2475872,0.134,-0.425,0.004
3.9412,128.181883,37.934369,6991.186627200001,0.135,-0.428,0.004
3.9579,128.181883,37.934415,6991.1256672,0.136,-0.429,0.004
3.9746,128.181883,37.934461,6991.0647072,0.137,-0.431,0.004
3.9913,128.181883,37.934507,6991.0034424000005,0.138,-0.431,0.004
4.008,128.181883,37.934554,6990.942177600001,0.139,-0.432,0.004
4.0247,128.181883,37.9346,6990.880608,0.14,-0.432,0.004
4.0414,128.181883,37.934646,6990.819038400001,0.141,-0.432,0.004
4.058,128.181883,37.934692,6990.757164000001,0.142,-0.433,0.004
4.0748,128.181883,37.934738,6990.6952896,0.143,-0.433,0.004
4.0915,128.181883,37.934784,6990.633415200001,0.144,-0.433,0.004
4.1082,128.181883,37.93483,6990.571236000001,0.145,-0.433,0.004
4.1249,128.181883,37.934876,6990.5090568000005,0.146,-0.434,0.004
4.1415,128.181883,37.934922,6990.4465728000005,0.148,-0.434,0.004
4.1583,128.181883,37.934969,6990.3840887999995,0.149,-0.435,0.004
4.175,128.181883,37.935015,6990.3216048,0.15,-0.436,0.004
4.1917,128.181883,37.935061,6990.258816,0.151,-0.437,0.004
4.2084,128.181883,37.935107,6990.196027200001,0.152,-0.438,0.004
4.2251,128.181884,37.935153,6990.133238400001,0.153,-0.439,0.004
4.2417,128.181884,37.935199,6990.0701448,0.155,-0.44,0.004
4.2585,128.181884,37.935245,6990.0070512,0.156,-0.441,0.004
4.2752,128.181884,37.935292,6989.9439576,0.157,-0.443,0.004
4.2919,128.181884,37.935338,6989.880559200001,0.158,-0.444,0.004
4.3086,128.181884,37.935384,6989.817160800001,0.159,-0.445,0.004
4.3252,128.181884,37.93543,6989.7537624,0.16,-0.446,0.004
4.342,128.181884,37.935476,6989.6900592,0.162,-0.447,0.004
4.3587,128.181884,37.935523,6989.626356000001,0.163,-0.448,0.004
4.3754,128.181884,37.935569,6989.5623479999995,0.164,-0.449,0.005
4.3921,128.181884,37.935615,6989.49834,0.165,-0.45,0.005
4.4088,128.181884,37.935661,6989.434332000001,0.167,-0.452,0.005
4.4254,128.181884,37.935708,6989.370324,0.168,-0.453,0.005
4.4422,128.181884,37.935754,6989.306011200001,0.169,-0.454,0.005
4.4589,128.181884,37.9358,6989.2416984,0.17,-0.455,0.005
4.4756,128.181884,37.935846,6989.1773856,0.172,-0.456,0.005
4.4923,128.181884,37.935893,6989.112768,0.173,-0.457,0.005
4.5089,128.181884,37.935939,6989.048150400001,0.174,-0.458,0.005
4.5256,128.181884,37.935985,6988.983228000001,0.175,-0.459,0.005
4.5424,128.181884,37.936031,6988.918610400001,0.176,-0.46,0.005
4.5591,128.181884,37.936078,6988.853688000001,0.178,-0.461,0.005
4.5758,128.181884,37.936124,6988.7884608,0.179,-0.462,0.005
4.5925,128.181884,37.93617,6988.7235384000005,0.18,-0.464,0.005
4.6091,128.181884,37.936217,6988.658311200001,0.181,-0.465,0.005
4.6259,128.181884,37.936263,6988.593084000001,0.182,-0.466,0.005
4.6426,128.181884,37.936309,6988.5275520000005,0.184,-0.467,0.005
4.6593,128.181884,37.936356,6988.462020000001,0.185,-0.468,0.005
4.676,128.181884,37.936402,6988.396488,0.186,-0.469,0.005
4.6927,128.181884,37.936448,6988.331260800001,0.184,-0.471,0.004
4.7093,128.181884,37.936495,6988.265728800001,0.18,-0.472,0.003
4.7261,128.181884,37.936541,6988.2001968,0.173,-0.475,0.001
4.7428,128.181884,37.936587,6988.134969600001,0.163,-0.477,359.999
4.7595,128.181884,37.936634,6988.069437600001,0.151,-0.479,359.997
4.7762,128.181884,37.93668,6988.0039056000005,0.138,-0.482,359.996
4.7928,128.181884,37.936727,6987.9380688,0.123,-0.484,359.994
4.8096,128.181884,37.936773,6987.872232000001,0.108,-0.486,359.993
4.8263,128.181884,37.936819,6987.8063952,0.092,-0.487,359.992
4.843,128.181884,37.936866,6987.7405584,0.077,-0.489,359.991
4.8597,128.181884,37.936912,6987.6747216,0.062,-0.49,359.99
4.8764,128.181885,37.936959,6987.60858,0.048,-0.491,359.989
4.893,128.181885,37.937005,6987.542133600001,0.035,-0.492,359.988
4.9098,128.181885,37.937052,6987.475992000001,0.022,-0.492,359.988
4.9265,128.181885,37.937098,6987.4095456000005,0.01,-0.493,359.987
4.9432,128.181885,37.937144,6987.3427944000005,0.0,-0.494,359.987
4.9599,128.181885,37.937191,6987.276347999999,-0.011,-0.494,359.986
4.9765,128.181885,37.937237,6987.2095968,-0.021,-0.495,359.986
4.9932,128.181885,37.937284,6987.1428456,-0.03,-0.495,359.985
5.01,128.181885,37.93733,6987.0757896000005,-0.038,-0.496,359.985
5.0267,128.181885,37.937377,6987.008733600001,-0.047,-0.497,359.984
5.0434,128.181885,37.937423,6986.941677600001,-0.054,-0.498,359.984
5.0601,128.181885,37.93747,6986.8746216,-0.061,-0.499,359.984
5.0767,128.181885,37.937516,6986.807260800001,-0.068,-0.499,359.983
5.0935,128.181885,37.937563,6986.7402048,-0.074,-0.5,359.983
5.1102,128.181885,37.937609,6986.6725392,-0.08,-0.502,359.982
5.1269,128.181885,37.937656,6986.605178400001,-0.086,-0.503,359.982
5.1436,128.181885,37.937702,6986.5375128000005,-0.091,-0.504,359.982
5.1602,128.181885,37.937749,6986.469847200001,-0.096,-0.505,359.981
5.1769,128.181885,37.937796,6986.4021816,-0.101,-0.506,359.981
5.1937,128.181885,37.937842,6986.334516,-0.106,-0.507,359.981
5.2104,128.181885,37.937889,6986.2665456,-0.11,-0.508,359.981
5.2271,128.181885,37.937935,6986.1985752,-0.114,-0.509,359.98
5.2438,128.181885,37.937982,6986.130604800001,-0.118,-0.51,359.98
5.2604,128.181885,37.938028,6986.062329599999,-0.122,-0.512,359.98
5.2772,128.181885,37.938075,6985.9943592,-0.125,-0.513,359.979
5.2939,128.181885,37.938122,6985.926084000001,-0.129,-0.514,359.979
5.3106,128.181885,37.938168,6985.8575040000005,-0.132,-0.515,359.979
5.3273,128.181885,37.938215,6985.7892288,-0.136,-0.516,359.978
5.3439,128.181885,37.938261,6985.7206488,-0.139,-0.517,359.978
5.3606,128.181885,37.938308,6985.6520688,-0.142,-0.519,359.978
5.3774,128.181885,37.938355,6985.5834888,-0.145,-0.52,359.978
5.3941,128.181885,37.938401,6985.5149088,-0.148,-0.521,359.977
5.4108,128.181885,37.938448,6985.446024000001,-0.151,-0.522,359.977
5.4275,128.181885,37.938495,6985.3771392,-0.153,-0.523,359.977
5.4441,128.181885,37.938541,6985.3082544,-0.156,-0.525,359.977
5.4609,128.181885,37.938588,6985.239369600001,-0.158,-0.526,359.976
5.4776,128.181885,37.938635,6985.17018,-0.161,-0.527,359.976
5.4943,128.181885,37.938681,6985.1009904,-0.163,-0.528,359.976
5.511,128.181885,37.938728,6985.0318008,-0.166,-0.529,359.976
5.5277,128.181886,37.938775,6984.9626112000005,-0.168,-0.531,359.976
5.5443,128.181886,37.938821,6984.8934216,-0.171,-0.532,359.975
5.5611,128.181886,37.938868,6984.8239272,-0.173,-0.533,359.975
5.5778,128.181886,37.938915,6984.7544328,-0.175,-0.534,359.975
5.5945,128.181886,37.938962,6984.684938400001,-0.178,-0.536,359.975
5.6112,128.181886,37.939008,6984.6151392,-0.18,-0.537,359.974
5.6278,128.181886,37.939055,6984.5456448,-0.182,-0.538,359.974
5.6445,128.181886,37.939102,6984.4758456,-0.185,-0.54,359.974
5.6613,128.181886,37.939148,6984.4060464,-0.187,-0.541,359.974
5.678,128.181886,37.939195,6984.336247200001,-0.19,-0.542,359.973
5.6947,128.181886,37.939242,6984.2661431999995,-0.192,-0.543,359.973
5.7114,128.181886,37.939289,6984.1960392,-0.194,-0.545,359.973
5.728,128.181886,37.939336,6984.1259352,-0.197,-0.546,359.973
5.7448,128.181886,37.939382,6984.0558312,-0.199,-0.548,359.972
5.7615,128.181886,37.939429,6983.9857272,-0.203,-0.552,359.972
5.7782,128.181886,37.939476,6983.915318400001,-0.208,-0.56,359.971
5.7949,128.181886,37.939523,6983.8449096,-0.214,-0.57,359.971
5.8115,128.181886,37.93957,6983.774196,-0.221,-0.581,359.97
5.8282,128.181886,37.939617,6983.7034824,-0.229,-0.593,359.969
5.845,128.181886,37.939663,6983.6327688,-0.238,-0.604,359.969
5.8617,128.181886,37.93971,6983.562055200001,-0.247,-0.615,359.968
5.8784,128.181886,37.939757,6983.490732,-0.256,-0.624,359.968
5.8951,128.181886,37.939804,6983.4197136,-0.265,-0.633,359.967
5.9117,128.181886,37.939851,6983.348085600001,-0.274,-0.64,359.967
5.9285,128.181886,37.939898,6983.2764576,-0.283,-0.646,359.966
5.9452,128.181886,37.939945,6983.204829599999,-0.292,-0.651,359.966
5.9619,128.181886,37.939992,6983.132896800001,-0.3,-0.655,359.966
5.9786,128.181886,37.940039,6983.0606592,-0.308,-0.658,359.965
5.9952,128.181886,37.940086,6982.9884216,-0.316,-0.661,359.965
6.0119,128.181886,37.940133,6982.915879200001,-0.324,-0.663,359.964
6.0287,128.181886,37.94018,6982.8433368000005,-0.331,-0.664,359.964
6.0454,128.181886,37.940227,6982.7704896000005,-0.338,-0.666,359.964
6.0621,128.181886,37.940274,6982.6973376000005,-0.345,-0.667,359.963
6.0788,128.181886,37.940321,6982.624185600001,-0.352,-0.668,359.963
6.0954,128.181886,37.940368,6982.551033600001,-0.359,-0.67,359.963
6.1121,128.181886,37.940415,6982.477272,-0.366,-0.671,359.962
6.1289,128.181886,37.940462,6982.4038152,-0.373,-0.673,359.962
6.1456,128.181886,37.940509,6982.3297488,-0.379,-0.675,359.961
6.1623,128.181886,37.940556,6982.2559872,-0.386,-0.676,359.961
6.179,128.181886,37.940603,6982.181616,-0.393,-0.678,359.96
6.1956,128.181886,37.94065,6982.1075496,-0.4,-0.681,359.96
6.2124,128.181886,37.940697,6982.0328736,-0.407,-0.683,359.96
6.2291,128.181886,37.940745,6981.958197600001,-0.415,-0.685,359.959
6.2458,128.181886,37.940792,6981.8835216,-0.422,-0.688,359.959
6.2625,128.181886,37.940839,6981.808540800001,-0.429,-0.69,359.958
6.2791,128.181886,37.940886,6981.733255200001,-0.437,-0.693,359.958
6.2958,128.181886,37.940933,6981.657969600001,-0.444,-0.695,359.957
6.3126,128.181886,37.94098,6981.582684000001,-0.452,-0.698,359.957
6.3293,128.181886,37.941028,6981.5070936,-0.46,-0.701,359.957
6.346,128.181886,37.941075,6981.4311984,-0.468,-0.704,359.956
6.3627,128.181887,37.941122,6981.3553032,-0.476,-0.706,359.956
6.3793,128.181887,37.941169,6981.279408,-0.484,-0.709,359.955
6.3961,128.181887,37.941217,6981.2029032,-0.493,-0.712,359.955
6.4128,128.181887,37.941264,6981.1267032,-0.501,-0.715,359.954
6.4295,128.181887,37.941311,6981.0501984,-0.51,-0.718,359.954
6.4462,128.181887,37.941359,6980.9733888,-0.519,-0.721,359.953
6.4628,128.181887,37.941406,6980.896579200001,-0.529,-0.724,359.953
6.4795,128.181887,37.941453,6980.819464800001,-0.538,-0.727,359.952
6.4963,128.181887,37.941501,6980.742350400001,-0.548,-0.73,359.952
6.513,128.181887,37.941548,6980.6649312,-0.558,-0.733,359.951
6.5297,128.181887,37.941595,6980.5872072,-0.568,-0.736,359.95
6.5464,128.181887,37.941643,6980.509788,-0.578,-0.739,359.95
6.5631,128.181887,37.94169,6980.431759200001,-0.589,-0.742,359.949
6.5798,128.181887,37.941737,6980.3537304,-0.6,-0.745,359.949
6.5965,128.181887,37.941785,6980.2757016000005,-0.611,-0.748,359.948
6.6132,128.181887,37.941832,6980.197368,-0.623,-0.751,359.948
6.6299,128.181887,37.94188,6980.1187296,-0.635,-0.755,359.947
6.6466,128.181887,37.941927,6980.0400912000005,-0.647,-0.758,359.946
6.6633,128.181887,37.941975,6979.961147999999,-0.659,-0.762,359.946
6.68,128.181887,37.942022,6979.8822048,-0.672,-0.765,359.945
6.6967,128.181887,37.942069,6979.802956800001,-0.685,-0.769,359.944
6.7134,128.181887,37.942117,6979.7237088,-0.699,-0.772,359.944
6.7301,128.181887,37.942164,6979.644156,-0.713,-0.776,359.943
6.7468,128.181887,37.942212,6979.5646032,-0.728,-0.78,359.942
6.7635,128.181887,37.94226,6979.484745600001,-0.743,-0.784,359.942
6.7802,128.181887,37.942307,6979.404583200001,-0.758,-0.787,359.941
6.7969,128.181887,37.942355,6979.3244208,-0.774,-0.791,359.94
6.8136,128.181887,37.942402,6979.2439536,-0.791,-0.795,359.939
6.8303,128.181887,37.94245,6979.163486400001,-0.808,-0.799,359.939
6.847,128.181887,37.942497,6979.0827144,-0.826,-0.804,359.938
6.8637,128.181887,37.942545,6979.001942400001,-0.844,-0.808,359.937
6.8804,128.181887,37.942593,6978.920865600001,-0.863,-0.812,359.936
6.8971,128.181887,37.94264,6978.839484000001,-0.883,-0.816,359.935
6.9138,128.181887,37.942688,6978.7581024,-0.904,-0.821,359.934
6.9305,128.181887,37.942735,6978.676416,-0.925,-0.825,359.933
6.9472,128.181887,37.942783,6978.5947295999995,-0.947,-0.83,359.932
6.9639,128.181887,37.942831,6978.512738400001,-0.97,-0.835,359.931
6.9806,128.181887,37.942878,6978.430747200001,-0.994,-0.84,359.93
6.9973,128.181887,37.942926,6978.348146400001,-1.018,-0.844,359.929
7.014,128.181887,37.942974,6978.2658504,-1.044,-0.849,359.928
7.0307,128.181887,37.943022,6978.1829448,-1.07,-0.855,359.927
7.0474,128.181887,37.943069,6978.1000392,-1.098,-0.86,359.926
7.0641,128.181887,37.943117,6978.017133600001,-1.127,-0.865,359.925
7.0808,128.181887,37.943165,6977.9336184,-1.157,-0.871,359.924
7.0975,128.181887,37.943213,6977.850408,-1.188,-0.876,359.923
7.1142,128.181887,37.94326,6977.766588,-1.221,-0.882,359.922
7.1309,128.181887,37.943308,6977.682768000001,-1.256,-0.888,359.92
7.1476,128.181887,37.943356,6977.5986432,-1.293,-0.894,359.919
7.1643,128.181887,37.943404,6977.5145184,-1.331,-0.9,359.918
7.181,128.181887,37.943451,6977.4300888,-1.372,-0.906,359.916
7.1977,128.181887,37.943499,6977.3456592,-1.415,-0.913,359.915
7.2144,128.181887,37.943547,6977.260924800001,-1.461,-0.92,359.913
7.2311,128.181887,37.943595,6977.175885600001,-1.509,-0.926,359.912
7.2478,128.181887,37.943643,6977.0908464,-1.56,-0.934,359.91
7.2645,128.181887,37.943691,6977.0058072,-1.614,-0.941,359.908
7.2812,128.181887,37.943739,6976.9201584,-1.672,-0.948,359.906
7.2979,128.181887,37.943787,6976.8345096,-1.733,-0.956,359.904
7.3146,128.181887,37.943834,6976.7488608,-1.797,-0.964,359.902
7.3313,128.181887,37.943882,6976.6629072,-1.866,-0.972,359.9
7.348,128.181887,37.94393,6976.5769536,-1.938,-0.98,359.898
7.3647,128.181886,37.943978,6976.4906952,-2.015,-0.988,359.896
7.3814,128.181886,37.944026,6976.404132000001,-2.098,-0.997,359.894
7.3981,128.181886,37.944074,6976.317873600001,-2.186,-1.006,359.892
7.4148,128.181886,37.944122,6976.231005600001,-2.281,-1.016,359.889
7.4315,128.181886,37.94417,6976.144442400001,-2.384,-1.025,359.886
7.4482,128.181886,37.944218,6976.057879200001,-2.496,-1.036,359.883
7.4649,128.181886,37.944266,6975.971316,-2.618,-1.046,359.88
7.4816,128.181886,37.944314,6975.884448,-2.75,-1.057,359.877
7.4983,128.181886,37.944362,6975.7978848,-2.894,-1.068,359.873
7.515,128.181886,37.94441,6975.7113216,-3.052,-1.079,359.869
7.5317,128.181886,37.944458,6975.6250632,-3.226,-1.091,359.865
7.5484,128.181886,37.944506,6975.5388048,-3.418,-1.103,359.86
7.5651,128.181886,37.944555,6975.4531560000005,-3.63,-1.116,359.855
7.5818,128.181886,37.944603,6975.3678119999995,-3.868,-1.129,359.85
7.5985,128.181886,37.944651,6975.2830776,-4.133,-1.143,359.843
7.6152,128.181886,37.944699,6975.1989528,-4.432,-1.157,359.837
7.6319,128.181886,37.944747,6975.116047200001,-4.77,-1.172,359.829
7.6486,128.181886,37.944795,6975.034056,-5.154,-1.187,359.82
7.6653,128.181886,37.944843,6974.9538936,-5.594,-1.203,359.81
7.682,128.181886,37.944891,6974.874950400001,-6.092,-1.219,359.799
7.6987,128.181886,37.94494,6974.7972264,-6.652,-1.236,359.787
7.7154,128.181886,37.944988,6974.7198072,-7.141,-1.252,359.783
7.7321,128.181886,37.945036,6974.642692800001,-7.553,-1.267,359.788
7.7488,128.181886,37.945084,6974.5652736,-7.891,-1.281,359.797
7.7655,128.181885,37.945132,6974.4875496,-8.162,-1.295,359.807
7.7822,128.181885,37.94518,6974.408911200001,-8.371,-1.309,359.816
7.7989,128.181885,37.945229,6974.3290536,-8.526,-1.322,359.822
7.8156,128.181885,37.945277,6974.247367200001,-8.633,-1.336,359.826
7.8323,128.181885,37.945325,6974.163852000001,-8.698,-1.35,359.828
7.849,128.181885,37.945373,6974.0785080000005,-8.724,-1.364,359.829
7.8657,128.181885,37.945422,6973.9910304,-8.711,-1.377,359.829
7.8824,128.181885,37.94547,6973.901724,-8.658,-1.391,359.83
7.8991,128.181885,37.945518,6973.8096744,-8.506,-1.388,359.841
7.9158,128.181885,37.945567,6973.715186400001,-8.258,-1.352,359.861
7.9325,128.181884,37.945615,6973.618869600001,-7.909,-1.271,359.883
7.9492,128.181884,37.945663,6973.5201144,-7.466,-1.13,359.9
7.9659,128.181884,37.945712,6973.421054400001,-6.947,-0.919,359.906
7.9826,128.181884,37.94576,6973.322908800001,-6.377,-0.63,359.901
7.9993,128.181884,37.945808,6973.2262872,-5.781,-0.255,359.884
8.016,128.181884,37.945857,6973.1314944000005,-5.182,0.192,359.857
8.0327,128.181884,37.945905,6973.0403592,-4.601,0.697,359.824
8.0494,128.181884,37.945953,6972.953491200001,-4.05,1.242,359.789
8.0661,128.181883,37.946002,6972.8718048,-3.537,1.808,359.754
8.0828,128.181883,37.94605,6972.7962144,-3.065,2.373,359.724
8.0994,128.181883,37.946099,6972.727329599999,-2.629,2.917,359.699
8.1161,128.181883,37.946147,6972.6648456,-2.222,3.421,359.682
8.1329,128.181883,37.946195,6972.6087624,-1.832,3.879,359.672
8.1496,128.181883,37.946244,6972.560604,-1.552,4.27,359.651
8.1663,128.181882,37.946292,6972.5203704000005,-1.377,4.577,359.619
8.183,128.181882,37.946341,6972.487756800001,-1.31,4.783,359.582
8.1997,128.181882,37.946389,6972.463068,-1.355,4.869,359.544
8.2164,128.181882,37.946437,6972.4459992,-1.509,4.828,359.509
8.2331,128.181882,37.946486,6972.43716,-1.77,4.68,359.478
8.2498,128.181882,37.946534,6972.436245600001,-2.135,4.443,359.452
8.2665,128.181881,37.946583,6972.442951200001,-2.6,4.138,359.43
8.2831,128.181881,37.946631,6972.456972,-3.161,3.786,359.412
8.2998,128.181881,37.946679,6972.4776984,-3.815,3.407,359.399
8.3166,128.181881,37.946728,6972.5048256,-4.56,3.022,359.389
8.3333,128.18188,37.946776,6972.537744,-5.394,2.65,359.382
8.35,128.18188,37.946825,6972.5764536,-6.314,2.31,359.376
8.3667,128.18188,37.946873,6972.6206496,-7.318,2.022,359.369
8.3834,128.18188,37.946921,6972.670332000001,-8.405,1.799,359.359
8.4001,128.181879,37.94697,6972.724586400001,-9.571,1.643,359.343
8.4168,128.181879,37.947018,6972.7837176,-10.814,1.543,359.323
8.4335,128.181879,37.947066,6972.847116,-12.13,1.486,359.298
8.4502,128.181879,37.947115,6972.9150864,-13.515,1.463,359.269
8.4668,128.181878,37.947163,6972.987019200001,-14.966,1.465,359.237
8.4835,128.181878,37.947211,6973.0632192,-16.479,1.486,359.2
8.5003,128.181877,37.947259,6973.1433816,-18.05,1.526,359.159
8.517,128.181877,37.947308,6973.228116,-19.677,1.58,359.112
8.5337,128.181877,37.947356,6973.3168128,-21.357,1.649,359.06
8.5504,128.181876,37.947404,6973.4097768,-23.086,1.73,359.0
8.5671,128.181876,37.947453,6973.5070080000005,-24.863,1.824,358.933
8.5838,128.181875,37.947501,6973.608506400001,-26.685,1.93,358.857
8.6005,128.181875,37.947549,6973.7145768,-28.551,2.047,358.772
8.6172,128.181874,37.947597,6973.8249144,-30.458,2.174,358.677
8.6339,128.181873,37.947646,6973.939824000001,-32.405,2.31,358.57
8.6505,128.181873,37.947694,6974.059305600001,-34.39,2.454,358.452
8.6672,128.181872,37.947742,6974.1833592,-36.411,2.606,358.322
8.684,128.181871,37.94779,6974.3104608,-38.266,2.791,358.188
8.7007,128.18187,37.947839,6974.441829599999,-39.964,3.018,358.041
8.7174,128.181869,37.947887,6974.577465600001,-41.498,3.289,357.866
8.7341,128.181868,37.947935,6974.7176736,-42.863,3.599,357.652
8.7508,128.181867,37.947983,6974.861844,-44.061,3.934,357.405
8.7675,128.181866,37.948031,6975.0102816,-45.097,4.279,357.135
8.7842,128.181865,37.94808,6975.162681600001,-45.976,4.619,356.855
8.8009,128.181863,37.948128,6975.3187392,-46.706,4.948,356.572
8.8176,128.181862,37.948176,6975.479064,-47.293,5.26,356.292
8.8342,128.18186,37.948224,6975.6433512,-47.745,5.555,356.019
8.8509,128.181859,37.948272,6975.811296000001,-48.07,5.832,355.756
8.8676,128.181857,37.948321,6975.9832032,-48.274,6.092,355.503
8.8844,128.181856,37.948369,6976.1590728,-48.364,6.336,355.261
8.9011,128.181854,37.948417,6976.3382952,-48.345,6.565,355.032
8.9178,128.181852,37.948465,6976.5217848,-48.224,6.78,354.814
8.9345,128.18185,37.948513,6976.708627200001,-48.007,6.982,354.608
8.9512,128.181848,37.948562,6976.8991272,-47.697,7.173,354.415
8.9679,128.181846,37.94861,6977.0932848,-47.301,7.353,354.233
8.9846,128.181844,37.948658,6977.2917096,-46.821,7.525,354.062
9.0013,128.181842,37.948706,6977.494401600001,-46.261,7.688,353.903
9.0179,128.18184,37.948754,6977.701360800001,-45.626,7.843,353.754
9.0346,128.181837,37.948802,6977.912892,-44.918,7.992,353.615
9.0513,128.181835,37.948851,6978.128995200001,-44.14,8.135,353.486
9.0681,128.181833,37.948899,6978.35028,-43.294,8.273,353.366
9.0848,128.18183,37.948947,6978.5764416,-42.384,8.406,353.255
9.1015,128.181827,37.948995,6978.8077848,-41.411,8.535,353.153
9.1182,128.181825,37.949043,6979.044614400001,-40.378,8.661,353.059
9.1349,128.181822,37.949091,6979.2872352,-39.286,8.783,352.973
9.1516,128.181819,37.949139,6979.535647200001,-38.138,8.903,352.895
9.1683,128.181816,37.949188,6979.7898504,-36.933,9.02,352.824
9.185,128.181813,37.949236,6980.050149600001,-35.675,9.135,352.761
9.2016,128.18181,37.949284,6980.3165448,-34.365,9.248,352.706
9.2183,128.181807,37.949332,6980.5893408,-33.003,9.36,352.657
9.235,128.181804,37.94938,6980.868842400001,-31.59,9.471,352.615
9.2518,128.1818,37.949428,6981.1550496,-30.129,9.581,352.579
9.2685,128.181797,37.949476,6981.449486400001,-28.792,9.667,352.537
9.2852,128.181794,37.949524,6981.750933600001,-27.573,9.717,352.496
9.3019,128.18179,37.949572,6982.059696,-26.479,9.72,352.468
9.3186,128.181787,37.94962,6982.375773600001,-25.51,9.67,352.463
9.3353,128.181783,37.949668,6982.6994712,-24.669,9.58,352.477
9.352,128.181779,37.949716,6983.0310936,-23.954,9.465,352.504
9.3687,128.181776,37.949764,6983.370640800001,-23.363,9.338,352.538
9.3854,128.181772,37.949812,6983.7181128,-22.889,9.206,352.576
9.402,128.181768,37.94986,6984.073814400001,-22.53,9.075,352.615
9.4187,128.181764,37.949908,6984.4374408,-22.28,8.948,352.653
9.4355,128.18176,37.949956,6984.808992,-22.136,8.827,352.689
9.4522,128.181756,37.950003,6985.1890776,-22.095,8.712,352.721
9.4689,128.181752,37.950051,6985.577392800001,-22.151,8.606,352.751
9.4856,128.181748,37.950099,6985.973937600001,-22.303,8.509,352.777
9.5023,128.181744,37.950147,6986.378712,-22.548,8.42,352.799
9.519,128.18174,37.950195,6986.7923256,-22.882,8.342,352.817
9.5357,128.181736,37.950243,6987.214473600001,-23.304,8.272,352.831
9.5524,128.181731,37.95029,6987.6451560000005,-23.81,8.213,352.84
9.5691,128.181727,37.950338,6988.0837632,-24.398,8.164,352.846
9.5857,128.181723,37.950386,6988.5302952,-25.064,8.125,352.846
9.6024,128.181718,37.950433,6988.9844472,-25.808,8.095,352.842
9.6192,128.181714,37.950481,6989.446524000001,-26.625,8.076,352.833
9.6359,128.181709,37.950529,6989.915611200001,-27.515,8.067,352.818
9.6526,128.181704,37.950577,6990.3923184000005,-28.474,8.067,352.797
9.6693,128.1817,37.950624,6990.876036000001,-29.5,8.077,352.771
9.686,128.181695,37.950672,6991.366764,-30.593,8.097,352.738
9.7027,128.18169,37.950719,6991.864197600001,-31.749,8.125,352.698
9.7194,128.181685,37.950767,6992.368641600001,-32.967,8.163,352.65
9.7361,128.18168,37.950814,6992.8794864,-34.245,8.209,352.595
9.7528,128.181675,37.950862,6993.3970368,-35.581,8.263,352.532
9.7694,128.18167,37.95091,6993.920988000001,-36.975,8.325,352.46
9.7861,128.181665,37.950957,6994.449815999999,-38.231,8.42,352.388
9.8029,128.181659,37.951005,6994.9844352,-39.356,8.556,352.307
9.8196,128.181654,37.951052,6995.5248456,-40.348,8.736,352.203
9.8363,128.181648,37.951099,6996.070742400001,-41.2,8.955,352.069
9.853,128.181643,37.951147,6996.6221256,-41.913,9.201,351.91
9.8697,128.181637,37.951194,6997.1789952,-42.49,9.462,351.73
9.8864,128.181632,37.951242,6997.740741600001,-42.934,9.729,351.538
9.9031,128.181626,37.951289,6998.307669600001,-43.249,9.994,351.34
9.9198,128.18162,37.951336,6998.879474400001,-43.443,10.253,351.142
9.9365,128.181614,37.951384,6999.456460800001,-43.519,10.502,350.947
9.9531,128.181608,37.951431,7000.038324000001,-43.485,10.742,350.758
9.9698,128.181602,37.951478,7000.6247592,-43.345,10.97,350.577
9.9865,128.181596,37.951526,7001.2160711999995,-43.105,11.188,350.404
10.0033,128.18159,37.951573,7001.812260000001,-42.77,11.395,350.239
10.02,128.181583,37.95162,7002.412716,-42.345,11.593,350.085
10.0367,128.181577,37.951667,7003.017744,-41.834,11.781,349.939
10.0534,128.181571,37.951715,7003.627344,-41.241,11.962,349.803
10.0701,128.181564,37.951762,7004.241516,-40.569,12.134,349.676
10.0868,128.181558,37.951809,7004.86026,-39.822,12.3,349.559
10.1035,128.181551,37.951856,7005.4841856,-39.003,12.459,349.45
10.1202,128.181544,37.951903,7006.113292800001,-38.115,12.613,349.35
10.1368,128.181538,37.951951,7006.7478864,-37.159,12.762,349.258
10.1535,128.181531,37.951998,7007.3876616,-36.14,12.907,349.174
10.1702,128.181524,37.952045,7008.033228,-35.058,13.047,349.098
10.187,128.181517,37.952092,7008.6842808,-33.916,13.183,349.031
10.2037,128.18151,37.952139,7009.3417344,-32.715,13.317,348.97
10.2204,128.181503,37.952186,7010.004979200001,-31.458,13.447,348.918
10.2371,128.181496,37.952233,7010.674320000001,-30.145,13.574,348.872
10.2538,128.181488,37.95228,7011.3518904,-28.95,13.676,348.823
10.2705,128.181481,37.952327,7012.035861599999,-27.867,13.738,348.775
10.2872,128.181474,37.952374,7012.726538400001,-26.9,13.753,348.743
10.3039,128.181466,37.952421,7013.4242256,-26.05,13.712,348.735
10.3205,128.181459,37.952468,7014.128923200001,-25.319,13.629,348.748
10.3372,128.181452,37.952515,7014.8412408,-24.707,13.521,348.775
10.3539,128.181444,37.952562,7015.5608736,-24.212,13.398,348.81
10.3707,128.181437,37.952609,7016.2881264,-23.829,13.27,348.849
10.3874,128.181429,37.952656,7017.022694400001,-23.555,13.142,348.889
10.4041,128.181421,37.952703,7017.764882400001,-23.385,13.018,348.928
10.4208,128.181413,37.95275,7018.5149952,-23.317,12.9,348.964
10.4375,128.181406,37.952796,7019.272728000001,-23.347,12.789,348.998
10.4542,128.181398,37.952843,7020.0380808,-23.472,12.686,349.027
10.4709,128.18139,37.95289,7020.8113584,-23.689,12.592,349.053
10.4876,128.181382,37.952937,7021.592865600001,-23.995,12.508,349.075
10.5042,128.181374,37.952983,7022.381992800001,-24.388,12.433,349.093
10.5209,128.181366,37.95303,7023.1793496,-24.865,12.368,349.106
10.5376,128.181358,37.953077,7023.984936,-25.423,12.313,349.114
10.5544,128.18135,37.953123,7024.797837600001,-26.061,12.268,349.117
10.5711,128.181342,37.95317,7025.618359200001,-26.775,12.233,349.115
10.5878,128.181333,37.953216,7026.4458912,-27.564,12.209,349.108
10.6045,128.181325,37.953263,7027.280738400001,-28.425,12.194,349.096
10.6212,128.181317,37.953309,7028.122596,-29.356,12.188,349.077
10.6379,128.181308,37.953356,7028.9711592,-30.355,12.193,349.052
10.6546,128.1813,37.953402,7029.826428,-31.42,12.206,349.021
10.6713,128.181291,37.953449,7030.6884024,-32.549,12.229,348.982
10.6879,128.181282,37.953495,7031.5564728,-33.74,12.261,348.936
10.7046,128.181274,37.953541,7032.4312488000005,-34.992,12.301,348.883
10.7213,128.181265,37.953588,7033.3121208,-36.304,12.348,348.821
10.7381,128.181256,37.953634,7034.197260000001,-37.483,12.429,348.759
10.7548,128.181247,37.95368,7035.088495200001,-38.536,12.549,348.688
10.7715,128.181238,37.953727,7035.9852168,-39.462,12.713,348.596
10.7882,128.181229,37.953773,7036.887120000001,-40.258,12.919,348.473
10.8049,128.18122,37.953819,7037.7942048,-40.924,13.155,348.323
10.8216,128.181211,37.953865,7038.7064712,-41.461,13.41,348.152
10.8383,128.181201,37.953911,7039.6236144,-41.871,13.674,347.966
10.855,128.181192,37.953957,7040.5456343999995,-42.159,13.939,347.773
10.8717,128.181183,37.954003,7041.4725312,-42.33,14.2,347.578
10.8883,128.181173,37.954049,7042.4043048,-42.387,14.453,347.385
10.905,128.181164,37.954095,7043.3409552,-42.337,14.696,347.197
10.9218,128.181154,37.954141,7044.2821776,-42.185,14.929,347.017
10.9385,128.181144,37.954187,7045.2276672,-41.935,15.152,346.844
10.9552,128.181134,37.954233,7046.178033600001,-41.592,15.364,346.68
10.9719,128.181125,37.954279,7047.132972,-41.161,15.566,346.526
10.9886,128.181115,37.954325,7048.091872800001,-40.645,15.758,346.381
11.0053,128.181105,37.954371,7049.055650400001,-40.049,15.942,346.246
11.022,128.181095,37.954417,7050.023390400001,-39.376,16.118,346.12
