Time,Longitude,Latitude,Altitude,Roll (deg),Pitch (deg),Yaw (deg)
0.0,128.181881,37.923646,7000.146528,0.0,-0.003,0.0
0.0167,128.181881,37.923691,7000.1605488000005,0.0,-0.012,0.0
0.0334,128.181881,37.923736,7000.1733504,0.087,-0.013,0.011
0.0501,128.181881,37.923781,7000.1843232,0.258,0.007,0.034
0.0668,128.181881,37.923826,7000.1962104,0.342,0.063,0.041
0.0834,128.181881,37.92387,7000.2087071999995,0.347,0.167,0.03
0.1002,128.181881,37.923915,7000.222728000001,0.266,0.33,0.006
0.1169,128.181881,37.92396,7000.239492000001,0.095,0.56,359.975
0.1336,128.181881,37.924005,7000.2596088,-0.169,0.865,359.94
0.1503,128.181881,37.92405,7000.284297600001,-0.527,1.245,359.902
0.1669,128.181881,37.924095,7000.311424800001,-0.801,1.689,359.886
0.1837,128.181881,37.92414,7000.3425144,-0.994,2.184,359.891
0.2004,128.181881,37.924185,7000.3775663999995,-1.097,2.716,359.909
0.2171,128.181881,37.92423,7000.416276,-1.104,3.267,359.934
0.2338,128.181881,37.924275,7000.4592528,-1.012,3.821,359.962
0.2505,128.181881,37.92432,7000.506192000001,-0.821,4.361,359.991
0.2672,128.181881,37.924365,7000.5573984,-0.535,4.87,0.022
0.2839,128.181881,37.92441,7000.615005600001,-0.329,5.346,0.031
0.3006,128.181881,37.924455,7000.6790136,-0.199,5.789,0.019
0.3172,128.181881,37.9245,7000.750336800001,-0.156,6.204,359.993
0.3339,128.181881,37.924545,7000.8295848,-0.203,6.592,359.96
0.3507,128.181881,37.92459,7000.9179768,-0.342,6.955,359.923
0.3674,128.181881,37.924634,7001.015512800001,-0.573,7.297,359.884
0.3841,128.181881,37.924679,7001.1231072,-0.892,7.618,359.844
0.4008,128.181881,37.924724,7001.2386264,-1.134,7.906,359.825
0.4175,128.181881,37.924769,7001.362375199999,-1.301,8.145,359.828
0.4342,128.181881,37.924814,7001.493744,-1.385,8.32,359.846
0.4509,128.181881,37.924859,7001.6321232,-1.382,8.418,359.874
0.4676,128.181881,37.924904,7001.7762936,-1.29,8.425,359.907
0.4843,128.181881,37.924949,7001.926255200001,-1.11,8.342,359.944
0.501,128.181881,37.924994,7002.083227200001,-1.001,8.184,359.962
0.5176,128.181881,37.925039,7002.2466,-0.964,7.969,359.96
0.5344,128.181881,37.925084,7002.416678400001,-1.004,7.714,359.945
0.5511,128.181881,37.925128,7002.5934624,-1.127,7.433,359.921
0.5678,128.181881,37.925173,7002.776952000001,-1.337,7.144,359.893
0.5845,128.181881,37.925218,7002.967147200001,-1.635,6.863,359.864
0.6012,128.18188,37.925263,7003.1643527999995,-2.022,6.605,359.833
0.6179,128.18188,37.925308,7003.3688736,-2.495,6.384,359.802
0.6345,128.18188,37.925353,7003.580709600001,-3.053,6.212,359.769
0.6513,128.18188,37.925398,7003.800775199999,-3.694,6.1,359.735
0.6679,128.18188,37.925442,7004.029070400001,-4.416,6.059,359.697
0.6847,128.18188,37.925487,7004.2655952000005,-5.217,6.098,359.654
0.7014,128.18188,37.925532,7004.5103496,-6.093,6.217,359.603
0.7181,128.18188,37.925577,7004.763638400001,-7.043,6.411,359.544
0.7348,128.18188,37.925621,7005.0254616,-8.064,6.669,359.475
0.7514,128.18188,37.925666,7005.2964288,-9.152,6.98,359.395
0.7682,128.18188,37.925711,7005.5762352,-10.305,7.33,359.305
0.7848,128.18188,37.925756,7005.8654904,-11.519,7.708,359.203
0.8016,128.181879,37.9258,7006.1638896,-12.793,8.099,359.092
0.8183,128.181879,37.925845,7006.472042400001,-14.122,8.488,358.974
0.835,128.181879,37.92589,7006.7902536,-15.504,8.861,358.849
0.8517,128.181879,37.925934,7007.118218400001,-16.937,9.216,358.72
0.8684,128.181878,37.925979,7007.456241600001,-18.417,9.552,358.586
0.8851,128.181878,37.926023,7007.804932800001,-19.945,9.87,358.447
0.9018,128.181877,37.926068,7008.163682400001,-21.517,10.17,358.303
0.9185,128.181877,37.926113,7008.532795200001,-23.133,10.452,358.153
0.9352,128.181876,37.926157,7008.912576,-24.791,10.718,357.998
0.9519,128.181876,37.926202,7009.302415200001,-26.492,10.968,357.838
0.9686,128.181875,37.926246,7009.702922400001,-28.234,11.204,357.672
0.9853,128.181874,37.926291,7010.113488000001,-30.016,11.426,357.501
1.002,128.181874,37.926335,7010.5344168,-31.839,11.635,357.324
1.0187,128.181873,37.92638,7010.9650992,-33.702,11.831,357.142
1.0353,128.181872,37.926424,7011.4055352000005,-35.605,12.015,356.953
1.0521,128.181871,37.926469,7011.855724800001,-37.547,12.187,356.758
1.0688,128.18187,37.926513,7012.3150584,-39.529,12.349,356.558
1.0855,128.181868,37.926557,7012.783536,-41.55,12.499,356.35
1.1022,128.181867,37.926602,7013.2608528,-43.61,12.639,356.136
1.1189,128.181865,37.926646,7013.746704,-45.71,12.768,355.916
1.1356,128.181864,37.92669,7014.2407848,-47.849,12.886,355.688
1.1522,128.181862,37.926735,7014.7424856,-50.028,12.995,355.454
1.169,128.18186,37.926779,7015.251501600001,-52.247,13.092,355.213
1.1857,128.181858,37.926823,7015.7678328,-54.505,13.179,354.965
1.2024,128.181856,37.926867,7016.2905648000005,-56.803,13.255,354.709
1.2191,128.181854,37.926912,7016.819392800001,-59.142,13.32,354.447
1.2358,128.181852,37.926956,7017.354012,-61.521,13.374,354.178
1.2525,128.181849,37.927,7017.893508,-63.941,13.415,353.901
1.2691,128.181847,37.927044,7018.4378808,-66.401,13.445,353.618
1.2859,128.181844,37.927088,7018.9865208,-68.903,13.462,353.329
1.3026,128.181841,37.927132,7019.5385136,-71.446,13.465,353.032
1.3193,128.181838,37.927176,7020.0938592,-74.031,13.455,352.73
1.3359,128.181835,37.92722,7020.6516432,-76.659,13.43,352.422
1.3527,128.181832,37.927264,7021.2115608,-79.329,13.39,352.108
1.3694,128.181828,37.927308,7021.772697600001,-82.042,13.334,351.79
1.386,128.181825,37.927352,7022.3347488,-84.797,13.261,351.467
1.4028,128.181821,37.927396,7022.8971048,-87.594,13.169,351.141
1.4195,128.181817,37.92744,7023.459156000001,-90.432,13.058,350.811
1.4362,128.181813,37.927484,7024.020292800001,-93.31,12.926,350.48
1.4528,128.181809,37.927528,7024.5802104,-96.228,12.772,350.148
1.4696,128.181805,37.927572,7025.1379944,-99.185,12.595,349.817
1.4863,128.1818,37.927616,7025.69334,-102.181,12.395,349.488
1.5029,128.181796,37.92766,7026.2453328,-105.211,12.173,349.174
1.5197,128.181791,37.927704,7026.7939728,-108.274,11.935,348.89
1.5364,128.181786,37.927748,7027.338955200001,-111.366,11.685,348.647
1.5531,128.181781,37.927792,7027.879060800001,-114.485,11.431,348.457
1.5697,128.181776,37.927835,7028.4148992,-117.626,11.181,348.331
1.5865,128.181771,37.927879,7028.9458608,-120.786,10.946,348.277
1.6032,128.181766,37.927923,7029.4722504,-123.959,10.736,348.302
1.6198,128.18176,37.927967,7029.9937632,-127.149,10.552,348.395
1.6366,128.181755,37.928011,7030.5103992,-130.355,10.387,348.538
1.6533,128.18175,37.928055,7031.0218536,-133.581,10.237,348.719
1.67,128.181744,37.928098,7031.528736,-136.828,10.092,348.921
1.6867,128.181738,37.928142,7032.0307416000005,-140.095,9.946,349.138
1.7034,128.181733,37.928186,7032.52848,-143.383,9.798,349.363
1.7201,128.181727,37.92823,7033.0216464000005,-146.691,9.647,349.594
1.7368,128.181721,37.928274,7033.5105456,-150.019,9.494,349.83
1.7535,128.181716,37.928317,7033.995482400001,-153.368,9.34,350.07
1.7702,128.18171,37.928361,7034.4767616,-156.739,9.186,350.313
1.7869,128.181704,37.928405,7034.954688000001,-160.129,9.036,350.556
1.8036,128.181698,37.928449,7035.428956800001,-163.538,8.889,350.799
1.8203,128.181692,37.928493,7035.9001776000005,-166.963,8.737,351.037
1.837,128.181687,37.928537,7036.3677408,-170.402,8.574,351.268
1.8537,128.181681,37.92858,7036.832256000001,-173.85,8.396,351.491
1.8704,128.181675,37.928624,7037.293113600001,-177.305,8.199,351.704
1.8871,128.181669,37.928668,7037.7506184,179.236,7.981,351.909
1.9038,128.181663,37.928712,7038.204770400001,175.778,7.741,352.105
1.9205,128.181657,37.928756,7038.654655200001,172.324,7.482,352.292
1.9372,128.181652,37.9288,7039.1008824,168.877,7.206,352.472
1.9539,128.181646,37.928844,7039.5425376,165.44,6.915,352.642
1.9706,128.18164,37.928887,7039.9799256,162.014,6.612,352.804
1.9873,128.181634,37.928931,7040.4118272000005,158.601,6.292,352.958
2.004,128.181628,37.928975,7040.838547200001,155.219,5.958,353.113
2.0207,128.181622,37.929019,7041.259476,151.881,5.618,353.277
2.0374,128.181617,37.929063,7041.674004,148.597,5.28,353.453
2.0541,128.181611,37.929107,7042.0833504,145.428,4.947,353.64
2.0707,128.181605,37.929151,7042.486905600001,142.426,4.621,353.833
2.0875,128.181599,37.929195,7042.885279200001,139.632,4.305,354.031
2.1042,128.181594,37.929239,7043.2778616,137.05,4.002,354.233
2.1208,128.181588,37.929283,7043.6652624,134.677,3.716,354.438
2.1376,128.181582,37.929327,7044.0477864,132.507,3.449,354.645
2.1543,128.181576,37.929371,7044.424824000001,130.532,3.205,354.85
2.171,128.181571,37.929415,7044.7975944,128.745,2.984,355.051
2.1877,128.181565,37.929459,7045.165488000001,127.136,2.786,355.244
2.2044,128.181559,37.929503,7045.5291144,125.697,2.614,355.424
2.2211,128.181554,37.929547,7045.888778400001,124.416,2.471,355.581
2.2378,128.181548,37.929591,7046.2447848,123.285,2.355,355.71
2.2544,128.181543,37.929635,7046.597438400001,122.296,2.267,355.808
2.2712,128.181537,37.929679,7046.9467392,121.44,2.202,355.875
2.2879,128.181531,37.929723,7047.292992000001,120.705,2.155,355.911
2.3045,128.181526,37.929767,7047.635892,120.085,2.12,355.919
2.3213,128.18152,37.929811,7047.975744,119.578,2.097,355.906
2.338,128.181515,37.929855,7048.3122432,119.18,2.082,355.876
2.3546,128.181509,37.929899,7048.6453896,118.889,2.072,355.835
2.3714,128.181503,37.929944,7048.975488000001,118.702,2.066,355.788
2.3881,128.181498,37.929988,7049.3022336,118.614,2.061,355.737
2.4048,128.181492,37.930032,7049.6259312,118.623,2.054,355.689
2.4215,128.181487,37.930076,7049.9465808,118.725,2.046,355.646
2.4382,128.181481,37.93012,7050.2638776,118.918,2.033,355.609
2.4549,128.181476,37.930165,7050.5784312000005,119.198,2.017,355.58
2.4716,128.18147,37.930209,7050.8893272000005,119.563,1.996,355.559
2.4882,128.181464,37.930253,7051.19748,120.009,1.971,355.548
2.505,128.181459,37.930298,7051.50228,120.534,1.941,355.545
2.5217,128.181453,37.930342,7051.804032,121.136,1.905,355.551
2.5383,128.181448,37.930386,7052.1024312,121.811,1.864,355.566
2.5551,128.181442,37.930431,7052.3977824,122.557,1.817,355.59
2.5718,128.181437,37.930475,7052.6900856,123.372,1.764,355.623
2.5884,128.181431,37.930519,7052.9787312,124.253,1.705,355.664
2.6052,128.181426,37.930564,7053.264328800001,125.198,1.639,355.712
2.6219,128.18142,37.930608,7053.546268800001,126.205,1.567,355.769
2.6386,128.181415,37.930652,7053.824856000001,127.272,1.488,355.833
2.6553,128.181409,37.930697,7054.0997856,128.396,1.401,355.904
2.6719,128.181404,37.930741,7054.3713624,129.577,1.306,355.981
2.6887,128.181398,37.930786,7054.638672,130.811,1.203,356.065
2.7054,128.181393,37.93083,7054.902324000001,132.097,1.091,356.155
2.722,128.181388,37.930875,7055.1620136,133.434,0.97,356.251
2.7388,128.181382,37.930919,7055.417436000001,134.82,0.839,356.351
2.7555,128.181377,37.930964,7055.6679816000005,136.247,0.699,356.455
2.7721,128.181371,37.931008,7055.9133456,137.699,0.55,356.565
2.7889,128.181366,37.931053,7056.1529184,139.159,0.391,356.679
2.8056,128.181361,37.931097,7056.3863952,140.614,0.223,356.798
2.8222,128.181356,37.931142,7056.6131663999995,142.047,0.045,356.922
2.839,128.18135,37.931187,7056.8326224,143.449,-0.14,357.048
2.8557,128.181345,37.931231,7057.044458400001,144.81,-0.337,357.177
2.8724,128.18134,37.931276,7057.248064800001,146.12,-0.542,357.308
2.8891,128.181335,37.93132,7057.442832000001,147.374,-0.755,357.438
2.9057,128.18133,37.931365,7057.628150400001,148.568,-0.977,357.568
2.9225,128.181325,37.93141,7057.803715200001,149.698,-1.205,357.696
2.9392,128.18132,37.931454,7057.9692216,150.761,-1.439,357.821
2.9558,128.181315,37.931499,7058.124060000001,151.757,-1.677,357.942
2.9726,128.181311,37.931544,7058.2679256,152.685,-1.918,358.058
2.9893,128.181306,37.931588,7058.4011232,153.547,-2.161,358.169
3.0059,128.181301,37.931633,7058.523348,154.344,-2.403,358.275
3.0227,128.181297,37.931678,7058.6336856,155.075,-2.645,358.374
3.0394,128.181292,37.931722,7058.733660000001,155.807,-2.886,358.463
3.056,128.181287,37.931767,7058.8229664,156.528,-3.125,358.542
3.0728,128.181283,37.931812,7058.9016048,157.219,-3.361,358.614
3.0895,128.181279,37.931856,7058.9680512,157.866,-3.592,358.683
3.1062,128.181274,37.931901,7059.022000800001,158.459,-3.818,358.748
3.1229,128.18127,37.931946,7059.063758400001,158.99,-4.039,358.811
3.1395,128.181265,37.931991,7059.0918,159.459,-4.257,358.873
3.1563,128.181261,37.932035,7059.1076496000005,159.869,-4.468,358.931
3.173,128.181257,37.93208,7059.110392800001,160.22,-4.666,358.984
3.1896,128.181253,37.932125,7059.099115200001,160.503,-4.844,359.034
3.2064,128.181249,37.93217,7059.0741216,160.703,-4.997,359.084
3.2231,128.181245,37.932214,7059.0348023999995,160.82,-5.125,359.131
3.2397,128.181241,37.932259,7058.9817672,160.854,-5.229,359.172
3.2565,128.181237,37.932304,7058.915016,160.806,-5.31,359.208
3.2732,128.181233,37.932348,7058.8345488,160.678,-5.373,359.238
3.2899,128.181229,37.932393,7058.7406704,160.471,-5.418,359.264
3.3066,128.181225,37.932438,7058.6333808,160.189,-5.451,359.285
3.3233,128.181221,37.932483,7058.5129848,159.833,-5.474,359.304
3.34,128.181218,37.932527,7058.380092,159.406,-5.474,359.315
3.3567,128.181214,37.932572,7058.235312,158.912,-5.441,359.314
3.3734,128.18121,37.932617,7058.07834,158.352,-5.368,359.298
3.3901,128.181207,37.932662,7057.9097856,157.729,-5.264,359.27
3.4068,128.181203,37.932706,7057.7296488,157.043,-5.142,359.234
3.4235,128.1812,37.932751,7057.5385392,156.297,-5.011,359.193
3.4402,128.181196,37.932796,7057.336456800001,155.491,-4.876,359.15
3.4569,128.181193,37.93284,7057.1240112000005,154.627,-4.742,359.107
3.4736,128.181189,37.932885,7056.901202399999,153.707,-4.612,359.063
3.4903,128.181186,37.93293,7056.66864,152.732,-4.488,359.021
3.507,128.181183,37.932975,7056.426324000001,151.705,-4.37,358.979
3.5237,128.181179,37.933019,7056.174559200001,150.625,-4.258,358.939
3.5404,128.181176,37.933064,7055.913650400001,149.496,-4.154,358.901
3.5571,128.181173,37.933109,7055.6442072,148.319,-4.056,358.865
3.5738,128.18117,37.933153,7055.3662296,147.095,-3.966,358.83
3.5905,128.181167,37.933198,7055.079717600001,145.827,-3.882,358.797
3.6072,128.181164,37.933243,7054.7852808,144.516,-3.804,358.765
3.6239,128.181161,37.933288,7054.482919200001,143.163,-3.733,358.735
3.6406,128.181158,37.933332,7054.1729376,141.771,-3.666,358.707
3.6573,128.181155,37.933377,7053.8556408,140.341,-3.606,358.68
3.674,128.181153,37.933422,7053.531028800001,138.875,-3.55,358.655
3.6907,128.18115,37.933466,7053.199406400001,137.374,-3.499,358.631
3.7074,128.181147,37.933511,7052.8610784,135.84,-3.452,358.608
3.7241,128.181144,37.933556,7052.516044800001,134.275,-3.409,358.587
3.7408,128.181142,37.933601,7052.164915200001,132.681,-3.37,358.567
3.7575,128.181139,37.933645,7051.8073848,131.058,-3.334,358.548
3.7742,128.181137,37.93369,7051.4437584,129.408,-3.302,358.53
3.7909,128.181134,37.933735,7051.074036,127.733,-3.272,358.513
3.8076,128.181132,37.933779,7050.699132000001,126.035,-3.246,358.497
3.8243,128.181129,37.933824,7050.318132,124.314,-3.223,358.484
3.841,128.181127,37.933869,7049.9322552,122.572,-3.206,358.476
3.8577,128.181125,37.933914,7049.5405872,120.81,-3.195,358.476
3.8744,128.181123,37.933958,7049.144042400001,119.029,-3.19,358.485
3.8911,128.18112,37.934003,7048.7426208,117.23,-3.193,358.505
3.9078,128.181118,37.934048,7048.3363224,115.414,-3.201,358.536
3.9245,128.181116,37.934092,7047.9251472000005,113.583,-3.215,358.576
3.9412,128.181114,37.934137,7047.5094,111.738,-3.233,358.628
3.9579,128.181112,37.934182,7047.0893856,109.879,-3.254,358.689
3.9746,128.18111,37.934227,7046.6647992,108.01,-3.277,358.758
3.9913,128.181109,37.934271,7046.2362504,106.131,-3.302,358.836
4.008,128.181107,37.934316,7045.8037392,104.242,-3.327,358.921
4.0247,128.181105,37.934361,7045.367265600001,102.346,-3.351,359.01
4.0414,128.181104,37.934406,7044.9268296,100.443,-3.374,359.104
4.058,128.181102,37.93445,7044.483345600001,98.534,-3.394,359.201
4.0748,128.1811,37.934495,7044.036204,96.618,-3.413,359.299
4.0915,128.181099,37.93454,7043.586014400001,94.698,-3.428,359.397
4.1082,128.181098,37.934585,7043.1330816,92.773,-3.44,359.495
4.1249,128.181096,37.93463,7042.6771008000005,90.843,-3.449,359.592
4.1415,128.181095,37.934674,7042.2186816,88.908,-3.455,359.688
4.1583,128.181094,37.934719,7041.758128800001,86.969,-3.458,359.782
4.175,128.181093,37.934764,7041.295442400001,85.025,-3.457,359.875
4.1917,128.181092,37.934809,7040.830927200001,83.077,-3.453,359.966
4.2084,128.181091,37.934853,7040.364888000001,81.125,-3.446,0.055
4.2251,128.181091,37.934898,7039.897324800001,79.167,-3.436,0.144
4.2417,128.18109,37.934943,7039.428847200001,77.204,-3.423,0.23
4.2585,128.181089,37.934988,7038.959455200001,75.236,-3.407,0.315
4.2752,128.181089,37.935033,7038.4894536,73.263,-3.388,0.398
4.2919,128.181088,37.935077,7038.019147200001,71.284,-3.366,0.479
4.3086,128.181088,37.935122,7037.5488408,69.299,-3.341,0.557
4.3252,128.181087,37.935167,7037.0788391999995,67.308,-3.313,0.634
4.342,128.181087,37.935212,7036.609142400001,65.311,-3.283,0.708
4.3587,128.181087,37.935257,7036.14036,63.306,-3.25,0.78
4.3754,128.181087,37.935301,7035.672492000001,61.295,-3.215,0.85
4.3921,128.181087,37.935346,7035.206148,59.276,-3.177,0.917
4.4088,128.181087,37.935391,7034.7410232,57.25,-3.136,0.982
4.4254,128.181087,37.935436,7034.278032,55.216,-3.093,1.045
4.4422,128.181087,37.935481,7033.816869600001,53.174,-3.047,1.105
4.4589,128.181088,37.935526,7033.3581456,51.122,-2.998,1.164
4.4756,128.181088,37.935571,7032.901860000001,49.062,-2.947,1.22
4.4923,128.181089,37.935615,7032.4486224,46.993,-2.893,1.275
4.5089,128.181089,37.93566,7031.998737600001,44.914,-2.836,1.327
4.5256,128.18109,37.935705,7031.5519008,42.825,-2.777,1.376
4.5424,128.18109,37.93575,7031.1087216,40.726,-2.715,1.423
4.5591,128.181091,37.935795,7030.6695048,38.617,-2.652,1.467
4.5758,128.181092,37.93584,7030.2339456,36.496,-2.586,1.507
4.5925,128.181093,37.935885,7029.8032632,34.365,-2.519,1.544
4.6091,128.181093,37.93593,7029.3765432,32.221,-2.45,1.577
4.6259,128.181094,37.935975,7028.9550048,30.066,-2.38,1.607
4.6426,128.181095,37.936019,7028.538038400001,27.899,-2.308,1.634
4.6593,128.181096,37.936064,7028.1262536,25.719,-2.235,1.656
4.676,128.181097,37.936109,7027.7196504,23.526,-2.161,1.675
4.6927,128.181099,37.936154,7027.318533600001,21.32,-2.086,1.69
4.7093,128.1811,37.936199,7026.923208,19.1,-2.01,1.701
4.7261,128.181101,37.936244,7026.5324544000005,16.887,-1.935,1.712
4.7428,128.181102,37.936289,7026.146272800001,14.693,-1.861,1.722
4.7595,128.181103,37.936334,7025.764968,12.548,-1.788,1.733
4.7762,128.181105,37.936379,7025.3879304,10.48,-1.717,1.746
4.7928,128.181106,37.936424,7025.014855200001,8.511,-1.648,1.76
4.8096,128.181107,37.936469,7024.645437600001,6.657,-1.579,1.775
4.8263,128.181108,37.936514,7024.279068000001,4.927,-1.511,1.791
4.843,128.18111,37.936559,7023.916051200001,3.326,-1.444,1.806
4.8597,128.181111,37.936604,7023.555472800001,1.855,-1.378,1.819
4.8764,128.181112,37.936649,7023.1973328,0.512,-1.314,1.83
4.893,128.181114,37.936694,7022.8410216,-0.706,-1.253,1.839
4.9098,128.181115,37.936739,7022.4859295999995,-1.807,-1.208,1.846
4.9265,128.181116,37.936784,7022.132056800001,-2.798,-1.18,1.85
4.9432,128.181117,37.936829,7021.7787935999995,-3.687,-1.166,1.852
4.9599,128.181119,37.936874,7021.427664000001,-4.498,-1.164,1.852
4.9765,128.18112,37.936919,7021.0774488,-5.234,-1.168,1.849
4.9932,128.181121,37.936965,7020.7275384,-5.888,-1.176,1.846
5.01,128.181123,37.93701,7020.378847200001,-6.463,-1.184,1.843
5.0267,128.181124,37.937055,7020.0307656,-6.965,-1.191,1.841
5.0434,128.181125,37.9371,7019.684208,-7.401,-1.194,1.839
5.0601,128.181127,37.937145,7019.338869600001,-7.779,-1.194,1.836
5.0767,128.181128,37.93719,7018.995055200001,-8.106,-1.19,1.832
5.0935,128.181129,37.937236,7018.652764800001,-8.389,-1.185,1.829
5.1102,128.18113,37.937281,7018.3116936,-8.63,-1.179,1.825
5.1269,128.181132,37.937326,7017.9718416000005,-8.83,-1.175,1.821
5.1436,128.181133,37.937371,7017.632904,-8.987,-1.171,1.819
5.1602,128.181134,37.937417,7017.2964048,-9.111,-1.168,1.817
5.1769,128.181136,37.937462,7016.9605152,-9.199,-1.166,1.815
5.1937,128.181137,37.937507,7016.62554,-9.249,-1.165,1.814
5.2104,128.181138,37.937552,7016.291479200001,-9.258,-1.165,1.814
5.2271,128.181139,37.937598,7015.958028000001,-9.224,-1.166,1.815
5.2438,128.181141,37.937643,7015.624881600001,-9.145,-1.183,1.82
5.2604,128.181142,37.937688,7015.293259200001,-9.041,-1.215,1.827
5.2772,128.181143,37.937734,7014.963160800001,-8.916,-1.259,1.834
5.2939,128.181144,37.937779,7014.634281600001,-8.771,-1.31,1.841
5.3106,128.181146,37.937825,7014.3066216,-8.61,-1.363,1.848
5.3273,128.181147,37.93787,7013.9801808,-8.435,-1.416,1.854
5.3439,128.181148,37.937915,7013.6546544,-8.248,-1.466,1.86
5.3606,128.181149,37.937961,7013.3315664,-8.065,-1.511,1.864
5.3774,128.181151,37.938006,7013.010002399999,-7.885,-1.549,1.865
5.3941,128.181152,37.938052,7012.6899624,-7.709,-1.581,1.865
5.4108,128.181153,37.938097,7012.371141600001,-7.535,-1.606,1.864
5.4275,128.181154,37.938143,7012.05354,-7.361,-1.625,1.862
5.4441,128.181156,37.938188,7011.7383768,-7.197,-1.637,1.859
5.4609,128.181157,37.938234,7011.4244328,-7.04,-1.645,1.855
5.4776,128.181158,37.938279,7011.1114032,-6.885,-1.648,1.851
5.4943,128.181159,37.938324,7010.799592800001,-6.73,-1.647,1.848
5.511,128.18116,37.93837,7010.488696800001,-6.569,-1.644,1.844
5.5277,128.181162,37.938416,7010.178715200001,-6.398,-1.639,1.842
5.5443,128.181163,37.938461,7009.8693432,-6.212,-1.634,1.84
5.5611,128.181164,37.938507,7009.5618,-6.022,-1.627,1.839
5.5778,128.181165,37.938552,7009.2545616,-5.824,-1.62,1.837
5.5945,128.181166,37.938598,7008.9497616,-5.63,-1.612,1.834
5.6112,128.181168,37.938643,7008.6455712,-5.437,-1.603,1.832
5.6278,128.181169,37.938689,7008.3422952,-5.24,-1.595,1.829
5.6445,128.18117,37.938735,7008.040238400001,-5.037,-1.587,1.827
5.6613,128.181171,37.93878,7007.7384864000005,-4.822,-1.58,1.825
5.678,128.181172,37.938826,7007.4376488,-4.592,-1.575,1.825
5.6947,128.181174,37.938871,7007.13864,-4.36,-1.569,1.824
5.7114,128.181175,37.938917,7006.8402408,-4.122,-1.564,1.824
5.728,128.181176,37.938963,7006.542451200001,-3.877,-1.559,1.823
5.7448,128.181177,37.939008,7006.2458808,-3.621,-1.555,1.823
5.7615,128.181178,37.939054,7005.949615200001,-3.351,-1.552,1.824
5.7782,128.18118,37.9391,7005.6551784,-3.083,-1.549,1.824
5.7949,128.181181,37.939146,7005.361351200001,-2.807,-1.547,1.824
5.8115,128.181182,37.939191,7005.067828800001,-2.521,-1.547,1.825
5.8282,128.181183,37.939237,7004.7752208,-2.221,-1.548,1.826
5.845,128.181184,37.939283,7004.4829176,-1.904,-1.551,1.829
5.8617,128.181186,37.939329,7004.1909192,-1.567,-1.554,1.831
5.8784,128.181187,37.939374,7003.9007496,-1.236,-1.558,1.833
5.8951,128.181188,37.93942,7003.6117992,-0.91,-1.561,1.834
5.9117,128.181189,37.939466,7003.3237632,-0.587,-1.564,1.834
5.9285,128.18119,37.939512,7003.0369464000005,-0.264,-1.567,1.834
5.9452,128.181192,37.939558,7002.7504344,0.062,-1.57,1.835
5.9619,128.181193,37.939603,7002.464836800001,0.396,-1.573,1.836
5.9786,128.181194,37.939649,7002.181068,0.717,-1.575,1.836
5.9952,128.181195,37.939695,7001.899128000001,1.006,-1.575,1.834
6.0119,128.181196,37.939741,7001.6193216,1.269,-1.574,1.831
6.0287,128.181198,37.939787,7001.3407344,1.51,-1.571,1.827
6.0454,128.181199,37.939833,7001.065195200001,1.721,-1.566,1.822
6.0621,128.1812,37.939879,7000.790570400001,1.907,-1.56,1.816
6.0788,128.181201,37.939925,7000.5174696,2.076,-1.554,1.812
6.0954,128.181203,37.939971,7000.245283200001,2.237,-1.548,1.809
6.1121,128.181204,37.940016,6999.974011200001,2.398,-1.542,1.808
6.1289,128.181205,37.940062,6999.7048728,2.548,-1.537,1.807
6.1456,128.181206,37.940108,6999.4366488000005,2.693,-1.531,1.807
6.1623,128.181207,37.940154,6999.1690344,2.838,-1.526,1.808
6.179,128.181209,37.9402,6998.9023344,2.992,-1.522,1.81
6.1956,128.18121,37.940246,6998.637463200001,3.125,-1.517,1.809
6.2124,128.181211,37.940292,6998.3744208,3.24,-1.511,1.806
6.2291,128.181212,37.940338,6998.1132072,3.34,-1.504,1.801
6.2458,128.181214,37.940384,6997.852908,3.429,-1.497,1.797
6.2625,128.181215,37.94043,6997.5947424000005,3.5,-1.49,1.792
6.2791,128.181216,37.940477,6997.337796000001,3.56,-1.484,1.788
6.2958,128.181218,37.940523,6997.0820688,3.611,-1.477,1.783
6.3126,128.181219,37.940569,6996.8272560000005,3.661,-1.473,1.781
6.3293,128.18122,37.940615,6996.574576800001,3.703,-1.468,1.778
6.346,128.181221,37.940661,6996.3225072,3.74,-1.464,1.776
6.3627,128.181223,37.940707,6996.071656800001,3.778,-1.461,1.774
6.3793,128.181224,37.940753,6995.821111200001,3.824,-1.459,1.774
6.3961,128.181225,37.940799,6995.5726992,3.865,-1.458,1.774
6.4128,128.181227,37.940845,6995.325811200001,3.898,-1.455,1.771
6.4295,128.181228,37.940892,6995.080142400001,3.924,-1.451,1.767
6.4462,128.181229,37.940938,6994.835692800001,3.944,-1.448,1.763
6.4628,128.181231,37.940984,6994.593072000001,3.956,-1.444,1.758
6.4795,128.181232,37.94103,6994.3513656000005,3.961,-1.44,1.752
6.4963,128.181233,37.941076,6994.110878400001,3.961,-1.436,1.747
6.513,128.181235,37.941122,6993.8716104000005,3.955,-1.433,1.741
6.5297,128.181236,37.941169,6993.6335616,3.945,-1.43,1.736
6.5464,128.181237,37.941215,6993.396732,3.931,-1.428,1.731
6.5631,128.181239,37.941261,6993.1614264,3.912,-1.426,1.725
6.5798,128.18124,37.941307,6992.9267304,3.891,-1.424,1.719
6.5965,128.181241,37.941354,6992.6938632,3.865,-1.422,1.713
6.6132,128.181243,37.9414,6992.4616056,3.836,-1.418,1.707
6.6299,128.181244,37.941446,6992.231786400001,3.795,-1.413,1.699
6.6466,128.181246,37.941492,6992.002272,3.749,-1.409,1.691
6.6633,128.181247,37.941539,6991.7739768,3.7,-1.403,1.683
6.68,128.181248,37.941585,6991.5478152000005,3.639,-1.398,1.675
6.6967,128.18125,37.941631,6991.322263200001,3.571,-1.394,1.666
6.7134,128.181251,37.941678,6991.0973208,3.505,-1.389,1.659
6.7301,128.181253,37.941724,6990.874512,3.413,-1.392,1.649
6.7468,128.181254,37.94177,6990.653532,3.24,-1.403,1.634
6.7635,128.181255,37.941817,6990.4343808,3.014,-1.419,1.614
6.7802,128.181257,37.941863,6990.2179728,2.692,-1.44,1.59
6.7969,128.181258,37.941909,6990.0043080000005,2.275,-1.462,1.563
6.8136,128.18126,37.941956,6989.7936912000005,1.765,-1.485,1.535
6.8303,128.181261,37.942002,6989.5861224,1.178,-1.507,1.508
6.847,128.181263,37.942048,6989.382516,0.502,-1.526,1.482
6.8637,128.181264,37.942095,6989.1810432,-0.238,-1.542,1.457
6.8804,128.181265,37.942141,6988.982008800001,-0.981,-1.555,1.437
6.8971,128.181267,37.942187,6988.7848032,-1.679,-1.563,1.425
6.9138,128.181268,37.942234,6988.5888168,-2.379,-1.567,1.416
6.9305,128.18127,37.94228,6988.3943544,-3.043,-1.569,1.409
6.9472,128.181271,37.942326,6988.2026352,-3.74,-1.568,1.399
6.9639,128.181272,37.942373,6988.0130496,-4.511,-1.566,1.383
6.9806,128.181274,37.942419,6987.8262072,-5.356,-1.564,1.363
6.9973,128.181275,37.942466,6987.6408888,-6.236,-1.56,1.342
7.014,128.181277,37.942512,6987.4570944,-7.1,-1.554,1.325
7.0307,128.181278,37.942558,6987.276347999999,-8.019,-1.546,1.308
7.0474,128.18128,37.942605,6987.095906400001,-8.936,-1.537,1.293
7.0641,128.181281,37.942651,6986.9169888,-9.806,-1.525,1.281
7.0808,128.181282,37.942698,6986.7408144,-10.7,-1.512,1.269
7.0975,128.181284,37.942744,6986.5646400000005,-11.577,-1.498,1.257
7.1142,128.181285,37.94279,6986.3896848,-12.399,-1.483,1.247
7.1309,128.181286,37.942837,6986.214729599999,-13.139,-1.465,1.241
7.1476,128.181288,37.942883,6986.041908,-13.952,-1.449,1.229
7.1643,128.181289,37.94293,6985.870915200001,-14.833,-1.434,1.209
7.181,128.18129,37.942976,6985.7017512,-15.761,-1.42,1.186
7.1977,128.181292,37.943022,6985.532892,-16.686,-1.405,1.164
7.2144,128.181293,37.943069,6985.366776,-17.685,-1.39,1.14
7.2311,128.181294,37.943115,6985.201879200001,-18.701,-1.374,1.117
7.2478,128.181296,37.943162,6985.037592000001,-19.676,-1.356,1.097
7.2645,128.181297,37.943208,6984.874219200001,-20.566,-1.335,1.084
7.2812,128.181298,37.943254,6984.7108464,-21.439,-1.314,1.072
7.2979,128.181299,37.943301,6984.547473600001,-22.261,-1.292,1.059
7.3146,128.181301,37.943347,6984.383796,-23.002,-1.269,1.048
7.3313,128.181302,37.943394,6984.221642400001,-23.749,-1.247,1.034
7.348,128.181303,37.94344,6984.0604032,-24.565,-1.228,1.012
7.3647,128.181304,37.943487,6983.900383200001,-25.452,-1.212,0.983
7.3814,128.181305,37.943533,6983.741582400001,-26.368,-1.197,0.953
7.3981,128.181307,37.943579,6983.5830864,-27.261,-1.181,0.927
7.4148,128.181308,37.943626,6983.4245904,-28.082,-1.162,0.907
7.4315,128.181309,37.943672,6983.268228000001,-28.907,-1.142,0.887
7.4482,128.18131,37.943719,6983.111256000001,-29.694,-1.122,0.867
7.4649,128.181311,37.943765,6982.954284000001,-30.411,-1.102,0.85
7.4816,128.181312,37.943812,6982.7970072,-31.041,-1.079,0.836
7.4983,128.181313,37.943858,6982.6391208,-31.58,-1.056,0.826
7.515,128.181314,37.943905,6982.4821488,-32.091,-1.033,0.813
7.5317,128.181315,37.943951,6982.3236528,-32.559,-1.014,0.798
7.5484,128.181316,37.943998,6982.1654616,-32.987,-0.994,0.78
7.5651,128.181317,37.944044,6982.006051200001,-33.37,-0.974,0.76
7.5818,128.181318,37.944091,6981.8457264,-33.706,-0.953,0.742
7.5985,128.181319,37.944137,6981.686011200001,-34.058,-0.935,0.72
7.6152,128.18132,37.944184,6981.526296000001,-34.41,-0.918,0.695
7.6319,128.181321,37.94423,6981.3665808000005,-34.744,-0.902,0.67
7.6486,128.181322,37.944277,6981.205646400001,-35.048,-0.886,0.647
7.6653,128.181323,37.944323,6981.0441024,-35.315,-0.869,0.628
7.682,128.181324,37.94437,6980.8834728,-35.605,-0.854,0.606
7.6987,128.181324,37.944416,6980.7228432,-35.899,-0.841,0.581
7.7154,128.181325,37.944463,6980.5625184,-36.181,-0.828,0.556
7.7321,128.181326,37.944509,6980.4009744,-36.441,-0.816,0.533
7.7488,128.181327,37.944556,6980.2391256,-36.672,-0.802,0.513
7.7655,128.181328,37.944602,6980.076972,-36.877,-0.787,0.496
7.7822,128.181328,37.944649,6979.913904,-37.052,-0.774,0.483
7.7989,128.181329,37.944695,6979.751750400001,-37.246,-0.762,0.466
7.8156,128.18133,37.944742,6979.590511200001,-37.533,-0.753,0.438
7.8323,128.18133,37.944789,6979.4295768,-37.913,-0.745,0.4
7.849,128.181331,37.944835,6979.2698616,-38.388,-0.738,0.356
7.8657,128.181332,37.944882,6979.111365600001,-38.943,-0.73,0.31
7.8824,128.181332,37.944928,6978.9540888,-39.546,-0.72,0.265
7.8991,128.181333,37.944975,6978.7989456000005,-40.241,-0.706,0.215
7.9158,128.181333,37.945021,6978.6453264,-41.023,-0.689,0.16
7.9325,128.181334,37.945068,6978.494145600001,-41.892,-0.669,0.101
7.9492,128.181334,37.945114,6978.3460128,-42.839,-0.637,0.028
7.9659,128.181335,37.945161,6978.2006232,-43.863,-0.583,359.929
7.9826,128.181335,37.945207,6978.058281600001,-44.963,-0.513,359.812
7.9993,128.181335,37.945254,6977.918073600001,-46.136,-0.437,359.686
8.016,128.181335,37.945301,6977.780608800001,-47.379,-0.364,359.56
8.0327,128.181335,37.945347,6977.645277600001,-48.691,-0.3,359.441
8.0494,128.181336,37.945394,6977.5123848,-50.069,-0.249,359.334
8.0661,128.181336,37.94544,6977.3813208,-51.511,-0.211,359.241
8.0828,128.181335,37.945487,6977.2523904,-53.014,-0.188,359.164
8.0994,128.181335,37.945533,6977.1252888,-54.576,-0.179,359.104
8.1161,128.181335,37.94558,6976.999711200001,-56.195,-0.183,359.06
8.1329,128.181335,37.945626,6976.8747432,-57.772,-0.195,359.036
8.1496,128.181335,37.945673,6976.749470400001,-59.205,-0.207,359.033
8.1663,128.181334,37.945719,6976.6248072,-60.5,-0.219,359.05
8.183,128.181334,37.945766,6976.5022776000005,-61.849,-0.24,359.064
8.1997,128.181333,37.945813,6976.3803576,-63.247,-0.265,359.058
8.2164,128.181333,37.945859,6976.259656800001,-64.699,-0.286,359.022
8.2331,128.181332,37.945906,6976.1395656,-66.208,-0.292,358.944
8.2498,128.181332,37.945952,6976.0203888,-67.776,-0.279,358.812
8.2665,128.181331,37.945999,6975.901212,-69.373,-0.243,358.618
8.2831,128.18133,37.946045,6975.78234,-70.967,-0.18,358.354
8.2998,128.181329,37.946092,6975.663468000001,-72.531,-0.092,358.014
8.3166,128.181328,37.946138,6975.544596000001,-74.04,0.012,357.611
8.3333,128.181327,37.946185,6975.425419200001,-75.475,0.127,357.156
8.35,128.181326,37.946231,6975.305937600001,-76.82,0.246,356.662
8.3667,128.181325,37.946278,6975.1861512000005,-78.066,0.361,356.146
8.3834,128.181323,37.946325,6975.0657552,-79.209,0.467,355.626
8.4001,128.181322,37.946371,6974.9447496,-80.249,0.558,355.121
8.4168,128.18132,37.946418,6974.8231344,-81.186,0.634,354.646
8.4335,128.181319,37.946464,6974.7006048,-82.028,0.693,354.204
8.4502,128.181317,37.946511,6974.5771608000005,-82.78,0.738,353.792
8.4668,128.181315,37.946557,6974.4528024,-83.452,0.769,353.407
8.4835,128.181313,37.946604,6974.327224800001,-84.052,0.789,353.046
8.5003,128.181311,37.946651,6974.200732800001,-84.588,0.8,352.707
8.517,128.181309,37.946697,6974.0727168,-85.069,0.803,352.388
8.5337,128.181307,37.946744,6973.9434816,-85.502,0.798,352.086
8.5504,128.181305,37.94679,6973.813027200001,-85.893,0.788,351.801
8.5671,128.181302,37.946837,6973.6810488,-86.249,0.774,351.531
8.5838,128.1813,37.946883,6973.547851200001,-86.576,0.757,351.274
8.6005,128.181297,37.94693,6973.412824800001,-86.877,0.737,351.03
8.6172,128.181294,37.946977,6973.275360000001,-87.095,0.724,350.796
8.6339,128.181291,37.947023,6973.1363712,-87.232,0.718,350.574
8.6505,128.181288,37.94707,6972.9955536,-87.297,0.714,350.36
8.6672,128.181285,37.947116,6972.853212,-87.299,0.712,350.155
8.684,128.181282,37.947163,6972.709346400001,-87.249,0.708,349.957
8.7007,128.181278,37.947209,6972.563652000001,-87.154,0.702,349.767
8.7174,128.181275,37.947256,6972.4164336,-87.022,0.695,349.583
8.7341,128.181271,37.947303,6972.267691200001,-86.858,0.687,349.405
8.7508,128.181268,37.947349,6972.117120000001,-86.666,0.678,349.232
8.7675,128.181264,37.947396,6971.966244,-86.501,0.66,349.065
8.7842,128.18126,37.947442,6971.813844,-86.367,0.634,348.902
8.8009,128.181255,37.947489,6971.660224800001,-86.265,0.603,348.743
8.8176,128.181251,37.947535,6971.5050816,-86.195,0.569,348.588
8.8342,128.181247,37.947582,6971.3487192,-86.157,0.534,348.436
8.8509,128.181242,37.947628,6971.191137600001,-86.146,0.498,348.286
8.8676,128.181237,37.947675,6971.032032,-86.159,0.464,348.139
8.8844,128.181232,37.947721,6970.8714024,-86.195,0.429,347.993
8.9011,128.181227,37.947767,6970.7095536,-86.248,0.396,347.848
8.9178,128.181222,37.947814,6970.5464856,-86.316,0.363,347.705
8.9345,128.181217,37.94786,6970.3815888,-86.397,0.331,347.561
8.9512,128.181211,37.947907,6970.2154728000005,-86.488,0.299,347.418
8.9679,128.181206,37.947953,6970.047832800001,-86.587,0.268,347.276
8.9846,128.1812,37.947999,6969.878668800001,-86.693,0.237,347.133
9.0013,128.181194,37.948046,6969.7079808,-86.804,0.206,346.991
9.0179,128.181188,37.948092,6969.5357688,-86.919,0.175,346.848
9.0346,128.181182,37.948138,6969.362032800001,-87.036,0.144,346.706
9.0513,128.181175,37.948185,6969.186468,-87.156,0.112,346.563
9.0681,128.181169,37.948231,6969.009379200001,-87.277,0.081,346.42
9.0848,128.181162,37.948277,6968.8307664,-87.4,0.05,346.277
9.1015,128.181156,37.948324,6968.6506296,-87.522,0.018,346.134
9.1182,128.181149,37.94837,6968.4683592,-87.644,-0.012,345.991
9.1349,128.181142,37.948416,6968.2845648,-87.767,-0.044,345.848
9.1516,128.181135,37.948462,6968.099246400001,-87.888,-0.076,345.705
9.1683,128.181127,37.948508,6967.9117944,-88.009,-0.109,345.562
9.185,128.18112,37.948555,6967.7228184000005,-88.129,-0.142,345.418
9.2016,128.181112,37.948601,6967.5317088,-88.249,-0.174,345.275
9.2183,128.181104,37.948647,6967.338770400001,-88.367,-0.208,345.132
9.235,128.181097,37.948693,6967.144308,-88.484,-0.241,344.989
9.2518,128.181089,37.948739,6966.947712,-88.601,-0.275,344.846
9.2685,128.18108,37.948785,6966.7489824,-88.716,-0.309,344.702
9.2852,128.181072,37.948831,6966.5484240000005,-88.83,-0.343,344.559
9.3019,128.181064,37.948877,6966.346036800001,-88.944,-0.377,344.416
9.3186,128.181055,37.948923,6966.141516,-89.057,-0.412,344.273
9.3353,128.181046,37.948969,6965.9348616,-89.169,-0.446,344.13
9.352,128.181038,37.949015,6965.726073600001,-89.282,-0.48,343.987
9.3687,128.181029,37.949061,6965.515456800001,-89.394,-0.514,343.844
9.3854,128.181019,37.949107,6965.302706400001,-89.505,-0.548,343.701
9.402,128.18101,37.949153,6965.0875176,-89.616,-0.583,343.558
9.4187,128.181001,37.949199,6964.8705,-89.726,-0.617,343.415
9.4355,128.180991,37.949245,6964.651044,-89.836,-0.651,343.272
9.4522,128.180982,37.949291,6964.4294544,-89.944,-0.687,343.13
9.4689,128.180972,37.949336,6964.2048168,-89.979,-0.713,343.0
9.4856,128.180962,37.949382,6963.978045600001,-89.942,-0.732,342.897
9.5023,128.180952,37.949428,6963.748836000001,-89.833,-0.744,342.836
9.519,128.180942,37.949474,6963.517188000001,-89.65,-0.754,342.831
9.5357,128.180931,37.94952,6963.283406400001,-89.394,-0.762,342.894
9.5524,128.180921,37.949565,6963.0474912,-89.065,-0.771,343.038
9.5691,128.180911,37.949611,6962.809442400001,-88.666,-0.78,343.247
9.5857,128.1809,37.949657,6962.5689552,-88.199,-0.792,343.503
9.6024,128.18089,37.949703,6962.3266392,-87.663,-0.805,343.787
9.6192,128.180879,37.949748,6962.0821896,-87.062,-0.82,344.083
9.6359,128.180868,37.949794,6961.836216,-86.44,-0.838,344.372
9.6526,128.180858,37.94984,6961.5887184,-85.843,-0.861,344.638
9.6693,128.180847,37.949886,6961.339392000001,-85.295,-0.888,344.868
9.686,128.180836,37.949931,6961.0882368,-84.762,-0.915,345.049
9.7027,128.180825,37.949977,6960.8358624,-84.264,-0.939,345.172
9.7194,128.180814,37.950023,6960.5816592,-83.815,-0.96,345.239
9.7361,128.180802,37.950068,6960.3265416,-83.422,-0.978,345.249
9.7528,128.180791,37.950114,6960.0699,-83.085,-0.991,345.205
9.7694,128.18078,37.950159,6959.8120392,-82.805,-0.999,345.109
9.7861,128.180768,37.950205,6959.5529592,-82.576,-1.001,344.964
9.8029,128.180757,37.950251,6959.292660000001,-82.396,-0.998,344.776
9.8196,128.180745,37.950296,6959.0314464,-82.259,-0.988,344.548
9.8363,128.180733,37.950342,6958.7690136,-82.159,-0.972,344.286
9.853,128.180721,37.950387,6958.5056664,-82.091,-0.952,343.996
9.8697,128.180709,37.950433,6958.2414048,-82.05,-0.929,343.686
9.8864,128.180697,37.950478,6957.976228800001,-82.032,-0.905,343.366
9.9031,128.180685,37.950524,6957.709833600001,-82.03,-0.881,343.045
9.9198,128.180673,37.950569,6957.442828800001,-82.042,-0.859,342.728
9.9365,128.18066,37.950614,6957.1749096,-82.066,-0.84,342.418
9.9531,128.180648,37.95066,6956.906076,-82.099,-0.823,342.119
9.9698,128.180635,37.950705,6956.6366328,-82.139,-0.81,341.831
9.9865,128.180622,37.950751,6956.3662752,-82.187,-0.799,341.554
10.0033,128.180609,37.950796,6956.0950032,-82.24,-0.791,341.289
10.02,128.180596,37.950841,6955.8231216,-82.298,-0.786,341.035
10.0367,128.180583,37.950886,6955.5503256,-82.36,-0.783,340.791
10.0534,128.18057,37.950932,6955.2766152,-82.427,-0.781,340.557
10.0701,128.180556,37.950977,6955.0022952,-82.497,-0.782,340.332
10.0868,128.180543,37.951022,6954.727060800001,-82.57,-0.784,340.116
10.1035,128.180529,37.951067,6954.4512168,-82.646,-0.787,339.906
10.1202,128.180515,37.951112,6954.1744584,-82.725,-0.791,339.703
10.1368,128.180501,37.951157,6953.8967856,-82.805,-0.796,339.507
10.1535,128.180487,37.951202,6953.6185032,-82.888,-0.802,339.316
10.1702,128.180473,37.951248,6953.3390016,-82.972,-0.808,339.13
10.187,128.180459,37.951293,6953.058890400001,-83.057,-0.814,338.948
10.2037,128.180444,37.951338,6952.7778648,-83.144,-0.82,338.771
10.2204,128.18043,37.951382,6952.4959248000005,-83.232,-0.827,338.597
10.2371,128.180415,37.951427,6952.213070400001,-83.321,-0.834,338.427
10.2538,128.1804,37.951472,6951.929301600001,-83.411,-0.84,338.26
10.2705,128.180385,37.951517,6951.6449232,-83.501,-0.847,338.096
10.2872,128.18037,37.951562,6951.3593256,-83.593,-0.853,337.935
10.3039,128.180355,37.951607,6951.0725088,-83.685,-0.859,337.776
10.3205,128.180339,37.951651,6950.785082400001,-83.778,-0.865,337.62
10.3372,128.180324,37.951696,6950.496741600001,-83.871,-0.871,337.465
10.3539,128.180308,37.951741,6950.207181600001,-83.965,-0.876,337.312
10.3707,128.180292,37.951785,6949.9164024,-84.059,-0.881,337.16
10.3874,128.180276,37.95183,6949.625013600001,-84.153,-0.886,337.01
10.4041,128.18026,37.951875,6949.332405600001,-84.246,-0.89,336.861
10.4208,128.180244,37.951919,6949.038578400001,-84.339,-0.895,336.713
10.4375,128.180228,37.951964,6948.7441416,-84.43,-0.899,336.565
10.4542,128.180211,37.952008,6948.4481808,-84.519,-0.904,336.418
10.4709,128.180194,37.952053,6948.1513056,-84.607,-0.91,336.272
10.4876,128.180178,37.952097,6947.853516,-84.693,-0.916,336.126
10.5042,128.180161,37.952141,6947.5545071999995,-84.777,-0.922,335.981
10.5209,128.180144,37.952186,6947.2542792,-84.859,-0.929,335.836
10.5376,128.180127,37.95223,6946.952832,-84.939,-0.936,335.691
10.5544,128.180109,37.952274,6946.650470400001,-85.017,-0.943,335.547
10.5711,128.180092,37.952318,6946.3468896,-85.092,-0.951,335.402
10.5878,128.180075,37.952362,6946.0420896,-85.164,-0.959,335.258
10.6045,128.180057,37.952407,6945.736070400001,-85.233,-0.968,335.114
10.6212,128.180039,37.952451,6945.4288320000005,-85.3,-0.977,334.971
10.6379,128.180021,37.952495,6945.1203744,-85.363,-0.986,334.827
10.6546,128.180003,37.952539,6944.810697600001,-85.422,-0.995,334.684
10.6713,128.179985,37.952583,6944.499801600001,-85.477,-1.004,334.54
10.6879,128.179967,37.952627,6944.1876864000005,-85.528,-1.014,334.397
10.7046,128.179948,37.95267,6943.874047200001,-85.575,-1.024,334.254
10.7213,128.17993,37.952714,6943.5594936,-85.618,-1.034,334.111
10.7381,128.179911,37.952758,6943.243416,-85.656,-1.045,333.968
10.7548,128.179892,37.952802,6942.9261192,-85.689,-1.055,333.826
10.7715,128.179873,37.952846,6942.6072984,-85.717,-1.066,333.683
10.7882,128.179854,37.952889,6942.2875632000005,-85.74,-1.077,333.541
10.8049,128.179835,37.952933,6941.9663040000005,-85.758,-1.088,333.398
10.8216,128.179816,37.952976,6941.6438256,-85.771,-1.099,333.256
10.8383,128.179796,37.95302,6941.3198232,-85.78,-1.11,333.114
10.855,128.179776,37.953063,6940.994906400001,-85.784,-1.121,332.972
10.8717,128.179757,37.953107,6940.668465600001,-85.783,-1.132,332.831
10.8883,128.179737,37.95315,6940.340500800001,-85.778,-1.143,332.689
10.905,128.179717,37.953194,6940.0116216,-85.77,-1.155,332.548
10.9218,128.179697,37.953237,6939.6812184,-85.758,-1.166,332.407
10.9385,128.179677,37.95328,6939.3492912,-85.742,-1.178,332.266
10.9552,128.179656,37.953324,6939.016449600001,-85.724,-1.189,332.125
10.9719,128.179636,37.953367,6938.682084000001,-85.704,-1.201,331.984
10.9886,128.179615,37.95341,6938.3464992,-85.682,-1.213,331.843
11.0053,128.179594,37.953453,6938.0096952,-85.659,-1.224,331.703
11.022,128.179573,37.953496,6937.671672,-85.634,-1.236,331.562
11.0387,128.179552,37.953539,6937.332124800001,-85.609,-1.247,331.422
11.0554,128.179531,37.953582,6936.9916632,-85.583,-1.259,331.282
11.072,128.17951,37.953625,6936.6496776,-85.558,-1.271,331.141
11.0887,128.179489,37.953668,6936.3064728,-85.532,-1.282,331.001
11.1054,128.179467,37.953711,6935.9620488,-85.508,-1.294,330.861
11.1222,128.179445,37.953754,6935.616405600001,-85.483,-1.305,330.72
11.1389,128.179424,37.953796,6935.2695432,-85.46,-1.317,330.58
11.1556,128.179402,37.953839,6934.9214616,-85.438,-1.329,330.44
11.1723,128.17938,37.953882,6934.5721608,-85.417,-1.34,330.299
11.189,128.179358,37.953924,6934.2216408,-85.398,-1.352,330.159
11.2057,128.179335,37.953967,6933.869596800001,-85.379,-1.364,330.019
11.2224,128.179313,37.954009,6933.516638400001,-85.362,-1.375,329.878
11.2391,128.17929,37.954052,6933.162460800001,-85.346,-1.387,329.738
11.2557,128.179268,37.954094,6932.8070640000005,-85.332,-1.398,329.597
11.2724,128.179245,37.954137,6932.450448,-85.319,-1.41,329.456
11.2891,128.179222,37.954179,6932.0926128,-85.307,-1.421,329.315
11.3059,128.179199,37.954221,6931.7335584,-85.296,-1.433,329.175
11.3226,128.179176,37.954263,6931.3732848,-85.286,-1.444,329.034
11.3393,128.179152,37.954306,6931.011792,-85.277,-1.455,328.893
11.356,128.179129,37.954348,6930.64908,-85.269,-1.467,328.752
11.3727,128.179105,37.95439,6930.2851488,-85.262,-1.478,328.611
11.3894,128.179082,37.954432,6929.9203032,-85.255,-1.49,328.469
11.4061,128.179058,37.954474,6929.553933600001,-85.249,-1.501,328.328
11.4228,128.179034,37.954516,6929.1863448,-85.243,-1.512,328.187
11.4394,128.17901,37.954557,6928.8178416,-85.237,-1.523,328.045
11.4561,128.178986,37.954599,6928.4478144,-85.23,-1.535,327.904
11.4728,128.178961,37.954641,6928.0768728,-85.223,-1.546,327.762
11.4896,128.178937,37.954683,6927.704712,-85.215,-1.557,327.621
11.5063,128.178912,37.954724,6927.331332000001,-85.205,-1.568,327.479
11.523,128.178888,37.954766,6926.9567328,-85.195,-1.578,327.338
11.5397,128.178863,37.954808,6926.5809144,-85.183,-1.589,327.196
11.5564,128.178838,37.954849,6926.2038768,-85.17,-1.6,327.055
11.5731,128.178813,37.95489,6925.8256200000005,-85.155,-1.611,326.913
11.5898,128.178788,37.954932,6925.446144,-85.139,-1.621,326.772
11.6065,128.178762,37.954973,6925.0657536,-85.121,-1.632,326.63
11.6231,128.178737,37.955015,6924.684144,-85.102,-1.643,326.489
11.6398,128.178711,37.955056,6924.3010104,-85.082,-1.653,326.347
11.6565,128.178686,37.955097,6923.9169624,-85.061,-1.664,326.206
11.6733,128.17866,37.955138,6923.532,-85.039,-1.674,326.065
11.69,128.178634,37.955179,6923.1455136,-85.016,-1.685,325.923
11.7067,128.178608,37.95522,6922.7581128,-84.992,-1.695,325.782
11.7234,128.178582,37.955261,6922.3694928,-84.967,-1.705,325.64
11.7401,128.178555,37.955302,6921.9796536,-84.942,-1.716,325.499
11.7568,128.178529,37.955343,6921.5885952,-84.916,-1.726,325.358
11.7735,128.178503,37.955384,6921.196622400001,-84.89,-1.736,325.216
11.7902,128.178476,37.955424,6920.8034304,-84.864,-1.747,325.075
11.8068,128.178449,37.955465,6920.4090192,-84.837,-1.757,324.934
11.8235,128.178422,37.955506,6920.0136936,-84.811,-1.767,324.792
11.8402,128.178395,37.955546,6919.6171488,-84.785,-1.777,324.651
11.857,128.178368,37.955587,6919.2193848,-84.759,-1.787,324.51
11.8737,128.178341,37.955627,6918.820706400001,-84.734,-1.797,324.368
11.8904,128.178313,37.955668,6918.4208088000005,-84.708,-1.807,324.227
11.9071,128.178286,37.955708,6918.019996800001,-84.683,-1.817,324.086
11.9238,128.178258,37.955748,6917.6179656,-84.659,-1.826,323.944
11.9405,128.178231,37.955788,6917.215020000001,-84.635,-1.836,323.803
11.9572,128.178203,37.955829,6916.8108552,-84.612,-1.846,323.661
11.9739,128.178175,37.955869,6916.405776,-84.589,-1.855,323.52
11.9905,128.178147,37.955909,6915.9994776,-84.566,-1.865,323.378
12.0072,128.178118,37.955949,6915.591960000001,-84.545,-1.875,323.237
12.0239,128.17809,37.955989,6915.1838328,-84.523,-1.884,323.095
12.0407,128.178062,37.956028,6914.774181600001,-84.502,-1.893,322.953
12.0574,128.178033,37.956068,6914.3639207999995,-84.482,-1.903,322.811
12.0741,128.178004,37.956108,6913.952440800001,-84.462,-1.912,322.67
12.0908,128.177975,37.956148,6913.5397416000005,-84.443,-1.921,322.528
12.1075,128.177946,37.956187,6913.126128000001,-84.424,-1.93,322.386
12.1242,128.177917,37.956227,6912.7116000000005,-84.405,-1.94,322.244
12.1409,128.177888,37.956266,6912.2958528,-84.387,-1.949,322.102
12.1576,128.177859,37.956306,6911.879191200001,-84.369,-1.958,321.96
12.1743,128.177829,37.956345,6911.461615200001,-84.351,-1.967,321.818
12.1909,128.1778,37.956385,6911.042820000001,-84.334,-1.976,321.676
12.2076,128.17777,37.956424,6910.623110400001,-84.317,-1.985,321.534
12.2243,128.17774,37.956463,6910.2027912,-84.31,-1.997,321.391
12.2411,128.177711,37.956502,6909.7815576,-84.313,-2.013,321.248
12.2578,128.177681,37.956541,6909.359409600001,-84.327,-2.032,321.105
12.2745,128.17765,37.95658,6908.9363472000005,-84.351,-2.052,320.962
12.2912,128.17762,37.956619,6908.512065600001,-84.387,-2.073,320.819
12.3079,128.17759,37.956658,6908.086869600001,-84.432,-2.094,320.675
12.3246,128.177559,37.956697,6907.6607592,-84.487,-2.114,320.531
12.3413,128.177528,37.956736,6907.2334296,-84.55,-2.135,320.387
12.358,128.177498,37.956774,6906.8051856,-84.62,-2.154,320.243
12.3746,128.177467,37.956813,6906.3757224,-84.697,-2.173,320.098
12.3913,128.177436,37.956851,6905.9450400000005,-84.779,-2.191,319.954
12.408,128.177405,37.95689,6905.513138400001,-84.866,-2.208,319.809
12.4248,128.177373,37.956928,6905.0803224,-84.957,-2.224,319.664
12.4415,128.177342,37.956967,6904.6459824,-85.051,-2.239,319.519
12.4582,128.177311,37.957005,6904.210728000001,-85.147,-2.254,319.374
12.4749,128.177279,37.957043,6903.7742544,-85.245,-2.268,319.228
12.4916,128.177247,37.957082,6903.336256800001,-85.342,-2.282,319.083
12.5083,128.177215,37.95712,6902.897344800001,-85.439,-2.296,318.937
12.525,128.177183,37.957158,6902.4569088,-85.535,-2.31,318.792
12.5417,128.177151,37.957196,6902.0152536000005,-85.629,-2.324,318.646
12.5583,128.177119,37.957234,6901.572379200001,-85.721,-2.338,318.5
12.575,128.177087,37.957272,6901.1282856,-85.81,-2.353,318.355
12.5917,128.177054,37.957309,6900.682668,-85.896,-2.368,318.209
12.6085,128.177022,37.957347,6900.235831200001,-85.979,-2.382,318.063
12.6252,128.176989,37.957385,6899.7874704000005,-86.057,-2.398,317.917
12.6419,128.176956,37.957422,6899.3378904,-86.13,-2.413,317.772
12.6586,128.176924,37.95746,6898.8867864,-86.199,-2.428,317.626
12.6753,128.176891,37.957497,6898.4344632,-86.262,-2.444,317.481
12.692,128.176857,37.957535,6897.980311200001,-86.318,-2.459,317.335
12.7087,128.176824,37.957572,6897.52494,-86.368,-2.475,317.19
12.7254,128.176791,37.957609,6897.0680448,-86.412,-2.49,317.045
12.742,128.176757,37.957647,6896.6099304,-86.448,-2.506,316.9
12.7587,128.176724,37.957684,6896.1499872,-86.476,-2.522,316.756
12.7754,128.17669,37.957721,6895.6888248000005,-86.497,-2.538,316.611
12.7922,128.176656,37.957758,6895.226138400001,-86.51,-2.553,316.467
12.8089,128.176622,37.957795,6894.761928000001,-86.516,-2.569,316.323
12.8256,128.176588,37.957832,6894.2961936,-86.514,-2.585,316.18
12.8423,128.176554,37.957869,6893.8289352,-86.505,-2.601,316.036
12.859,128.17652,37.957905,6893.3604576,-86.489,-2.616,315.893
12.8757,128.176486,37.957942,6892.8901512,-86.468,-2.632,315.75
12.8924,128.176451,37.957979,6892.4186256,-86.441,-2.648,315.608
12.9091,128.176417,37.958015,6891.945576,-86.41,-2.664,315.466
12.9257,128.176382,37.958052,6891.4710024,-86.375,-2.68,315.324
12.9424,128.176347,37.958088,6890.995209600001,-86.337,-2.696,315.182
12.9591,128.176312,37.958125,6890.517588000001,-86.296,-2.712,315.04
12.9759,128.176277,37.958161,6890.038747200001,-86.255,-2.728,314.899
12.9926,128.176242,37.958197,6889.5586872,-86.213,-2.744,314.757
13.0093,128.176207,37.958233,6889.0767984,-86.17,-2.76,314.616
13.026,128.176171,37.958269,6888.5939952,-86.129,-2.776,314.475
13.0427,128.176136,37.958305,6888.1093632,-86.089,-2.792,314.334
13.0594,128.1761,37.958341,6887.623512,-86.05,-2.808,314.193
13.0761,128.176065,37.958377,6887.137356000001,-86.045,-2.832,314.052
13.0928,128.176029,37.958413,6886.649676,-86.073,-2.865,313.91
13.1095,128.175993,37.958448,6886.1607768,-86.136,-2.904,313.767
13.1262,128.175957,37.958484,6885.6706584,-86.232,-2.946,313.623
13.1429,128.175921,37.95852,6885.1793208,-86.36,-2.99,313.479
13.1596,128.175884,37.958555,6884.6861544,-86.517,-3.034,313.334
13.1763,128.175848,37.95859,6884.1917688,-86.7,-3.078,313.189
13.193,128.175811,37.958626,6883.6958592,-86.904,-3.121,313.042
13.2097,128.175775,37.958661,6883.1984256,-87.127,-3.165,312.895
13.2264,128.175738,37.958696,6882.6991632,-87.365,-3.208,312.746
13.2431,128.175701,37.958731,6882.1983768,-87.614,-3.251,312.597
13.2598,128.175664,37.958766,6881.6957616,-87.871,-3.294,312.447
13.2765,128.175627,37.958801,6881.1913176,-88.135,-3.337,312.297
13.2932,128.17559,37.958836,6880.6850448000005,-88.402,-3.381,312.146
13.3099,128.175553,37.958871,6880.176638400001,-88.671,-3.424,311.994
13.3266,128.175515,37.958905,6879.6664032,-88.94,-3.468,311.842
13.3433,128.175478,37.95894,6879.1543392,-89.207,-3.513,311.689
13.36,128.17544,37.958975,6878.6398368,-89.473,-3.558,311.537
13.3767,128.175402,37.959009,6878.1235056000005,-89.735,-3.603,311.384
13.3934,128.175364,37.959043,6877.604736,-89.992,-3.65,311.231
13.4101,128.175326,37.959078,6877.083832800001,-90.246,-3.696,311.078
13.4268,128.175288,37.959112,6876.560491200001,-90.494,-3.744,310.925
13.4435,128.17525,37.959146,6876.034711200001,-90.737,-3.792,310.772
13.4602,128.175212,37.95918,6875.506797600001,-90.975,-3.841,310.619
13.4769,128.175174,37.959214,6874.9761408,-91.207,-3.891,310.466
13.4936,128.175135,37.959248,6874.443350400001,-91.434,-3.941,310.314
13.5103,128.175096,37.959282,6873.9078168,-91.655,-3.992,310.161
13.527,128.175058,37.959316,6873.36954,-91.87,-4.044,310.009
13.5437,128.175019,37.959349,6872.828824800001,-92.081,-4.096,309.858
13.5604,128.17498,37.959383,6872.2850616,-92.286,-4.149,309.706
13.5771,128.174941,37.959417,6871.73886,-92.487,-4.202,309.555
13.5938,128.174902,37.95945,6871.1899152000005,-92.683,-4.256,309.404
13.6105,128.174863,37.959484,6870.6379224,-92.874,-4.311,309.253
13.6272,128.174823,37.959517,6870.0831864,-93.061,-4.366,309.102
13.6439,128.174784,37.95955,6869.5257071999995,-93.243,-4.421,308.952
13.6606,128.174744,37.959583,6868.9648752,-93.422,-4.478,308.802
13.6773,128.174705,37.959616,6868.4013,-93.597,-4.534,308.652
13.694,128.174665,37.959649,6867.8346768,-93.769,-4.591,308.503
13.7107,128.174625,37.959682,6867.2650056,-93.937,-4.649,308.354
13.7274,128.174585,37.959715,6866.692286400001,-94.102,-4.707,308.205
13.7441,128.174545,37.959748,6866.116214400001,-94.264,-4.765,308.056
13.7608,128.174505,37.959781,6865.5370944,-94.423,-4.824,307.907
13.7775,128.174465,37.959813,6864.9546216,-94.579,-4.883,307.759
13.7942,128.174425,37.959846,6864.3691008000005,-94.733,-4.943,307.611
13.8109,128.174384,37.959878,6863.7802272,-94.884,-5.003,307.463
13.8276,128.174344,37.95991,6863.187696000001,-95.034,-5.063,307.316
13.8443,128.174303,37.959943,6862.5921168,-95.18,-5.124,307.168
13.861,128.174262,37.959975,6861.9931848,-95.325,-5.185,307.021
13.8777,128.174222,37.960007,6861.3905952000005,-95.468,-5.246,306.874
13.8944,128.174181,37.960039,6860.7849576,-95.609,-5.307,306.727
13.9111,128.17414,37.960071,6860.1753576,-95.748,-5.369,306.58
13.9278,128.174098,37.960103,6859.5624048,-95.885,-5.431,306.433
13.9445,128.174057,37.960135,6858.9457944000005,-96.021,-5.494,306.287
13.9612,128.174016,37.960166,6858.3258312,-96.155,-5.556,306.141
13.9779,128.173975,37.960198,6857.702210400001,-96.288,-5.619,305.995
13.9946,128.173933,37.96023,6857.074627200001,-96.419,-5.683,305.849
14.0113,128.173891,37.960261,6856.4436912,-96.549,-5.746,305.703
14.028,128.17385,37.960292,6855.8087928,-96.678,-5.81,305.557
14.0447,128.173808,37.960324,6855.170236800001,-96.806,-5.873,305.411
14.0614,128.173766,37.960355,6854.5280232000005,-96.933,-5.937,305.266
14.0781,128.173724,37.960386,6853.8815424,-97.059,-6.0,305.12
14.0948,128.173682,37.960417,6853.2317088,-97.185,-6.064,304.975
14.1115,128.17364,37.960448,6852.5776080000005,-97.31,-6.127,304.829
14.1282,128.173598,37.960479,6851.9198496,-97.434,-6.191,304.684
14.1449,128.173555,37.96051,6851.258128800001,-97.557,-6.254,304.539
14.1616,128.173513,37.96054,6850.5924456,-97.68,-6.317,304.393
14.1783,128.17347,37.960571,6849.9228,-97.802,-6.38,304.248
14.195,128.173428,37.960601,6849.2488872,-97.924,-6.443,304.103
14.2117,128.173385,37.960632,6848.571012,-98.044,-6.506,303.958
14.2284,128.173342,37.960662,6847.889174400001,-98.164,-6.568,303.813
14.2451,128.173299,37.960692,6847.203069600001,-98.284,-6.631,303.668
14.2618,128.173256,37.960723,6846.5130024,-98.403,-6.694,303.523
14.2785,128.173213,37.960753,6845.818668,-98.521,-6.756,303.378
14.2952,128.17317,37.960783,6845.1203712,-98.639,-6.819,303.233
14.3119,128.173127,37.960813,6844.4175024,-98.757,-6.881,303.088
14.3286,128.173083,37.960842,6843.7106711999995,-98.874,-6.943,302.943
14.3453,128.17304,37.960872,6842.9995728,-98.99,-7.006,302.799
14.362,128.172996,37.960902,6842.2839023999995,-99.107,-7.068,302.654
14.3787,128.172952,37.960931,6841.5642696,-99.223,-7.13,302.509
14.3954,128.172909,37.960961,6840.840064800001,-99.338,-7.193,302.364
14.4121,128.172865,37.96099,6840.111592800001,-99.454,-7.255,302.22
14.4288,128.172821,37.961019,6839.3785488,-99.569,-7.317,302.075
14.4455,128.172777,37.961049,6838.641237600001,-99.684,-7.379,301.93
14.4622,128.172733,37.961078,6837.8993544,-99.798,-7.441,301.785
14.4789,128.172689,37.961107,6837.153204,-99.913,-7.503,301.641
14.4956,128.172645,37.961136,6836.4024816,-100.027,-7.565,301.496
14.5123,128.1726,37.961165,6835.6471872,-100.141,-7.627,301.351
14.529,128.172556,37.961193,6834.8873207999995,-100.255,-7.69,301.207
14.5457,128.172511,37.961222,6834.122882400001,-100.369,-7.752,301.062
14.5624,128.172467,37.961251,6833.3541768000005,-100.483,-7.814,300.917
14.5791,128.172422,37.961279,6832.5805944,-100.596,-7.876,300.773
14.5958,128.172377,37.961307,6831.8021352,-100.709,-7.938,300.628
14.6125,128.172332,37.961336,6831.0194088,-100.822,-8.0,300.483
14.6292,128.172287,37.961364,6830.2318056,-100.935,-8.062,300.339
14.6459,128.172242,37.961392,6829.4393256,-101.047,-8.124,300.194
14.6626,128.172197,37.96142,6828.6425784,-101.16,-8.186,300.049
14.6793,128.172152,37.961448,6827.840649600001,-101.272,-8.248,299.905
14.696,128.172107,37.961476,6827.0341488,-101.383,-8.31,299.76
14.7127,128.172062,37.961504,6826.2227712,-101.495,-8.372,299.615
14.7294,128.172016,37.961531,6825.4065168,-101.606,-8.435,299.471
14.7461,128.171971,37.961559,6824.5856904,-101.716,-8.497,299.326
14.7628,128.171925,37.961586,6823.7596824,-101.826,-8.559,299.181
14.7795,128.171879,37.961614,6822.9287976000005,-101.935,-8.622,299.037
14.7962,128.171834,37.961641,6822.0933408,-102.043,-8.685,298.892
14.8129,128.171788,37.961668,6821.2530072,-102.147,-8.753,298.749
14.8296,128.171742,37.961695,6820.407796800001,-102.247,-8.823,298.606
14.8463,128.171696,37.961723,6819.557404800001,-102.345,-8.897,298.464
14.863,128.17165,37.961749,6818.702440800001,-102.442,-8.972,298.322
14.8797,128.171604,37.961776,6817.8422952,-102.541,-9.048,298.18
14.8964,128.171558,37.961803,6816.976968,-102.642,-9.125,298.039
14.9131,128.171511,37.96183,6816.1064592,-102.744,-9.203,297.897
14.9298,128.171465,37.961856,6815.231073600001,-102.849,-9.28,297.755
14.9465,128.171418,37.961883,6814.350506400001,-102.955,-9.358,297.614
14.9632,128.171372,37.961909,6813.4647576,-103.062,-9.435,297.472
14.9799,128.171325,37.961935,6812.573827200001,-103.171,-9.513,297.331
14.9966,128.171279,37.961962,6811.6777152,-103.28,-9.591,297.189
15.0133,128.171232,37.961988,6810.7761168,-103.391,-9.669,297.048
15.03,128.171185,37.962014,6809.8693368,-103.501,-9.747,296.906
15.0467,128.171138,37.962039,6808.9573752,-103.613,-9.825,296.765
15.0634,128.171091,37.962065,6808.040232,-103.724,-9.903,296.623
15.0801,128.171044,37.962091,6807.1176024,-103.836,-9.981,296.482
15.0968,128.170997,37.962117,6806.1897912,-103.947,-10.06,296.34
15.1135,128.17095,37.962142,6805.2561888,-104.059,-10.138,296.199
15.1302,128.170902,37.962168,6804.3174048,-104.171,-10.217,296.057
15.1469,128.170855,37.962193,6803.3734392,-104.282,-10.295,295.916
15.1636,128.170808,37.962218,6802.423682400001,-104.393,-10.374,295.774
15.1803,128.17076,37.962243,6801.4684392,-104.505,-10.453,295.633
15.197,128.170713,37.962268,6800.5077096,-104.616,-10.532,295.492
15.2137,128.170665,37.962293,6799.5414936,-104.726,-10.611,295.351
15.2304,128.170617,37.962318,6798.5697912000005,-104.837,-10.69,295.209
15.2471,128.17057,37.962343,6797.592297600001,-104.947,-10.77,295.068
15.2638,128.170522,37.962367,6796.6093176,-105.057,-10.849,294.927
15.2805,128.170474,37.962392,6795.6208512,-105.167,-10.929,294.786
15.2972,128.170426,37.962416,6794.6265936,-105.277,-11.008,294.645
15.3139,128.170378,37.962441,6793.6265448,-105.386,-11.088,294.504
15.3306,128.17033,37.962465,6792.620704800001,-105.495,-11.168,294.363
15.3473,128.170281,37.962489,6791.6093784,-105.604,-11.248,294.222
15.364,128.170233,37.962513,6790.592260800001,-105.713,-11.328,294.081
15.3807,128.170185,37.962537,6789.569352,-105.821,-11.409,293.94
15.3974,128.170137,37.962561,6788.540652000001,-105.93,-11.489,293.799
15.4141,128.170088,37.962585,6787.505856000001,-106.038,-11.57,293.659
15.4308,128.17004,37.962609,6786.4655736,-106.145,-11.651,293.518
