Time,Longitude,Latitude,Altitude,Roll (deg),Pitch (deg),Yaw (deg)
0.0,128.181881,37.968643,7002.8955192,0.0,-0.003,0.0
0.0167,128.181881,37.968688,7002.909540000001,0.0,-0.012,0.0
0.0334,128.181881,37.968733,7002.922036800001,0.087,-0.013,0.011
0.0501,128.181881,37.968778,7002.9333144,0.258,0.007,0.034
0.0668,128.181881,37.968823,7002.9430680000005,0.516,0.062,0.064
0.0834,128.181881,37.968868,7002.9534312000005,0.689,0.166,0.076
0.1002,128.181881,37.968913,7002.964404,0.783,0.328,0.067
0.1169,128.181881,37.968958,7002.977510400001,0.789,0.556,0.045
0.1336,128.181881,37.969003,7002.99336,0.702,0.859,0.017
0.1503,128.181881,37.969048,7003.0128672,0.518,1.237,359.985
0.1669,128.181881,37.969093,7003.036336800001,0.239,1.679,359.951
0.1837,128.181881,37.969138,7003.065292800001,-0.133,2.171,359.916
0.2004,128.181881,37.969182,7003.098211200001,-0.422,2.701,359.903
0.2171,128.181881,37.969227,7003.136006400001,-0.63,3.251,359.912
0.2338,128.181881,37.969272,7003.178373600001,-0.748,3.804,359.933
0.2505,128.181881,37.969317,7003.2256176,-0.77,4.343,359.962
0.2672,128.181881,37.969362,7003.277738400001,-0.692,4.853,359.994
0.2839,128.181881,37.969407,7003.335040800001,-0.517,5.328,0.027
0.3006,128.181881,37.969452,7003.3993536,-0.416,5.772,0.038
0.3172,128.181881,37.969497,7003.4709816,-0.389,6.187,0.028
0.3339,128.181881,37.969542,7003.5505344,-0.443,6.575,0.003
0.3507,128.181881,37.969587,7003.6392312,-0.583,6.939,359.97
0.3674,128.181881,37.969632,7003.737072,-0.811,7.281,359.932
0.3841,128.181881,37.969677,7003.8449712,-1.126,7.602,359.891
0.4008,128.181881,37.969722,7003.9632336,-1.525,7.906,359.85
0.4175,128.181881,37.969767,7004.0927736,-2.007,8.194,359.806
0.4342,128.181881,37.969812,7004.233896000001,-2.568,8.467,359.762
0.4509,128.181881,37.969857,7004.387210400001,-3.204,8.728,359.715
0.4676,128.181881,37.969902,7004.5533264000005,-3.914,8.977,359.667
0.4843,128.181881,37.969946,7004.7313296,-4.693,9.215,359.616
0.501,128.181881,37.969991,7004.9218296,-5.54,9.445,359.563
0.5176,128.181881,37.970036,7005.1248264000005,-6.452,9.666,359.506
0.5344,128.181881,37.970081,7005.340320000001,-7.427,9.88,359.446
0.5511,128.181881,37.970126,7005.568310400001,-8.464,10.087,359.382
0.5678,128.18188,37.970171,7005.808797600001,-9.559,10.287,359.314
0.5845,128.18188,37.970215,7006.0620864,-10.711,10.482,359.242
0.6012,128.18188,37.97026,7006.327872,-11.92,10.672,359.165
0.6179,128.18188,37.970305,7006.6061544,-13.183,10.857,359.083
0.6345,128.18188,37.97035,7006.896933600001,-14.5,11.037,358.996
0.6513,128.181879,37.970394,7007.200209600001,-15.869,11.213,358.903
0.6679,128.181879,37.970439,7007.5159824,-17.289,11.384,358.805
0.6847,128.181879,37.970484,7007.843642400001,-18.759,11.551,358.701
0.7014,128.181878,37.970528,7008.1837992,-20.279,11.714,358.591
0.7181,128.181878,37.970573,7008.535843199999,-21.847,11.873,358.474
0.7348,128.181877,37.970617,7008.899774400001,-23.463,12.028,358.351
0.7514,128.181877,37.970662,7009.275288000001,-25.127,12.18,358.221
0.7682,128.181876,37.970706,7009.662384000001,-26.838,12.327,358.083
0.7848,128.181875,37.970751,7010.0610624,-28.595,12.469,357.938
0.8016,128.181874,37.970795,7010.4694944,-30.37,12.609,357.788
0.8183,128.181873,37.97084,7010.8879848,-32.131,12.746,357.633
0.835,128.181872,37.970884,7011.315924,-33.85,12.881,357.476
0.8517,128.181871,37.970929,7011.7527024,-35.505,13.015,357.315
0.8684,128.18187,37.970973,7012.197710400001,-37.078,13.147,357.151
0.8851,128.181869,37.971018,7012.650338400001,-38.554,13.277,356.984
0.9018,128.181868,37.971062,7013.1105864,-39.927,13.405,356.813
0.9185,128.181866,37.971107,7013.5778448,-41.193,13.53,356.638
0.9352,128.181865,37.971151,7014.0518088,-42.351,13.651,356.459
0.9519,128.181863,37.971195,7014.5321736000005,-43.406,13.769,356.275
0.9686,128.181862,37.97124,7015.018024800001,-44.364,13.882,356.086
0.9853,128.18186,37.971284,7015.5096672,-45.232,13.99,355.894
1.002,128.181858,37.971328,7016.006491200001,-46.02,14.094,355.7
1.0187,128.181857,37.971373,7016.508192,-46.736,14.192,355.502
1.0353,128.181855,37.971417,7017.0147696,-47.389,14.285,355.303
1.0521,128.181853,37.971461,7017.526224000001,-47.987,14.373,355.103
1.0688,128.181851,37.971506,7018.0431648,-48.537,14.456,354.901
1.0855,128.181849,37.97155,7018.5646776,-49.052,14.536,354.702
1.1022,128.181846,37.971594,7019.091372,-49.536,14.614,354.506
1.1189,128.181844,37.971638,7019.623248,-49.995,14.691,354.313
1.1356,128.181842,37.971683,7020.1606104,-50.429,14.765,354.123
1.1522,128.181839,37.971727,7020.7028496,-50.84,14.837,353.935
1.169,128.181837,37.971771,7021.250270400001,-51.23,14.906,353.749
1.1857,128.181834,37.971815,7021.803177600001,-51.601,14.971,353.565
1.2024,128.181831,37.971859,7022.360961599999,-51.953,15.034,353.383
1.2191,128.181829,37.971904,7022.924232,-52.288,15.094,353.202
1.2358,128.181826,37.971948,7023.492684000001,-52.608,15.152,353.022
1.2525,128.181823,37.971992,7024.0663176,-52.913,15.206,352.844
1.2691,128.181819,37.972036,7024.644828,-53.206,15.259,352.667
1.2859,128.181816,37.97208,7025.2288248,-53.487,15.309,352.491
1.3026,128.181813,37.972124,7025.8176984,-53.756,15.358,352.316
1.3193,128.18181,37.972168,7026.4120584,-54.015,15.404,352.142
1.3359,128.181806,37.972212,7027.0112952,-54.265,15.449,351.97
1.3527,128.181802,37.972257,7027.6154088,-54.506,15.493,351.799
1.3694,128.181799,37.972301,7028.2250088,-54.738,15.535,351.628
1.386,128.181795,37.972345,7028.8394856,-54.963,15.575,351.459
1.4028,128.181791,37.972389,7029.4588392,-55.181,15.615,351.291
1.4195,128.181787,37.972433,7030.0830696,-55.392,15.653,351.123
1.4362,128.181783,37.972477,7030.7124816000005,-55.597,15.69,350.956
1.4528,128.181779,37.97252,7031.3470752,-55.795,15.726,350.79
1.4696,128.181774,37.972564,7031.9862408,-55.989,15.762,350.625
1.4863,128.18177,37.972608,7032.630283200001,-56.177,15.796,350.461
1.5029,128.181765,37.972652,7033.2795072,-56.36,15.83,350.298
1.5197,128.181761,37.972696,7033.9333032,-56.539,15.864,350.135
1.5364,128.181756,37.97274,7034.5922808000005,-56.713,15.896,349.972
1.5531,128.181751,37.972784,7035.2558304,-56.883,15.928,349.811
1.5697,128.181746,37.972828,7035.924256800001,-57.05,15.96,349.65
1.5865,128.181741,37.972871,7036.5972552,-57.213,15.991,349.489
1.6032,128.181736,37.972915,7037.2751304,-57.373,16.021,349.329
1.6198,128.181731,37.972959,7037.957882400001,-57.529,16.052,349.17
1.6366,128.181725,37.973003,7038.6452064000005,-57.683,16.081,349.011
1.6533,128.18172,37.973046,7039.3371024,-57.834,16.111,348.852
1.67,128.181714,37.97309,7040.0338752,-57.982,16.14,348.694
1.6867,128.181708,37.973134,7040.7352200000005,-58.128,16.169,348.536
1.7034,128.181703,37.973177,7041.4411368,-58.272,16.198,348.379
1.7201,128.181697,37.973221,7042.1516255999995,-58.413,16.226,348.222
1.7368,128.181691,37.973264,7042.867905600001,-58.562,16.249,348.062
1.7535,128.181684,37.973308,7043.5890624,-58.719,16.267,347.899
1.7702,128.181678,37.973351,7044.315096,-58.885,16.282,347.733
1.7869,128.181672,37.973395,7045.046006400001,-59.061,16.293,347.567
1.8036,128.181665,37.973438,7045.7814888,-59.248,16.304,347.4
1.8203,128.181659,37.973482,7046.5215431999995,-59.445,16.313,347.232
1.837,128.181652,37.973525,7047.2664744,-59.651,16.322,347.064
1.8537,128.181645,37.973569,7048.0156728,-59.866,16.331,346.896
1.8704,128.181638,37.973612,7048.7694432,-60.088,16.341,346.727
1.8871,128.181631,37.973655,7049.5277856,-60.316,16.35,346.559
1.9038,128.181624,37.973699,7050.2900904,-60.55,16.359,346.391
1.9205,128.181616,37.973742,7051.0569672,-60.788,16.369,346.222
1.9372,128.181609,37.973785,7051.8281112,-61.03,16.379,346.054
1.9539,128.181601,37.973829,7052.6032176,-61.274,16.389,345.885
1.9706,128.181594,37.973872,7053.3825912,-61.519,16.399,345.717
1.9873,128.181586,37.973915,7054.165927200001,-61.766,16.408,345.548
2.004,128.181578,37.973958,7054.9532256,-62.014,16.418,345.38
2.0207,128.18157,37.974001,7055.7444864,-62.261,16.428,345.211
2.0374,128.181562,37.974044,7056.539709600001,-62.509,16.437,345.043
2.0541,128.181554,37.974087,7057.338590400001,-62.755,16.447,344.874
2.0707,128.181545,37.97413,7058.141433600001,-63.001,16.456,344.705
2.0875,128.181537,37.974173,7058.9482392,-63.245,16.464,344.537
2.1042,128.181528,37.974216,7059.7583976000005,-63.489,16.473,344.368
2.1208,128.181519,37.974259,7060.5725184,-63.73,16.481,344.2
2.1376,128.18151,37.974302,7061.389992,-63.97,16.489,344.031
2.1543,128.181502,37.974345,7062.211123200001,-64.209,16.497,343.863
2.171,128.181492,37.974388,7063.035912,-64.445,16.504,343.694
2.1877,128.181483,37.974431,7063.8640536,-64.68,16.511,343.526
2.2044,128.181474,37.974474,7064.695548,-64.913,16.517,343.357
2.2211,128.181464,37.974516,7065.5303952,-65.144,16.524,343.189
2.2378,128.181455,37.974559,7066.3685952000005,-65.373,16.529,343.021
2.2544,128.181445,37.974602,7067.2104528,-65.6,16.535,342.852
2.2712,128.181435,37.974645,7068.0550536,-65.825,16.54,342.684
2.2879,128.181426,37.974687,7068.903312,-66.049,16.544,342.516
2.3045,128.181416,37.97473,7069.7543136,-66.271,16.549,342.348
2.3213,128.181405,37.974773,7070.608668000001,-66.491,16.553,342.18
2.338,128.181395,37.974815,7071.466070400001,-66.71,16.557,342.012
2.3546,128.181385,37.974858,7072.3265208,-66.928,16.561,341.845
2.3714,128.181374,37.9749,7073.1900192,-67.145,16.565,341.677
2.3881,128.181364,37.974943,7074.056565600001,-67.361,16.569,341.51
2.4048,128.181353,37.974985,7074.9258552,-67.575,16.573,341.343
2.4215,128.181342,37.975027,7075.797888000001,-67.788,16.578,341.176
2.4382,128.181331,37.97507,7076.6729688000005,-68.001,16.582,341.01
2.4549,128.18132,37.975112,7077.550488000001,-68.212,16.586,340.844
2.4716,128.181309,37.975154,7078.431055200001,-68.422,16.59,340.677
2.4882,128.181297,37.975197,7079.314365600001,-68.631,16.594,340.511
2.505,128.181286,37.975239,7080.2001144000005,-68.839,16.598,340.346
2.5217,128.181274,37.975281,7081.088606400001,-69.046,16.602,340.18
2.5383,128.181262,37.975323,7081.9798416,-69.252,16.606,340.015
2.5551,128.181251,37.975366,7082.873210400001,-69.457,16.611,339.849
2.5718,128.181239,37.975408,7083.7696272,-69.662,16.615,339.684
2.5884,128.181226,37.97545,7084.6681776000005,-69.866,16.619,339.519
2.6052,128.181214,37.975492,7085.5691664,-70.069,16.623,339.354
2.6219,128.181202,37.975534,7086.4725935999995,-70.271,16.627,339.19
2.6386,128.181189,37.975576,7087.3781544,-70.473,16.631,339.025
2.6553,128.181177,37.975618,7088.2864584,-70.674,16.635,338.861
2.6719,128.181164,37.975659,7089.1965912000005,-70.874,16.639,338.696
2.6887,128.181151,37.975701,7090.1091624,-71.074,16.643,338.532
2.7054,128.181138,37.975743,7091.024172,-71.273,16.647,338.368
2.722,128.181125,37.975785,7091.941010400001,-71.471,16.651,338.204
2.7388,128.181112,37.975827,7092.8599824,-71.669,16.655,338.04
2.7555,128.181099,37.975868,7093.7813928000005,-71.866,16.658,337.876
2.7721,128.181085,37.97591,7094.7043272,-72.063,16.662,337.712
2.7889,128.181072,37.975952,7095.6297,-72.259,16.666,337.548
2.8056,128.181058,37.975993,7096.556901600001,-72.454,16.67,337.384
2.8222,128.181044,37.976035,7097.4859320000005,-72.649,16.673,337.221
2.839,128.18103,37.976076,7098.4167912,-72.842,16.677,337.057
2.8557,128.181016,37.976118,7099.349784000001,-73.035,16.68,336.893
2.8724,128.181002,37.976159,7100.284300800001,-73.227,16.683,336.73
2.8891,128.180988,37.976201,7101.220951200001,-73.418,16.686,336.566
2.9057,128.180973,37.976242,7102.1591256,-73.607,16.689,336.402
2.9225,128.180958,37.976283,7103.0991288000005,-73.796,16.69,336.239
2.9392,128.180944,37.976325,7104.040656000001,-73.983,16.692,336.075
2.9558,128.180929,37.976366,7104.984012,-74.168,16.693,335.911
2.9726,128.180914,37.976407,7105.928892000001,-74.352,16.693,335.747
2.9893,128.180899,37.976448,7106.875296,-74.536,16.693,335.583
3.0059,128.180884,37.976489,7107.8235288000005,-74.717,16.693,335.419
3.0227,128.180868,37.976531,7108.7729808,-74.898,16.692,335.254
3.0394,128.180853,37.976572,7109.723956800001,-75.077,16.69,335.09
3.056,128.180837,37.976613,7110.676456800001,-75.255,16.688,334.926
3.0728,128.180822,37.976654,7111.630176,-75.432,16.686,334.762
3.0895,128.180806,37.976695,7112.585419200001,-75.608,16.683,334.597
3.1062,128.18079,37.976735,7113.5418816,-75.782,16.68,334.433
3.1229,128.180774,37.976776,7114.499868,-75.955,16.676,334.268
3.1395,128.180758,37.976817,7115.4587688,-76.127,16.672,334.104
3.1563,128.180741,37.976858,7116.4191936,-76.298,16.667,333.939
3.173,128.180725,37.976899,7117.380837600001,-76.467,16.662,333.774
3.1896,128.180708,37.976939,7118.343396,-76.635,16.656,333.61
3.2064,128.180692,37.97698,7119.3071736,-76.801,16.65,333.445
3.2231,128.180675,37.97702,7120.2721704000005,-76.967,16.644,333.281
3.2397,128.180658,37.977061,7121.2380816,-77.131,16.637,333.116
3.2565,128.180641,37.977102,7122.2049072,-77.293,16.629,332.951
3.2732,128.180624,37.977142,7123.172952000001,-77.454,16.622,332.787
3.2899,128.180606,37.977182,7124.141911200001,-77.614,16.613,332.622
3.3066,128.180589,37.977223,7125.1117848,-77.772,16.605,332.457
3.3233,128.180571,37.977263,7126.0825728,-77.929,16.596,332.293
3.34,128.180554,37.977303,7127.0542752,-78.085,16.587,332.128
3.3567,128.180536,37.977344,7128.026587200001,-78.239,16.577,331.963
3.3734,128.180518,37.977384,7128.9998136,-78.391,16.567,331.799
3.3901,128.1805,37.977424,7129.9739544,-78.542,16.556,331.634
3.4068,128.180482,37.977464,7130.9487048,-78.692,16.546,331.469
3.4235,128.180463,37.977504,7131.9240648,-78.84,16.534,331.305
3.4402,128.180445,37.977544,7132.9003391999995,-78.987,16.523,331.14
3.4569,128.180426,37.977584,7133.8772232,-79.132,16.511,330.976
3.4736,128.180408,37.977624,7134.8547168000005,-79.275,16.499,330.811
3.4903,128.180389,37.977664,7135.832515200001,-79.418,16.486,330.647
3.507,128.18037,37.977704,7136.8112280000005,-79.558,16.473,330.482
3.5237,128.180351,37.977744,7137.7902456,-79.697,16.46,330.318
3.5404,128.180332,37.977783,7138.7698728000005,-79.835,16.446,330.154
3.5571,128.180312,37.977823,7139.7501096000005,-79.971,16.432,329.989
3.5738,128.180293,37.977863,7140.7306512000005,-80.106,16.418,329.825
3.5905,128.180273,37.977902,7141.7118024,-80.239,16.404,329.661
3.6072,128.180254,37.977942,7142.6929536,-80.371,16.389,329.497
3.6239,128.180234,37.977981,7143.674714400001,-80.502,16.374,329.333
3.6406,128.180214,37.978021,7144.65678,-80.63,16.358,329.169
3.6573,128.180194,37.97806,7145.6391504,-80.758,16.343,329.005
3.674,128.180174,37.9781,7146.6218256,-80.884,16.327,328.841
3.6907,128.180154,37.978139,7147.604805600001,-81.009,16.31,328.677
3.7074,128.180133,37.978178,7148.5880904000005,-81.132,16.294,328.513
3.7241,128.180113,37.978218,7149.5713752,-81.254,16.277,328.349
3.7408,128.180092,37.978257,7150.554964800001,-81.374,16.26,328.185
3.7575,128.180071,37.978296,7151.5388592,-81.494,16.242,328.021
3.7742,128.18005,37.978335,7152.5227536,-81.611,16.225,327.858
3.7909,128.180029,37.978374,7153.506648,-81.728,16.207,327.694
3.8076,128.180008,37.978413,7154.490542400001,-81.843,16.189,327.53
3.8243,128.179987,37.978452,7155.474741600001,-81.957,16.171,327.367
3.841,128.179965,37.978491,7156.4589408,-82.07,16.152,327.203
3.8577,128.179944,37.978529,7157.44314,-82.181,16.133,327.04
3.8744,128.179922,37.978568,7158.4273392,-82.292,16.114,326.877
3.8911,128.1799,37.978607,7159.411538400001,-82.4,16.095,326.713
3.9078,128.179879,37.978646,7160.395432800001,-82.508,16.076,326.55
3.9245,128.179857,37.978684,7161.3793272,-82.615,16.056,326.387
3.9412,128.179834,37.978723,7162.3632216,-82.72,16.036,326.224
3.9579,128.179812,37.978761,7163.347116,-82.825,16.016,326.061
3.9746,128.17979,37.9788,7164.3307056,-82.928,15.996,325.898
3.9913,128.179767,37.978838,7165.3139904,-83.03,15.976,325.735
4.008,128.179745,37.978877,7166.2972752,-83.131,15.955,325.572
4.0247,128.179722,37.978915,7167.2802552,-83.231,15.934,325.409
4.0414,128.179699,37.978953,7168.2632352,-83.33,15.913,325.246
4.058,128.179676,37.978991,7169.245605600001,-83.428,15.892,325.083
4.0748,128.179653,37.979029,7170.227976,-83.525,15.871,324.92
4.0915,128.17963,37.979068,7171.2100416,-83.621,15.849,324.757
4.1082,128.179606,37.979106,7172.191497600001,-83.716,15.827,324.595
4.1249,128.179583,37.979144,7173.1729536,-83.81,15.806,324.432
4.1415,128.179559,37.979181,7174.1538,-83.903,15.784,324.269
4.1583,128.179535,37.979219,7175.134341600001,-83.995,15.761,324.107
4.175,128.179512,37.979257,7176.114578400001,-84.086,15.739,323.944
4.1917,128.179488,37.979295,7177.0942056,-84.177,15.717,323.782
4.2084,128.179464,37.979333,7178.073528000001,-84.266,15.694,323.619
4.2251,128.179439,37.97937,7179.052240800001,-84.355,15.671,323.457
4.2417,128.179415,37.979408,7180.0306488,-84.443,15.648,323.295
4.2585,128.179391,37.979445,7181.008447200001,-84.53,15.625,323.132
4.2752,128.179366,37.979483,7181.9859408,-84.616,15.602,322.97
4.2919,128.179341,37.97952,7182.962520000001,-84.701,15.578,322.808
4.3086,128.179316,37.979558,7183.9387944,-84.786,15.555,322.645
4.3252,128.179292,37.979595,7184.9144592,-84.87,15.531,322.483
4.342,128.179266,37.979632,7185.889514400001,-84.953,15.508,322.321
4.3587,128.179241,37.979669,7186.863960000001,-85.036,15.484,322.159
4.3754,128.179216,37.979707,7187.837796000001,-85.118,15.46,321.997
4.3921,128.179191,37.979744,7188.8110224,-85.199,15.435,321.835
4.4088,128.179165,37.979781,7189.7833344,-85.28,15.411,321.673
4.4254,128.179139,37.979818,7190.755341600001,-85.36,15.387,321.511
4.4422,128.179114,37.979855,7191.7264344,-85.439,15.362,321.349
4.4589,128.179088,37.979891,7192.6966128,-85.517,15.337,321.187
4.4756,128.179062,37.979928,7193.6664864,-85.596,15.312,321.025
4.4923,128.179036,37.979965,7194.6351408,-85.673,15.288,320.863
4.5089,128.179009,37.980002,7195.6034904,-85.75,15.262,320.701
4.5256,128.178983,37.980038,7196.5706208,-85.826,15.237,320.539
4.5424,128.178956,37.980075,7197.537141600001,-85.902,15.212,320.377
4.5591,128.17893,37.980111,7198.5030528,-85.977,15.187,320.215
4.5758,128.178903,37.980148,7199.4677448,-86.051,15.161,320.053
4.5925,128.178876,37.980184,7200.4318272,-86.126,15.135,319.892
4.6091,128.178849,37.98022,7201.3949952,-86.199,15.11,319.73
4.6259,128.178822,37.980257,7202.3572488,-86.272,15.084,319.568
4.6426,128.178795,37.980293,7203.318588000001,-86.345,15.058,319.406
4.6593,128.178768,37.980329,7204.278708,-86.417,15.032,319.245
4.676,128.17874,37.980365,7205.238218400001,-86.488,15.005,319.083
4.6927,128.178713,37.980401,7206.1968144,-86.56,14.979,318.921
4.7093,128.178685,37.980437,7207.1541912,-86.63,14.953,318.76
4.7261,128.178657,37.980473,7208.1109584000005,-86.701,14.926,318.598
4.7428,128.178629,37.980509,7209.0665064,-86.77,14.899,318.436
4.7595,128.178601,37.980544,7210.0208352,-86.84,14.873,318.275
4.7762,128.178573,37.98058,7210.9742496,-86.909,14.846,318.113
4.7928,128.178545,37.980616,7211.9267496,-86.977,14.819,317.951
4.8096,128.178517,37.980651,7212.8780304,-87.045,14.792,317.79
4.8263,128.178488,37.980687,7213.8283968000005,-87.113,14.765,317.628
4.843,128.178459,37.980722,7214.777544,-87.18,14.737,317.467
4.8597,128.178431,37.980758,7215.725472,-87.247,14.71,317.305
4.8764,128.178402,37.980793,7216.6724856,-87.314,14.682,317.144
4.893,128.178373,37.980828,7217.61828,-87.38,14.655,316.982
4.9098,128.178344,37.980863,7218.562855200001,-87.446,14.627,316.821
4.9265,128.178315,37.980898,7219.5062112000005,-87.511,14.599,316.659
4.9432,128.178285,37.980933,7220.4486528,-87.576,14.571,316.498
4.9599,128.178256,37.980968,7221.389570400001,-87.641,14.543,316.336
4.9765,128.178226,37.981003,7222.329573600001,-87.705,14.515,316.175
4.9932,128.178197,37.981038,7223.2680528,-87.769,14.487,316.013
5.01,128.178167,37.981073,7224.2053128,-87.833,14.458,315.852
5.0267,128.178137,37.981108,7225.1413536,-87.896,14.43,315.691
5.0434,128.178107,37.981142,7226.0761752,-87.959,14.401,315.529
5.0601,128.178077,37.981177,7227.0097776,-88.022,14.373,315.368
5.0767,128.178047,37.981211,7227.941856,-88.084,14.344,315.206
5.0935,128.178017,37.981246,7228.872715200001,-88.146,14.315,315.045
5.1102,128.177986,37.98128,7229.8023552,-88.208,14.286,314.883
5.1269,128.177956,37.981315,7230.7304712,-88.269,14.257,314.722
5.1436,128.177925,37.981349,7231.6570632,-88.331,14.228,314.56
5.1602,128.177894,37.981383,7232.5827408000005,-88.391,14.198,314.399
5.1769,128.177863,37.981417,7233.5065896,-88.452,14.169,314.237
5.1937,128.177832,37.981451,7234.4292192,-88.512,14.139,314.076
5.2104,128.177801,37.981485,7235.350324800001,-88.572,14.11,313.914
5.2271,128.17777,37.981519,7236.270211200001,-88.632,14.08,313.753
5.2438,128.177738,37.981553,7237.1885736,-88.691,14.05,313.591
5.2604,128.177707,37.981587,7238.1051072,-88.75,14.02,313.429
5.2772,128.177675,37.98162,7239.0204216,-88.809,13.99,313.267
5.2939,128.177644,37.981654,7239.9345168,-88.867,13.96,313.105
5.3106,128.177612,37.981687,7240.846783200001,-88.925,13.93,312.943
5.3273,128.17758,37.981721,7241.7575256,-88.983,13.9,312.781
5.3439,128.177548,37.981754,7242.666744,-89.041,13.869,312.619
5.3606,128.177516,37.981788,7243.574438400001,-89.098,13.839,312.457
5.3774,128.177484,37.981821,7244.4806088000005,-89.155,13.808,312.295
5.3941,128.177451,37.981854,7245.385255200001,-89.211,13.778,312.133
5.4108,128.177419,37.981887,7246.2880728,-89.268,13.747,311.97
5.4275,128.177386,37.98192,7247.1896712,-89.324,13.716,311.808
5.4441,128.177354,37.981953,7248.0894408,-89.379,13.685,311.645
5.4609,128.177321,37.981986,7248.9873816,-89.435,13.654,311.483
5.4776,128.177288,37.982019,7249.8837984,-89.49,13.622,311.32
5.4943,128.177255,37.982052,7250.7786912,-89.545,13.591,311.158
5.511,128.177222,37.982084,7251.671755200001,-89.599,13.56,310.995
5.5277,128.177189,37.982117,7252.5632952000005,-89.654,13.528,310.833
5.5443,128.177155,37.98215,7253.453006400001,-89.707,13.497,310.67
5.5611,128.177122,37.982182,7254.3411936,-89.761,13.465,310.507
5.5778,128.177088,37.982214,7255.227552000001,-89.815,13.433,310.344
5.5945,128.177055,37.982247,7256.1120816,-89.868,13.401,310.181
5.6112,128.177021,37.982279,7256.9947824,-89.92,13.369,310.019
5.6278,128.176987,37.982311,7257.875959200001,-89.973,13.337,309.856
5.6445,128.176953,37.982343,7258.7553072,-90.025,13.305,309.693
5.6613,128.176919,37.982375,7259.6328264,-90.077,13.272,309.53
5.678,128.176885,37.982407,7260.5085168,-90.129,13.24,309.367
5.6947,128.17685,37.982439,7261.382378400001,-90.18,13.207,309.203
5.7114,128.176816,37.982471,7262.2544112000005,-90.232,13.175,309.04
5.728,128.176782,37.982503,7263.1246152,-90.282,13.142,308.877
5.7448,128.176747,37.982534,7263.9929904,-90.333,13.109,308.714
5.7615,128.176712,37.982566,7264.859536800001,-90.384,13.076,308.551
5.7782,128.176677,37.982597,7265.7242544,-90.434,13.043,308.387
5.7949,128.176642,37.982629,7266.5868384000005,-90.484,13.01,308.224
5.8115,128.176607,37.98266,7267.4478984,-90.533,12.977,308.061
5.8282,128.176572,37.982691,7268.306824800001,-90.583,12.943,307.897
5.845,128.176537,37.982722,7269.1636176,-90.632,12.91,307.734
5.8617,128.176502,37.982753,7270.0188864,-90.681,12.876,307.57
5.8784,128.176466,37.982784,7270.8720216,-90.729,12.843,307.407
5.8951,128.176431,37.982815,7271.7230232,-90.778,12.809,307.243
5.9117,128.176395,37.982846,7272.572500800001,-90.826,12.775,307.079
5.9285,128.176359,37.982877,7273.41954,-90.874,12.741,306.916
5.9452,128.176323,37.982908,7274.264750400001,-90.921,12.707,306.752
5.9619,128.176287,37.982938,7275.108132,-90.969,12.673,306.588
5.9786,128.176251,37.982969,7275.9490752,-91.016,12.639,306.424
5.9952,128.176215,37.982999,7276.7884944,-91.063,12.605,306.261
6.0119,128.176179,37.98303,7277.6254751999995,-91.11,12.57,306.097
6.0287,128.176143,37.98306,7278.4606272,-91.156,12.536,305.933
6.0454,128.176106,37.98309,7279.293645600001,-91.203,12.501,305.769
6.0621,128.176069,37.98312,7280.1245304,-91.249,12.466,305.605
6.0788,128.176033,37.98315,7280.9532816,-91.295,12.431,305.441
6.0954,128.175996,37.98318,7281.780204000001,-91.34,12.397,305.277
6.1121,128.175959,37.98321,7282.604688,-91.386,12.361,305.113
6.1289,128.175922,37.98324,7283.4273432,-91.431,12.326,304.949
6.1456,128.175885,37.98327,7284.247560000001,-91.476,12.291,304.785
6.1623,128.175848,37.983299,7285.0659479999995,-91.52,12.256,304.62
6.179,128.175811,37.983329,7285.881897600001,-91.565,12.22,304.456
6.1956,128.175773,37.983359,7286.6957136,-91.609,12.185,304.292
6.2124,128.175736,37.983388,7287.507396000001,-91.653,12.149,304.128
6.2291,128.175698,37.983417,7288.3169448,-91.697,12.114,303.963
6.2458,128.17566,37.983446,7289.124360000001,-91.741,12.078,303.799
6.2625,128.175623,37.983476,7289.929336800001,-91.784,12.042,303.635
6.2791,128.175585,37.983505,7290.7324848,-91.827,12.006,303.47
6.2958,128.175547,37.983534,7291.5328896,-91.87,11.97,303.306
6.3126,128.175509,37.983563,7292.331465600001,-91.913,11.934,303.141
6.3293,128.175471,37.983591,7293.1276032,-91.956,11.897,302.976
6.346,128.175432,37.98362,7293.9213024,-91.998,11.861,302.812
6.3627,128.175394,37.983649,7294.7131728,-92.04,11.824,302.647
6.3793,128.175355,37.983677,7295.5023,-92.082,11.788,302.483
6.3961,128.175317,37.983706,7296.2892936,-92.124,11.751,302.318
6.4128,128.175278,37.983734,7297.0741536000005,-92.166,11.714,302.153
6.4295,128.175239,37.983762,7297.8565751999995,-92.207,11.678,301.988
6.4462,128.175201,37.983791,7298.6365584000005,-92.248,11.641,301.823
6.4628,128.175162,37.983819,7299.414408000001,-92.289,11.604,301.659
6.4795,128.175123,37.983847,7300.189514400001,-92.33,11.566,301.494
6.4963,128.175084,37.983875,7300.9624872,-92.371,11.529,301.329
6.513,128.175044,37.983903,7301.7333264,-92.411,11.492,301.164
6.5297,128.175005,37.98393,7302.501422400001,-92.451,11.454,300.999
6.5464,128.174966,37.983958,7303.2673848,-92.491,11.417,300.834
6.5631,128.174926,37.983986,7304.0309088,-92.531,11.379,300.669
6.5798,128.174886,37.984013,7304.7916896,-92.571,11.341,300.503
6.5965,128.174847,37.984041,7305.550336800001,-92.61,11.304,300.338
6.6132,128.174807,37.984068,7306.3065456,-92.649,11.266,300.173
6.6299,128.174767,37.984095,7307.060316,-92.688,11.228,300.008
6.6466,128.174727,37.984122,7307.811648,-92.727,11.19,299.842
6.6633,128.174687,37.98415,7308.560236800001,-92.766,11.151,299.677
6.68,128.174647,37.984177,7309.306692000001,-92.804,11.113,299.512
6.6967,128.174607,37.984203,7310.0504040000005,-92.842,11.075,299.346
6.7134,128.174566,37.98423,7310.791982400001,-92.88,11.036,299.181
6.7301,128.174526,37.984257,7311.5305128,-92.918,10.998,299.015
6.7468,128.174485,37.984284,7312.266909600001,-92.956,10.959,298.85
6.7635,128.174445,37.98431,7313.000868,-92.993,10.92,298.684
6.7802,128.174404,37.984337,7313.7320832000005,-93.03,10.881,298.519
6.7969,128.174363,37.984363,7314.46086,-93.067,10.842,298.353
6.8136,128.174322,37.984389,7315.1868936,-93.104,10.803,298.187
6.8303,128.174281,37.984415,7315.9104888,-93.141,10.764,298.022
6.847,128.17424,37.984441,7316.6313408000005,-93.177,10.725,297.856
6.8637,128.174199,37.984467,7317.3497544,-93.214,10.686,297.69
6.8804,128.174158,37.984493,7318.0657296,-93.25,10.646,297.524
6.8971,128.174117,37.984519,7318.7789616,-93.286,10.607,297.358
6.9138,128.174075,37.984545,7319.4894504,-93.321,10.567,297.193
6.9305,128.174034,37.98457,7320.197500800001,-93.357,10.528,297.027
6.9472,128.173992,37.984596,7320.902808,-93.392,10.488,296.861
6.9639,128.173951,37.984621,7321.605372,-93.427,10.448,296.695
6.9806,128.173909,37.984647,7322.305497600001,-93.462,10.408,296.528
6.9973,128.173867,37.984672,7323.00288,-93.497,10.368,296.362
7.014,128.173825,37.984697,7323.697519200001,-93.532,10.328,296.196
7.0307,128.173783,37.984722,7324.389720000001,-93.566,10.288,296.03
7.0474,128.173741,37.984747,7325.079177600001,-93.6,10.247,295.864
7.0641,128.173699,37.984772,7325.7655872000005,-93.634,10.207,295.698
7.0808,128.173656,37.984797,7326.449558400001,-93.668,10.167,295.531
7.0975,128.173614,37.984822,7327.1307864,-93.701,10.126,295.365
7.1142,128.173572,37.984846,7327.8092712,-93.735,10.085,295.199
7.1309,128.173529,37.984871,7328.4850128,-93.768,10.045,295.032
7.1476,128.173487,37.984895,7329.158011200001,-93.801,10.004,294.866
7.1643,128.173444,37.984919,7329.8282664,-93.834,9.963,294.699
7.181,128.173401,37.984944,7330.495778400001,-93.867,9.922,294.533
7.1977,128.173358,37.984968,7331.160547200001,-93.899,9.881,294.366
7.2144,128.173315,37.984992,7331.822268,-93.931,9.84,294.199
7.2311,128.173272,37.985016,7332.481550400001,-93.963,9.798,294.033
7.2478,128.173229,37.98504,7333.1377848,-93.995,9.757,293.866
7.2645,128.173186,37.985063,7333.791276,-94.027,9.716,293.699
7.2812,128.173143,37.985087,7334.442024000001,-94.059,9.674,293.532
7.2979,128.173099,37.98511,7335.090028800001,-94.09,9.633,293.366
7.3146,128.173056,37.985134,7335.7349856,-94.121,9.591,293.199
7.3313,128.173012,37.985157,7336.3771992,-94.152,9.549,293.032
7.348,128.172969,37.98518,7337.016669600001,-94.183,9.507,292.865
7.3647,128.172925,37.985204,7337.6530920000005,-94.213,9.466,292.699
7.3814,128.172882,37.985227,7338.2867712,-94.243,9.424,292.532
7.3981,128.172838,37.98525,7338.917402399999,-94.274,9.382,292.366
7.4148,128.172794,37.985272,7339.5452904,-94.303,9.34,292.199
7.4315,128.17275,37.985295,7340.1701304,-94.333,9.298,292.032
7.4482,128.172706,37.985318,7340.7922272000005,-94.362,9.255,291.866
7.4649,128.172662,37.98534,7341.411276,-94.392,9.213,291.7
7.4816,128.172617,37.985363,7342.0275816,-94.421,9.171,291.533
7.4983,128.172573,37.985385,7342.6408392,-94.449,9.129,291.367
7.515,128.172529,37.985408,7343.251353600001,-94.478,9.086,291.201
7.5317,128.172484,37.98543,7343.8585152000005,-94.506,9.044,291.034
7.5484,128.17244,37.985452,7344.462933600001,-94.534,9.001,290.868
7.5651,128.172395,37.985474,7345.0646088,-94.562,8.958,290.702
7.5818,128.172351,37.985496,7345.6629312000005,-94.59,8.916,290.536
7.5985,128.172306,37.985517,7346.258510400001,-94.617,8.873,290.369
7.6152,128.172261,37.985539,7346.851041600001,-94.644,8.83,290.203
7.6319,128.172216,37.985561,7347.4408296,-94.671,8.787,290.037
7.6486,128.172171,37.985582,7348.027264800001,-94.698,8.745,289.871
7.6653,128.172126,37.985603,7348.610956800001,-94.725,8.702,289.705
7.682,128.172081,37.985625,7349.191296000001,-94.751,8.659,289.539
7.6987,128.172036,37.985646,7349.768892000001,-94.777,8.616,289.373
7.7154,128.171991,37.985667,7350.343440000001,-94.803,8.572,289.207
7.7321,128.171945,37.985688,7350.9146352,-94.829,8.529,289.041
7.7488,128.1719,37.985709,7351.4830872,-94.854,8.486,288.875
7.7655,128.171855,37.98573,7352.0484912,-94.88,8.443,288.709
7.7822,128.171809,37.98575,7352.6108472000005,-94.905,8.399,288.543
7.7989,128.171763,37.985771,7353.1698504000005,-94.93,8.356,288.377
7.8156,128.171718,37.985791,7353.726110400001,-94.954,8.312,288.211
7.8323,128.171672,37.985812,7354.2790176,-94.979,8.269,288.045
7.849,128.171626,37.985832,7354.8291816,-95.003,8.225,287.879
7.8657,128.17158,37.985852,7355.375992800001,-95.027,8.182,287.713
7.8824,128.171534,37.985872,7355.919756000001,-95.051,8.138,287.547
7.8991,128.171488,37.985892,7356.4604712,-95.075,8.094,287.381
7.9158,128.171442,37.985912,7356.9978336,-95.099,8.05,287.215
7.9325,128.171396,37.985931,7357.532148,-95.122,8.007,287.049
7.9492,128.17135,37.985951,7358.0634144000005,-95.145,7.963,286.883
7.9659,128.171304,37.985971,7358.5916328,-95.168,7.919,286.717
7.9826,128.171257,37.98599,7359.1164984,-95.191,7.875,286.551
7.9993,128.171211,37.986009,7359.638316,-95.214,7.831,286.385
8.016,128.171164,37.986029,7360.1570856,-95.236,7.786,286.219
8.0327,128.171118,37.986048,7360.6725024,-95.258,7.742,286.053
8.0494,128.171071,37.986067,7361.1848712,-95.281,7.698,285.887
8.0661,128.171025,37.986086,7361.693887200001,-95.302,7.654,285.721
8.0828,128.170978,37.986104,7362.1998552000005,-95.324,7.609,285.555
8.0994,128.170931,37.986123,7362.7024704000005,-95.346,7.565,285.388
8.1161,128.170884,37.986142,7363.202037600001,-95.367,7.521,285.222
8.1329,128.170837,37.98616,7363.698556800001,-95.388,7.476,285.056
8.1496,128.17079,37.986178,7364.191418400001,-95.409,7.432,284.89
8.1663,128.170743,37.986197,7364.681536800001,-95.43,7.387,284.724
8.183,128.170696,37.986215,7365.1679976000005,-95.451,7.342,284.558
8.1997,128.170649,37.986233,7365.651410400001,-95.471,7.298,284.392
8.2164,128.170602,37.986251,7366.1317751999995,-95.492,7.253,284.226
8.2331,128.170554,37.986269,7366.608482400001,-95.512,7.208,284.06
8.2498,128.170507,37.986286,7367.082141600001,-95.532,7.163,283.894
8.2665,128.17046,37.986304,7367.5527528,-95.552,7.118,283.727
8.2831,128.170412,37.986322,7368.019706400001,-95.571,7.073,283.561
8.2998,128.170365,37.986339,7368.483612,-95.591,7.028,283.395
8.3166,128.170317,37.986356,7368.944164800001,-95.61,6.983,283.229
8.3333,128.170269,37.986373,7369.401364800001,-95.629,6.938,283.063
8.35,128.170222,37.986391,7369.8555168,-95.648,6.893,282.896
8.3667,128.170174,37.986408,7370.306316,-95.667,6.848,282.73
8.3834,128.170126,37.986424,7370.7537624,-95.685,6.803,282.564
8.4001,128.170078,37.986441,7371.197856000001,-95.704,6.757,282.398
8.4168,128.17003,37.986458,7371.6385968,-95.722,6.712,282.231
8.4335,128.169982,37.986474,7372.0759848,-95.74,6.667,282.065
8.4502,128.169934,37.986491,7372.510020000001,-95.758,6.621,281.899
8.4668,128.169886,37.986507,7372.9407024,-95.776,6.576,281.732
8.4835,128.169838,37.986523,7373.3683368,-95.793,6.53,281.566
8.5003,128.16979,37.98654,7373.7923136,-95.811,6.485,281.4
8.517,128.169741,37.986556,7374.213242400001,-95.828,6.439,281.233
8.5337,128.169693,37.986571,7374.6305136,-95.845,6.393,281.067
8.5504,128.169645,37.986587,7375.044432000001,-95.862,6.348,280.901
8.5671,128.169596,37.986603,7375.4553024,-95.878,6.302,280.734
8.5838,128.169548,37.986618,7375.8625152,-95.895,6.256,280.568
8.6005,128.169499,37.986634,7376.2663752,-95.911,6.21,280.401
8.6172,128.169451,37.986649,7376.666882400001,-95.927,6.165,280.235
8.6339,128.169402,37.986665,7377.0640368,-95.943,6.119,280.068
8.6505,128.169353,37.98668,7377.457838400001,-95.959,6.073,279.902
8.6672,128.169305,37.986695,7377.847982400001,-95.975,6.027,279.735
8.684,128.169256,37.98671,7378.235078400001,-95.99,5.981,279.569
8.7007,128.169207,37.986724,7378.6185168,-96.006,5.935,279.402
8.7174,128.169158,37.986739,7378.9986024,-96.021,5.888,279.236
8.7341,128.169109,37.986754,7379.3753352,-96.036,5.842,279.069
8.7508,128.16906,37.986768,7379.7484104000005,-96.051,5.796,278.902
8.7675,128.169011,37.986783,7380.118437600001,-96.065,5.75,278.736
8.7842,128.168962,37.986797,7380.4845024,-96.08,5.704,278.569
8.8009,128.168913,37.986811,7380.8475192000005,-96.094,5.657,278.403
8.8176,128.168864,37.986825,7381.2068784,-96.108,5.611,278.236
8.8342,128.168814,37.986839,7381.5628848,-96.122,5.565,278.069
8.8509,128.168765,37.986853,7381.9155384000005,-96.136,5.518,277.902
8.8676,128.168716,37.986866,7382.2645344,-96.149,5.472,277.736
8.8844,128.168666,37.98688,7382.6101776000005,-96.163,5.425,277.569
8.9011,128.168617,37.986894,7382.952468,-96.176,5.379,277.402
8.9178,128.168568,37.986907,7383.291100800001,-96.189,5.332,277.235
8.9345,128.168518,37.98692,7383.6260760000005,-96.202,5.286,277.069
8.9512,128.168468,37.986933,7383.9580032,-96.215,5.239,276.902
8.9679,128.168419,37.986946,7384.285968,-96.227,5.192,276.735
8.9846,128.168369,37.986959,7384.61058,-96.24,5.146,276.568
9.0013,128.16832,37.986972,7384.9318392,-96.252,5.099,276.401
9.0179,128.16827,37.986985,7385.2494408,-96.264,5.052,276.234
9.0346,128.16822,37.986997,7385.5636896,-96.276,5.005,276.067
9.0513,128.16817,37.98701,7385.8742808,-96.287,4.958,275.9
9.0681,128.16812,37.987022,7386.1815192,-96.299,4.911,275.734
9.0848,128.168071,37.987034,7386.485100000001,-96.31,4.865,275.567
9.1015,128.168021,37.987047,7386.7850232,-96.321,4.818,275.4
9.1182,128.167971,37.987059,7387.0815936,-96.332,4.771,275.232
9.1349,128.167921,37.987071,7387.3745064,-96.343,4.724,275.065
9.1516,128.167871,37.987082,7387.6640664,-96.354,4.677,274.898
9.1683,128.167821,37.987094,7387.9499688000005,-96.364,4.63,274.731
9.185,128.16777,37.987106,7388.2322136,-96.374,4.583,274.564
9.2016,128.16772,37.987117,7388.510800800001,-96.385,4.535,274.397
9.2183,128.16767,37.987128,7388.7860352,-96.394,4.488,274.23
9.235,128.16762,37.98714,7389.057612,-96.404,4.441,274.063
9.2518,128.16757,37.987151,7389.325836,-96.414,4.394,273.896
9.2685,128.167519,37.987162,7389.5904024,-96.423,4.347,273.728
9.2852,128.167469,37.987173,7389.851311200001,-96.432,4.299,273.561
9.3019,128.167419,37.987183,7390.1085624,-96.442,4.252,273.394
9.3186,128.167368,37.987194,7390.362156000001,-96.45,4.205,273.227
9.3353,128.167318,37.987205,7390.612396800001,-96.459,4.158,273.059
9.352,128.167267,37.987215,7390.85898,-96.468,4.11,272.892
9.3687,128.167217,37.987225,7391.1019056000005,-96.476,4.063,272.725
9.3854,128.167166,37.987236,7391.341173600001,-96.484,4.015,272.557
9.402,128.167116,37.987246,7391.576784000001,-96.492,3.968,272.39
9.4187,128.167065,37.987256,7391.8090416000005,-96.5,3.921,272.223
9.4355,128.167014,37.987266,7392.037641600001,-96.508,3.873,272.055
9.4522,128.166964,37.987275,7392.262279200001,-96.515,3.826,271.888
9.4689,128.166913,37.987285,7392.483564,-96.522,3.778,271.72
9.4856,128.166862,37.987294,7392.701191200001,-96.53,3.731,271.553
9.5023,128.166812,37.987304,7392.915160800001,-96.537,3.683,271.385
9.519,128.166761,37.987313,7393.1257776,-96.543,3.636,271.218
9.5357,128.16671,37.987322,7393.332432,-96.55,3.588,271.05
9.5524,128.166659,37.987331,7393.535428800001,-96.556,3.54,270.882
9.5691,128.166608,37.98734,7393.734768,-96.563,3.493,270.715
9.5857,128.166557,37.987349,7393.9307544,-96.569,3.445,270.547
9.6024,128.166506,37.987358,7394.1227784,-96.575,3.397,270.38
9.6192,128.166455,37.987366,7394.3114496,-96.58,3.35,270.212
9.6359,128.166404,37.987375,7394.4961584,-96.586,3.302,270.044
9.6526,128.166353,37.987383,7394.6772096,-96.591,3.254,269.876
9.6693,128.166302,37.987392,7394.854908,-96.596,3.207,269.709
9.686,128.166251,37.9874,7395.028644,-96.601,3.159,269.541
9.7027,128.1662,37.987408,7395.1987224,-96.606,3.111,269.373
9.7194,128.166149,37.987416,7395.365448,-96.611,3.063,269.205
9.7361,128.166098,37.987423,7395.5282112,-96.615,3.016,269.037
9.7528,128.166047,37.987431,7395.6873168,-96.62,2.968,268.87
9.7694,128.165996,37.987439,7395.842764800001,-96.624,2.92,268.702
9.7861,128.165944,37.987446,7395.994555200001,-96.628,2.872,268.534
9.8029,128.165893,37.987453,7396.142688000001,-96.632,2.824,268.366
9.8196,128.165842,37.987461,7396.2868584,-96.635,2.777,268.198
9.8363,128.165791,37.987468,7396.427676,-96.639,2.729,268.03
9.853,128.165739,37.987475,7396.564531200001,-96.642,2.681,267.862
9.8697,128.165688,37.987482,7396.698033600001,-96.645,2.633,267.694
9.8864,128.165637,37.987488,7396.8275736000005,-96.648,2.585,267.526
9.9031,128.165585,37.987495,7396.953456000001,-96.651,2.537,267.358
9.9198,128.165534,37.987501,7397.075376,-96.653,2.489,267.189
9.9365,128.165483,37.987508,7397.1939432,-96.655,2.441,267.021
9.9531,128.165431,37.987514,7397.3088528,-96.658,2.394,266.853
9.9698,128.16538,37.98752,7397.419800000001,-96.66,2.346,266.685
9.9865,128.165328,37.987526,7397.5270896,-96.662,2.298,266.517
10.0033,128.165277,37.987532,7397.6307216000005,-96.663,2.25,266.348
10.02,128.165225,37.987538,7397.730391200001,-96.665,2.202,266.18
10.0367,128.165174,37.987544,7397.8267080000005,-96.666,2.154,266.012
10.0534,128.165122,37.987549,7397.9190624,-96.667,2.106,265.843
10.0701,128.165071,37.987555,7398.007759200001,-96.668,2.058,265.675
10.0868,128.165019,37.98756,7398.0924936,-96.669,2.01,265.507
10.1035,128.164968,37.987565,7398.1738752,-96.67,1.962,265.338
10.1202,128.164916,37.98757,7398.2512944,-96.67,1.914,265.17
10.1368,128.164864,37.987575,7398.325056000001,-96.67,1.866,265.001
10.1535,128.164813,37.98758,7398.3948552,-96.671,1.818,264.833
10.1702,128.164761,37.987585,7398.4609968,-96.67,1.77,264.664
10.187,128.16471,37.98759,7398.5234808000005,-96.67,1.722,264.496
10.2037,128.164658,37.987594,7398.5823072,-96.67,1.675,264.327
10.2204,128.164606,37.987599,7398.637476,-96.669,1.627,264.159
10.2371,128.164555,37.987603,7398.6886824,-96.669,1.579,263.99
10.2538,128.164503,37.987607,7398.735926400001,-96.668,1.531,263.821
10.2705,128.164451,37.987611,7398.779817600001,-96.666,1.483,263.652
10.2872,128.1644,37.987615,7398.8197464,-96.665,1.435,263.484
10.3039,128.164348,37.987619,7398.8560176,-96.664,1.387,263.315
10.3205,128.164296,37.987623,7398.888326400001,-96.662,1.339,263.146
10.3372,128.164244,37.987626,7398.916977600001,-96.66,1.291,262.977
10.3539,128.164193,37.98763,7398.9419712,-96.658,1.243,262.809
10.3707,128.164141,37.987633,7398.9630024,-96.656,1.195,262.64
10.3874,128.164089,37.987636,7398.980376,-96.654,1.147,262.471
10.4041,128.164037,37.987639,7398.994092000001,-96.651,1.099,262.302
10.4208,128.163986,37.987642,7399.0038456,-96.649,1.052,262.133
10.4375,128.163934,37.987645,7399.0099416,-96.646,1.004,261.964
10.4542,128.163882,37.987648,7399.0120752,-96.643,0.956,261.795
10.4709,128.16383,37.987651,7399.010551200001,-96.64,0.908,261.626
10.4876,128.163779,37.987653,7399.0053696,-96.636,0.86,261.457
10.5042,128.163727,37.987655,7398.9962256,-96.633,0.812,261.288
10.5209,128.163675,37.987658,7398.983424000001,-96.629,0.764,261.119
10.5376,128.163623,37.98766,7398.966660000001,-96.625,0.717,260.949
10.5544,128.163571,37.987662,7398.946238400001,-96.621,0.669,260.78
10.5711,128.16352,37.987664,7398.9221592,-96.617,0.621,260.611
10.5878,128.163468,37.987666,7398.8941176,-96.613,0.573,260.442
10.6045,128.163416,37.987667,7398.8624184,-96.608,0.525,260.272
10.6212,128.163364,37.987669,7398.826756800001,-96.603,0.478,260.103
10.6379,128.163312,37.98767,7398.787437600001,-96.598,0.43,259.934
10.6546,128.163261,37.987672,7398.7444608000005,-96.593,0.382,259.764
10.6713,128.163209,37.987673,7398.6975216,-96.588,0.335,259.595
10.6879,128.163157,37.987674,7398.64662,-96.583,0.287,259.425
10.7046,128.163105,37.987675,7398.5923656,-96.577,0.239,259.256
10.7213,128.163053,37.987676,7398.533844,-96.571,0.192,259.086
10.7381,128.163002,37.987677,7398.471969600001,-96.565,0.144,258.917
10.7548,128.16295,37.987677,7398.405828000001,-96.559,0.096,258.747
10.7715,128.162898,37.987678,7398.336333600001,-96.553,0.049,258.578
10.7882,128.162846,37.987678,7398.2628768,-96.547,0.001,258.408
10.8049,128.162794,37.987679,7398.1854576,-96.54,-0.046,258.238
10.8216,128.162743,37.987679,7398.1043808,-96.533,-0.093,258.069
10.8383,128.162691,37.987679,7398.019646400001,-96.526,-0.141,257.899
10.855,128.162639,37.987679,7397.9309496000005,-96.519,-0.188,257.729
10.8717,128.162587,37.987678,7397.8382904,-96.512,-0.236,257.559
10.8883,128.162536,37.987678,7397.7419736,-96.504,-0.283,257.39
10.905,128.162484,37.987678,7397.6419992,-96.497,-0.33,257.22
10.9218,128.162432,37.987677,7397.5380624,-96.489,-0.378,257.05
10.9385,128.16238,37.987677,7397.4304680000005,-96.481,-0.425,256.88
10.9552,128.162329,37.987676,7397.318911200001,-96.473,-0.473,256.71
10.9719,128.162277,37.987675,7397.203696800001,-96.464,-0.52,256.54
10.9886,128.162225,37.987674,7397.084520000001,-96.456,-0.567,256.37
11.0053,128.162174,37.987673,7396.9616856,-96.447,-0.615,256.2
11.022,128.162122,37.987671,7396.8351936,-96.438,-0.662,256.03
11.0387,128.16207,37.98767,7396.7047392,-96.429,-0.709,255.86
11.0554,128.162018,37.987669,7396.5703224,-96.42,-0.756,255.689
11.072,128.161967,37.987667,7396.432248,-96.411,-0.803,255.519
11.0887,128.161915,37.987665,7396.290211200001,-96.402,-0.851,255.349
11.1054,128.161864,37.987663,7396.1445168,-96.392,-0.898,255.179
11.1222,128.161812,37.987661,7395.995164800001,-96.382,-0.945,255.009
11.1389,128.16176,37.987659,7395.8418504,-96.372,-0.992,254.838
11.1556,128.161709,37.987657,7395.6848784,-96.362,-1.039,254.668
11.1723,128.161657,37.987655,7395.523944,-96.352,-1.086,254.497
11.189,128.161606,37.987652,7395.3590472000005,-96.341,-1.133,254.327
11.2057,128.161554,37.98765,7395.190492800001,-96.33,-1.18,254.157
11.2224,128.161503,37.987647,7395.0182808,-96.32,-1.227,253.986
11.2391,128.161451,37.987644,7394.8421064,-96.309,-1.274,253.815
11.2557,128.161399,37.987641,7394.662274400001,-96.297,-1.32,253.645
11.2724,128.161348,37.987638,7394.4787848,-96.286,-1.367,253.474
11.2891,128.161297,37.987635,7394.291028000001,-96.275,-1.414,253.304
11.3059,128.161245,37.987632,7394.0999184,-96.263,-1.461,253.133
11.3226,128.161194,37.987629,7393.904846400001,-96.251,-1.507,252.962
11.3393,128.161142,37.987625,7393.705812,-96.239,-1.554,252.791
11.356,128.161091,37.987621,7393.503120000001,-96.227,-1.601,252.621
11.3727,128.161039,37.987618,7393.296770400001,-96.215,-1.647,252.45
11.3894,128.160988,37.987614,7393.0864584,-96.202,-1.694,252.279
11.4061,128.160937,37.98761,7392.8724888,-96.19,-1.74,252.108
11.4228,128.160885,37.987606,7392.654556800001,-96.177,-1.787,251.937
11.4394,128.160834,37.987602,7392.4329672,-96.164,-1.833,251.766
11.4561,128.160783,37.987597,7392.2074152000005,-96.151,-1.88,251.595
11.4728,128.160732,37.987593,7391.9782056,-96.137,-1.926,251.424
11.4896,128.16068,37.987588,7391.745033600001,-96.124,-1.972,251.253
11.5063,128.160629,37.987583,7391.508204000001,-96.11,-2.019,251.082
11.523,128.160578,37.987579,7391.2677168,-96.097,-2.065,250.911
11.5397,128.160527,37.987574,7391.0232672,-96.083,-2.111,250.74
11.5564,128.160476,37.987569,7390.77516,-96.069,-2.157,250.569
11.5731,128.160425,37.987564,7390.5230904,-96.054,-2.203,250.397
11.5898,128.160374,37.987558,7390.267363200001,-96.04,-2.249,250.226
11.6065,128.160322,37.987553,7390.007978400001,-96.025,-2.295,250.055
11.6231,128.160271,37.987547,7389.7446312,-96.01,-2.341,249.883
11.6398,128.16022,37.987542,7389.4776264,-95.996,-2.387,249.712
11.6565,128.160169,37.987536,7389.2066592,-95.98,-2.433,249.54
11.6733,128.160119,37.98753,7388.9320344,-95.965,-2.479,249.369
11.69,128.160068,37.987524,7388.653752000001,-95.95,-2.525,249.197
11.7067,128.160017,37.987518,7388.3715071999995,-95.934,-2.57,249.026
11.7234,128.159966,37.987512,7388.0856048000005,-95.918,-2.616,248.854
11.7401,128.159915,37.987506,7387.7957400000005,-95.903,-2.662,248.683
11.7568,128.159864,37.987499,7387.5022176,-95.887,-2.707,248.511
11.7735,128.159813,37.987493,7387.205037600001,-95.87,-2.753,248.339
11.7902,128.159763,37.987486,7386.9038952,-95.854,-2.798,248.168
11.8068,128.159712,37.987479,7386.5990952,-95.837,-2.844,247.996
11.8235,128.159661,37.987472,7386.290637600001,-95.821,-2.889,247.824
11.8402,128.159611,37.987465,7385.9782176,-95.804,-2.935,247.652
11.857,128.15956,37.987458,7385.6624448,-95.787,-2.98,247.48
11.8737,128.159509,37.987451,7385.342404800001,-95.77,-3.025,247.308
11.8904,128.159459,37.987443,7385.019012,-95.752,-3.07,247.136
11.9071,128.159408,37.987436,7384.691656800001,-95.735,-3.115,246.964
11.9238,128.159358,37.987428,7384.3603391999995,-95.717,-3.16,246.792
11.9405,128.159307,37.987421,7384.025668800001,-95.699,-3.205,246.62
11.9572,128.159257,37.987413,7383.687036,-95.682,-3.25,246.448
11.9739,128.159207,37.987405,7383.3447456,-95.663,-3.295,246.276
11.9905,128.159156,37.987397,7382.998797600001,-95.645,-3.34,246.104
12.0072,128.159106,37.987389,7382.648887200001,-95.627,-3.385,245.932
12.0239,128.159056,37.98738,7382.2953192,-95.608,-3.43,245.759
12.0407,128.159005,37.987372,7381.9380936,-95.589,-3.474,245.587
12.0574,128.158955,37.987363,7381.577210400001,-95.57,-3.519,245.415
12.0741,128.158905,37.987355,7381.212364800001,-95.551,-3.563,245.242
12.0908,128.158855,37.987346,7380.8438616,-95.532,-3.608,245.07
12.1075,128.158805,37.987337,7380.471700800001,-95.513,-3.652,244.897
12.1242,128.158755,37.987328,7380.095882400001,-95.493,-3.697,244.725
12.1409,128.158705,37.987319,7379.716101600001,-95.474,-3.741,244.552
12.1576,128.158655,37.98731,7379.332968000001,-95.454,-3.785,244.38
12.1743,128.158605,37.9873,7378.945872,-95.434,-3.829,244.207
12.1909,128.158555,37.987291,7378.5551184000005,-95.414,-3.874,244.035
12.2076,128.158505,37.987281,7378.1604024,-95.393,-3.918,243.862
12.2243,128.158456,37.987272,7377.762333600001,-95.373,-3.962,243.689
12.2411,128.158406,37.987262,7377.3603023999995,-95.352,-4.006,243.516
12.2578,128.158356,37.987252,7376.954918400001,-95.332,-4.05,243.344
12.2745,128.158306,37.987242,7376.545572,-95.311,-4.093,243.171
12.2912,128.158257,37.987232,7376.132568,-95.29,-4.137,242.998
12.3079,128.158207,37.987222,7375.715906400001,-95.268,-4.181,242.825
12.3246,128.158158,37.987211,7375.2952824,-95.247,-4.224,242.652
12.3413,128.158108,37.987201,7374.871305600001,-95.226,-4.268,242.479
12.358,128.158059,37.98719,7374.4436712,-95.204,-4.311,242.306
12.3746,128.158009,37.987179,7374.0120744000005,-95.182,-4.355,242.133
12.3913,128.15796,37.987168,7373.577124800001,-95.16,-4.398,241.96
12.408,128.157911,37.987158,7373.1382128000005,-95.138,-4.441,241.787
12.4248,128.157862,37.987146,7372.6956432,-95.116,-4.485,241.613
12.4415,128.157812,37.987135,7372.2497207999995,-95.093,-4.528,241.44
12.4582,128.157763,37.987124,7371.799836,-95.071,-4.571,241.267
12.4749,128.157714,37.987113,7371.3462936,-95.048,-4.614,241.094
12.4916,128.157665,37.987101,7370.8890936,-95.025,-4.657,240.92
12.5083,128.157616,37.987089,7370.4285408000005,-95.002,-4.7,240.747
12.525,128.157567,37.987078,7369.9640256,-94.979,-4.742,240.573
12.5417,128.157518,37.987066,7369.4958528,-94.955,-4.785,240.4
12.5583,128.157469,37.987054,7369.024327200001,-94.932,-4.828,240.226
12.575,128.157421,37.987042,7368.5488392,-94.908,-4.87,240.053
12.5917,128.157372,37.98703,7368.0699984,-94.885,-4.913,239.879
12.6085,128.157323,37.987017,7367.587195200001,-94.861,-4.955,239.706
12.6252,128.157275,37.987005,7367.1010392,-94.837,-4.997,239.532
12.6419,128.157226,37.986992,7366.6109208,-94.812,-5.04,239.358
12.6586,128.157177,37.98698,7366.1174496,-94.788,-5.082,239.185
12.6753,128.157129,37.986967,7365.6203208,-94.763,-5.124,239.011
12.692,128.157081,37.986954,7365.1195344,-94.739,-5.166,238.837
12.7087,128.157032,37.986941,7364.6153952,-94.714,-5.208,238.663
12.7254,128.156984,37.986928,7364.1072936,-94.689,-5.25,238.489
12.742,128.156936,37.986915,7363.5958392,-94.664,-5.292,238.315
12.7587,128.156887,37.986901,7363.0804224,-94.639,-5.333,238.141
12.7754,128.156839,37.986888,7362.5616528,-94.613,-5.375,237.967
12.7922,128.156791,37.986875,7362.0392256,-94.588,-5.417,237.793
12.8089,128.156743,37.986861,7361.5134456000005,-94.562,-5.458,237.619
12.8256,128.156695,37.986847,7360.9837032000005,-94.536,-5.499,237.445
12.8423,128.156647,37.986833,7360.450608,-94.51,-5.541,237.271
12.859,128.156599,37.986819,7359.9138552,-94.484,-5.582,237.096
12.8757,128.156552,37.986805,7359.3737496,-94.458,-5.623,236.922
12.8924,128.156504,37.986791,7358.8299864,-94.431,-5.664,236.748
12.9091,128.156456,37.986777,7358.2825656,-94.405,-5.705,236.574
12.9257,128.156409,37.986762,7357.731487200001,-94.378,-5.746,236.399
12.9424,128.156361,37.986748,7357.177056,-94.351,-5.787,236.225
12.9591,128.156314,37.986733,7356.6189672,-94.324,-5.828,236.05
12.9759,128.156266,37.986718,7356.0572208,-94.297,-5.868,235.876
12.9926,128.156219,37.986703,7355.4921216,-94.27,-5.909,235.701
13.0093,128.156172,37.986688,7354.923364800001,-94.242,-5.949,235.527
13.026,128.156124,37.986673,7354.3512552,-94.215,-5.99,235.352
13.0427,128.156077,37.986658,7353.775488000001,-94.187,-6.03,235.177
13.0594,128.15603,37.986643,7353.1960632,-94.159,-6.07,235.003
13.0761,128.155983,37.986627,7352.6132856,-94.131,-6.11,234.828
13.0928,128.155936,37.986612,7352.0268504000005,-94.103,-6.15,234.653
13.1095,128.155889,37.986596,7351.4370624,-94.075,-6.19,234.478
13.1262,128.155842,37.98658,7350.8439216,-94.047,-6.23,234.303
13.1429,128.155796,37.986565,7350.246818400001,-94.018,-6.27,234.129
13.1596,128.155749,37.986549,7349.6466672,-93.989,-6.31,233.954
13.1763,128.155702,37.986533,7349.0428584,-93.961,-6.349,233.779
13.193,128.155656,37.986516,7348.435392,-93.932,-6.389,233.604
13.2097,128.155609,37.9865,7347.8245728,-93.903,-6.428,233.429
13.2264,128.155563,37.986484,7347.210400800001,-93.873,-6.467,233.253
13.2431,128.155516,37.986467,7346.5925712,-93.844,-6.507,233.078
13.2598,128.15547,37.986451,7345.9713888,-93.815,-6.546,232.903
13.2765,128.155424,37.986434,7345.3468536,-93.785,-6.585,232.728
13.2932,128.155378,37.986417,7344.718660800001,-93.755,-6.624,232.553
13.3099,128.155332,37.9864,7344.087115200001,-93.725,-6.663,232.377
13.3266,128.155286,37.986383,7343.4522168,-93.695,-6.701,232.202
13.3433,128.15524,37.986366,7342.8136608,-93.665,-6.74,232.027
13.36,128.155194,37.986349,7342.171752000001,-93.635,-6.779,231.851
13.3767,128.155148,37.986331,7341.5264904000005,-93.604,-6.817,231.676
13.3934,128.155102,37.986314,7340.8775712,-93.574,-6.855,231.5
13.4101,128.155057,37.986296,7340.225604,-93.543,-6.894,231.325
13.4268,128.155011,37.986279,7339.5699792000005,-93.512,-6.932,231.149
13.4435,128.154966,37.986261,7338.9110016,-93.481,-6.97,230.974
13.4602,128.15492,37.986243,7338.2486712,-93.45,-7.008,230.798
13.4769,128.154875,37.986225,7337.582683200001,-93.419,-7.046,230.622
13.4936,128.15483,37.986207,7336.913647200001,-93.387,-7.084,230.447
13.5103,128.154784,37.986189,7336.2409536000005,-93.356,-7.121,230.271
13.527,128.154739,37.98617,7335.5652119999995,-93.324,-7.159,230.095
13.5437,128.154694,37.986152,7334.8858128,-93.292,-7.196,229.919
13.5604,128.154649,37.986133,7334.2030608000005,-93.26,-7.234,229.743
13.5771,128.154604,37.986115,7333.516956,-93.228,-7.271,229.568
13.5938,128.154559,37.986096,7332.8274984,-93.196,-7.308,229.392
13.6105,128.154515,37.986077,7332.134992800001,-93.164,-7.345,229.216
13.6272,128.15447,37.986058,7331.4388296,-93.131,-7.382,229.04
13.6439,128.154426,37.986039,7330.7393136,-93.099,-7.419,228.864
13.6606,128.154381,37.98602,7330.0364448,-93.066,-7.456,228.687
13.6773,128.154337,37.986001,7329.330528,-93.033,-7.493,228.511
13.694,128.154292,37.985981,7328.620953600001,-93.0,-7.529,228.335
13.7107,128.154248,37.985962,7327.9083312,-92.967,-7.566,228.159
13.7274,128.154204,37.985942,7327.1923560000005,-92.934,-7.602,227.983
13.7441,128.15416,37.985923,7326.473028,-92.9,-7.638,227.806
13.7608,128.154116,37.985903,7325.750347200001,-92.867,-7.674,227.63
13.7775,128.154072,37.985883,7325.0243136,-92.833,-7.71,227.454
13.7942,128.154028,37.985863,7324.2949272000005,-92.8,-7.746,227.277
13.8109,128.153984,37.985843,7323.562492800001,-92.766,-7.782,227.101
13.8276,128.153941,37.985823,7322.8267056,-92.732,-7.818,226.924
13.8443,128.153897,37.985802,7322.087870400001,-92.698,-7.853,226.748
13.861,128.153853,37.985782,7321.345377600001,-92.663,-7.889,226.571
13.8777,128.15381,37.985762,7320.5998368,-92.629,-7.924,226.395
13.8944,128.153767,37.985741,7319.8509432,-92.594,-7.96,226.218
13.9111,128.153723,37.98572,7319.0990016000005,-92.56,-7.995,226.041
13.9278,128.15368,37.985699,7318.3437072,-92.525,-8.03,225.865
13.9445,128.153637,37.985679,7317.58506,-92.49,-8.065,225.688
13.9612,128.153594,37.985658,7316.8233648000005,-92.455,-8.1,225.511
13.9779,128.153551,37.985636,7316.0586216,-92.42,-8.134,225.334
13.9946,128.153509,37.985615,7315.2905256,-92.385,-8.169,225.158
14.0113,128.153466,37.985594,7314.5190768,-92.349,-8.203,224.981
14.028,128.153423,37.985573,7313.74458,-92.314,-8.238,224.804
14.0447,128.153381,37.985551,7312.9667304,-92.278,-8.272,224.627
14.0614,128.153338,37.985529,7312.185832800001,-92.242,-8.306,224.45
14.0781,128.153296,37.985508,7311.401582400001,-92.207,-8.34,224.273
14.0948,128.153254,37.985486,7310.6145888,-92.171,-8.374,224.096
14.1115,128.153211,37.985464,7309.823937600001,-92.134,-8.408,223.919
14.1282,128.153169,37.985442,7309.0305432,-92.098,-8.442,223.742
14.1449,128.153127,37.98542,7308.233796,-92.062,-8.475,223.564
14.1616,128.153085,37.985398,7307.434000800001,-92.025,-8.509,223.387
14.1783,128.153044,37.985375,7306.6308528,-91.989,-8.542,223.21
14.195,128.153002,37.985353,7305.824656800001,-91.952,-8.575,223.033
14.2117,128.15296,37.985331,7305.0154128,-91.915,-8.608,222.855
14.2284,128.152919,37.985308,7304.2031208,-91.878,-8.641,222.678
14.2451,128.152877,37.985285,7303.3877808,-91.841,-8.674,222.501
14.2618,128.152836,37.985263,7302.569088000001,-91.804,-8.707,222.323
14.2785,128.152795,37.98524,7301.747347200001,-91.767,-8.74,222.146
14.2952,128.152753,37.985217,7300.9228632,-91.729,-8.772,221.968
14.3119,128.152712,37.985194,7300.0950264,-91.692,-8.805,221.791
14.3286,128.152671,37.985171,7299.264141600001,-91.654,-8.837,221.613
14.3453,128.15263,37.985147,7298.4302088,-91.616,-8.869,221.436
14.362,128.15259,37.985124,7297.593228000001,-91.578,-8.901,221.258
14.3787,128.152549,37.9851,7296.7531992,-91.54,-8.933,221.081
14.3954,128.152508,37.985077,7295.910122400001,-91.502,-8.965,220.903
14.4121,128.152468,37.985053,7295.063997600001,-91.464,-8.997,220.725
14.4288,128.152428,37.98503,7294.214824800001,-91.426,-9.028,220.547
14.4455,128.152387,37.985006,7293.362604,-91.387,-9.06,220.37
14.4622,128.152347,37.984982,7292.50764,-91.349,-9.091,220.192
14.4789,128.152307,37.984958,7291.6493232,-91.31,-9.122,220.014
14.4956,128.152267,37.984934,7290.7882632,-91.271,-9.153,219.836
14.5123,128.152227,37.984909,7289.9241552,-91.232,-9.184,219.658
14.529,128.152187,37.984885,7289.0569992,-91.193,-9.215,219.48
14.5457,128.152148,37.984861,7288.1867952,-91.154,-9.246,219.302
14.5624,128.152108,37.984836,7287.313848,-91.115,-9.276,219.124
14.5791,128.152069,37.984812,7286.4378528,-91.075,-9.307,218.946
14.5958,128.152029,37.984787,7285.5588096,-91.036,-9.337,218.768
14.6125,128.15199,37.984762,7284.677023200001,-90.996,-9.367,218.59
14.6292,128.151951,37.984737,7283.7921888,-90.957,-9.397,218.412
14.6459,128.151912,37.984712,7282.904306400001,-90.917,-9.427,218.234
14.6626,128.151873,37.984687,7282.0136808,-90.877,-9.457,218.056
14.6793,128.151834,37.984662,7281.120312,-90.837,-9.487,217.877
14.696,128.151795,37.984637,7280.223895200001,-90.797,-9.516,217.699
14.7127,128.151756,37.984612,7279.3244304,-90.757,-9.545,217.521
14.7294,128.151718,37.984586,7278.4222224000005,-90.716,-9.575,217.343
14.7461,128.151679,37.984561,7277.5169664,-90.676,-9.604,217.164
14.7628,128.151641,37.984535,7276.6089672,-90.635,-9.633,216.986
14.7795,128.151603,37.984509,7275.698224800001,-90.594,-9.662,216.807
14.7962,128.151565,37.984484,7274.7844344,-90.554,-9.691,216.629
14.8129,128.151526,37.984458,7273.867900800001,-90.513,-9.719,216.45
14.8296,128.151489,37.984432,7272.948624000001,-90.472,-9.748,216.272
14.8463,128.151451,37.984406,7272.0262992,-90.431,-9.776,216.093
14.863,128.151413,37.98438,7271.101536,-90.389,-9.804,215.915
14.8797,128.151375,37.984353,7270.173724800001,-90.348,-9.833,215.736
14.8964,128.151338,37.984327,7269.242865600001,-90.307,-9.861,215.558
14.9131,128.151301,37.984301,7268.309568000001,-90.265,-9.888,215.379
14.9298,128.151263,37.984274,7267.3732224000005,-90.223,-9.916,215.2
14.9465,128.151226,37.984248,7266.4344384000005,-90.182,-9.944,215.022
14.9632,128.151189,37.984221,7265.492606400001,-90.14,-9.971,214.843
14.9799,128.151152,37.984194,7264.5480312,-90.098,-9.998,214.664
14.9966,128.151115,37.984167,7263.6010176,-90.056,-10.026,214.485
15.0133,128.151079,37.984141,7262.650956,-90.014,-10.053,214.307
15.03,128.151042,37.984114,7261.6981512,-89.972,-10.08,214.128
15.0467,128.151005,37.984086,7260.7426032,-89.929,-10.106,213.949
15.0634,128.150969,37.984059,7259.7846168,-89.887,-10.133,213.77
15.0801,128.150933,37.984032,7258.8235824,-89.844,-10.159,213.591
15.0968,128.150897,37.984005,7257.8601096,-89.802,-10.186,213.412
15.1135,128.150861,37.983977,7256.8938935999995,-89.759,-10.212,213.233
15.1302,128.150825,37.98395,7255.9249344,-89.716,-10.238,213.054
15.1469,128.150789,37.983922,7254.953232000001,-89.673,-10.264,212.875
15.1636,128.150753,37.983894,7253.979091200001,-89.63,-10.29,212.696
15.1803,128.150717,37.983867,7253.0022072,-89.587,-10.316,212.517
15.197,128.150682,37.983839,7252.02258,-89.544,-10.341,212.338
15.2137,128.150647,37.983811,7251.040514400001,-89.5,-10.367,212.159
15.2304,128.150611,37.983783,7250.055705600001,-89.457,-10.392,211.98
15.2471,128.150576,37.983755,7249.0681536,-89.413,-10.417,211.801
15.2638,128.150541,37.983726,7248.0781632,-89.37,-10.442,211.621
