Time,Longitude,Latitude,Altitude,Roll (deg),Pitch (deg),Yaw (deg)
0.0,128.181881,37.923646,7000.146528,0.0,-0.003,0.0
0.01,128.181881,37.923691,7000.1605488000005,0.0,-0.012,0.0
0.02,128.181881,37.923736,7000.173960000001,0.0,-0.025,0.0
0.03,128.181881,37.923781,7000.186152000001,0.0,-0.039,0.0
0.04,128.181881,37.923826,7000.1977344,0.0,-0.055,0.0
0.05,128.181881,37.923871,7000.2084024,0.0,-0.071,0.0
0.06,128.181881,37.923916,7000.218156000001,0.0,-0.086,0.0
0.07,128.181881,37.923961,7000.226995200001,0.0,-0.101,0.0
0.08,128.181881,37.924006,7000.235224800001,0.0,-0.114,0.0
0.09,128.181881,37.924051,7000.2422352,0.0,-0.126,0.0
0.1,128.181881,37.924096,7000.248636,0.0,-0.136,0.0
0.11,128.181881,37.924141,7000.254122400001,0.0,-0.145,0.0
0.12,128.181881,37.924186,7000.2589992,0.0,-0.152,0.0
0.13,128.181881,37.924231,7000.2626568000005,0.0,-0.158,0.0
0.14,128.181881,37.924276,7000.2657048,0.0,-0.163,0.0
0.15,128.181881,37.924321,7000.267838400001,0.0,-0.167,0.0
0.16,128.181881,37.924366,7000.2693624,0.0,-0.17,0.0
0.17,128.181881,37.924411,7000.269972,0.0,-0.172,0.0
0.18,128.181881,37.924456,7000.2696672,0.0,-0.174,0.0
0.19,128.181881,37.924501,7000.2687528,0.0,-0.176,0.0
0.2,128.181881,37.924546,7000.2669240000005,0.0,-0.177,0.0
0.21,128.181881,37.924591,7000.2641808,0.0,-0.178,0.0
0.22,128.181881,37.924636,7000.260828,0.001,-0.18,0.0
0.23,128.181881,37.924682,7000.256865600001,0.001,-0.181,0.0
0.24,128.181881,37.924727,7000.2519888,0.001,-0.182,0.0
0.25,128.181881,37.924772,7000.2465024,0.001,-0.184,0.0
0.26,128.181881,37.924817,7000.240406400001,0.001,-0.186,0.0
0.27,128.181881,37.924862,7000.2333960000005,0.001,-0.187,0.0
0.28,128.181881,37.924907,7000.225776,0.001,-0.189,0.0
0.28,128.181881,37.924952,7000.2172416,0.001,-0.191,0.0
0.3,128.181881,37.924998,7000.2084024,0.002,-0.194,0.0
0.31,128.181881,37.925043,7000.1986488,0.002,-0.196,0.0
0.32,128.181881,37.925088,7000.1882856,0.002,-0.198,0.0
0.33,128.181881,37.925133,7000.177008,0.002,-0.201,0.0
0.34,128.181881,37.925179,7000.1654256,0.002,-0.203,0.0
0.35,128.181881,37.925224,7000.152928800001,0.002,-0.206,0.0
0.36,128.181881,37.925269,7000.1401272,0.003,-0.208,0.0
0.37,128.181881,37.925314,7000.126411200001,0.003,-0.211,0.0
0.38,128.181881,37.92536,7000.1120856,0.003,-0.213,0.0
0.39,128.181881,37.925405,7000.097150400001,0.003,-0.215,0.0
0.4,128.181881,37.92545,7000.0816056,0.003,-0.218,0.0
0.41,128.181881,37.925495,7000.065451200001,0.004,-0.22,0.0
0.42,128.181881,37.925541,7000.048992000001,0.004,-0.222,0.0
0.43,128.181881,37.925586,7000.0316184,0.004,-0.225,0.0
0.44,128.181881,37.925631,7000.0136352,0.004,-0.227,0.0
0.45,128.181881,37.925677,6999.995042400001,0.004,-0.229,0.0
0.46,128.181881,37.925722,6999.9761448,0.005,-0.231,0.0
0.47,128.181881,37.925767,6999.9563328,0.005,-0.234,0.0
0.48,128.181881,37.925813,6999.936216,0.005,-0.236,0.001
0.49,128.181881,37.925858,6999.9154896,0.005,-0.238,0.001
0.5,128.181881,37.925903,6999.8941536,0.006,-0.24,0.001
0.51,128.181881,37.925949,6999.872512800001,0.006,-0.242,0.001
0.52,128.181881,37.925994,6999.8499576,0.006,-0.244,0.001
0.53,128.181881,37.92604,6999.827097600001,0.007,-0.246,0.001
0.54,128.181881,37.926085,6999.803628000001,0.007,-0.248,0.001
0.55,128.181881,37.92613,6999.7798536,0.007,-0.251,0.001
0.56,128.181881,37.926176,6999.755164800001,0.007,-0.253,0.001
0.57,128.181881,37.926221,6999.7301712,0.008,-0.255,0.001
0.57,128.181881,37.926267,6999.7048728,0.008,-0.257,0.001
0.59,128.181881,37.926312,6999.6789648,0.008,-0.259,0.001
0.6,128.181881,37.926358,6999.652447200001,0.009,-0.261,0.001
0.61,128.181881,37.926403,6999.625320000001,0.009,-0.263,0.001
0.62,128.181881,37.926449,6999.597888000001,0.009,-0.265,0.001
0.63,128.181881,37.926494,6999.5701512000005,0.01,-0.267,0.001
0.64,128.181881,37.92654,6999.5418048,0.01,-0.268,0.001
0.65,128.181881,37.926585,6999.5128488,0.01,-0.27,0.001
0.66,128.181881,37.926631,6999.483588000001,0.011,-0.272,0.001
0.67,128.181881,37.926676,6999.4537176,0.011,-0.274,0.001
0.68,128.181881,37.926722,6999.423542400001,0.011,-0.276,0.001
0.69,128.181881,37.926767,6999.3927576,0.011,-0.278,0.001
0.7,128.181881,37.926813,6999.3616680000005,0.012,-0.28,0.001
0.71,128.181881,37.926858,6999.3302736000005,0.012,-0.282,0.001
0.72,128.181881,37.926904,6999.298269600001,0.013,-0.283,0.001
0.73,128.181881,37.926949,6999.2659608,0.013,-0.285,0.001
0.74,128.181881,37.926995,6999.233042400001,0.013,-0.287,0.001
0.75,128.181881,37.927041,6999.199819200001,0.014,-0.289,0.001
0.76,128.181881,37.927086,6999.1662912,0.014,-0.29,0.001
0.77,128.181881,37.927132,6999.1321536000005,0.014,-0.292,0.001
0.78,128.181881,37.927178,6999.097711200001,0.015,-0.294,0.001
0.79,128.181881,37.927223,6999.062964000001,0.015,-0.296,0.001
0.8,128.181881,37.927269,6999.027912,0.016,-0.297,0.001
0.81,128.181881,37.927314,6998.992250400001,0.016,-0.299,0.001
0.82,128.181881,37.92736,6998.956284000001,0.016,-0.301,0.001
0.83,128.181881,37.927406,6998.919708,0.017,-0.303,0.001
0.84,128.181881,37.927452,6998.883132000001,0.017,-0.304,0.001
0.85,128.181881,37.927497,6998.845946400001,0.018,-0.306,0.001
0.86,128.181881,37.927543,6998.808456000001,0.018,-0.308,0.001
0.87,128.181881,37.927589,6998.770660800001,0.019,-0.309,0.001
0.88,128.181881,37.927634,6998.732560800001,0.019,-0.311,0.001
0.89,128.181881,37.92768,6998.693851200001,0.019,-0.313,0.001
0.9,128.181881,37.927726,6998.6548368,0.02,-0.314,0.001
0.91,128.181881,37.927772,6998.6158224,0.02,-0.316,0.001
0.92,128.181881,37.927817,6998.5761984,0.021,-0.317,0.001
0.93,128.181881,37.927863,6998.536269600001,0.021,-0.319,0.001
0.94,128.181881,37.927909,6998.4960360000005,0.022,-0.32,0.001
0.95,128.181881,37.927955,6998.455192800001,0.022,-0.322,0.001
0.96,128.181881,37.928,6998.414349600001,0.023,-0.324,0.001
0.97,128.181881,37.928046,6998.3732016,0.023,-0.325,0.001
0.98,128.181881,37.928092,6998.331444,0.024,-0.327,0.001
0.99,128.181881,37.928138,6998.2896864,0.024,-0.328,0.001
1.0,128.181881,37.928184,6998.2476240000005,0.025,-0.33,0.001
1.01,128.181881,37.92823,6998.204952000001,0.025,-0.331,0.001
1.02,128.181881,37.928275,6998.16228,0.026,-0.333,0.001
1.03,128.181881,37.928321,6998.1189984,0.026,-0.334,0.001
1.04,128.181881,37.928367,6998.0757168,0.027,-0.336,0.001
1.05,128.181881,37.928413,6998.0318256,0.028,-0.337,0.001
1.06,128.181881,37.928459,6997.9879344,0.028,-0.339,0.001
1.07,128.181881,37.928505,6997.943738400001,0.029,-0.34,0.001
1.08,128.181881,37.928551,6997.899237600001,0.029,-0.342,0.001
1.09,128.181881,37.928597,6997.8541272,0.03,-0.343,0.001
1.1,128.181881,37.928643,6997.8090168,0.03,-0.344,0.001
1.11,128.181881,37.928689,6997.763601600001,0.031,-0.346,0.001
1.12,128.181881,37.928735,6997.7181864,0.031,-0.347,0.001
1.13,128.181881,37.928781,6997.6721615999995,0.032,-0.349,0.001
1.14,128.181881,37.928827,6997.625832000001,0.033,-0.35,0.002
1.15,128.181881,37.928873,6997.5795024,0.033,-0.351,0.002
1.15,128.181881,37.928918,6997.5325632,0.034,-0.353,0.002
1.17,128.181881,37.928965,6997.485624000001,0.034,-0.354,0.002
1.18,128.181881,37.929011,6997.43838,0.035,-0.356,0.002
1.19,128.181881,37.929057,6997.3908312,0.036,-0.357,0.002
1.2,128.181881,37.929103,6997.3432824,0.036,-0.359,0.002
1.21,128.181881,37.929149,6997.295124,0.037,-0.36,0.002
1.22,128.181881,37.929195,6997.246965600001,0.038,-0.361,0.002
1.23,128.181881,37.929241,6997.1985024,0.038,-0.363,0.002
1.24,128.181881,37.929287,6997.1497344,0.039,-0.364,0.002
1.25,128.181881,37.929333,6997.1009664,0.039,-0.366,0.002
1.26,128.181881,37.929379,6997.0515888,0.04,-0.367,0.002
1.27,128.181881,37.929425,6997.002211200001,0.041,-0.368,0.002
1.28,128.181881,37.929471,6996.952833600001,0.041,-0.37,0.002
1.29,128.181881,37.929517,6996.9028464,0.042,-0.371,0.002
1.3,128.181881,37.929563,6996.8528592,0.042,-0.372,0.002
1.31,128.181881,37.92961,6996.8025672,0.043,-0.373,0.002
1.32,128.181882,37.929656,6996.751970400001,0.044,-0.375,0.001
1.33,128.181882,37.929702,6996.701373600001,0.044,-0.376,0.001
1.34,128.181882,37.929748,6996.650472,0.045,-0.377,0.001
1.35,128.181882,37.929794,6996.599265600001,0.045,-0.379,0.002
1.36,128.181882,37.92984,6996.5477544000005,0.046,-0.38,0.002
1.37,128.181882,37.929887,6996.4962432,0.047,-0.381,0.002
1.38,128.181882,37.929933,6996.4444272,0.047,-0.382,0.002
1.39,128.181882,37.929979,6996.392611200001,0.048,-0.383,0.002
1.4,128.181882,37.930025,6996.3404904,0.049,-0.385,0.002
1.41,128.181882,37.930071,6996.288064800001,0.049,-0.386,0.002
1.42,128.181882,37.930118,6996.2356392,0.05,-0.387,0.002
1.43,128.181882,37.930164,6996.1829088,0.051,-0.388,0.002
1.44,128.181882,37.93021,6996.129873600001,0.052,-0.39,0.002
1.45,128.181882,37.930257,6996.076838400001,0.052,-0.391,0.002
1.46,128.181882,37.930303,6996.0234984,0.053,-0.392,0.002
1.47,128.181882,37.930349,6995.9701584,0.054,-0.393,0.002
1.48,128.181882,37.930395,6995.9165136,0.054,-0.395,0.002
1.49,128.181882,37.930442,6995.862564,0.055,-0.396,0.002
1.5,128.181882,37.930488,6995.808614400001,0.056,-0.397,0.002
1.51,128.181882,37.930534,6995.754360000001,0.057,-0.398,0.002
1.52,128.181882,37.930581,6995.700105600001,0.057,-0.399,0.002
1.53,128.181882,37.930627,6995.645546400001,0.058,-0.401,0.002
1.54,128.181882,37.930673,6995.5909872,0.059,-0.402,0.002
1.55,128.181882,37.93072,6995.5361232000005,0.06,-0.403,0.002
1.56,128.181882,37.930766,6995.4809544,0.06,-0.404,0.002
1.57,128.181882,37.930813,6995.4257856,0.061,-0.405,0.002
1.58,128.181882,37.930859,6995.3706168,0.062,-0.406,0.002
1.59,128.181882,37.930905,6995.3151431999995,0.063,-0.407,0.002
1.6,128.181882,37.930952,6995.2593648,0.064,-0.409,0.002
1.61,128.181882,37.930998,6995.2035864,0.064,-0.41,0.002
1.62,128.181882,37.931045,6995.147808,0.065,-0.411,0.002
1.63,128.181882,37.931091,6995.0917248000005,0.066,-0.412,0.002
1.64,128.181882,37.931138,6995.035336800001,0.067,-0.413,0.002
1.65,128.181882,37.931184,6994.9789488,0.068,-0.414,0.002
1.66,128.181882,37.931231,6994.922560800001,0.068,-0.415,0.002
1.67,128.181882,37.931277,6994.865868,0.069,-0.417,0.002
1.68,128.181882,37.931324,6994.808870400001,0.07,-0.418,0.002
1.69,128.181882,37.93137,6994.7518728000005,0.071,-0.419,0.002
1.7,128.181882,37.931417,6994.6948752,0.072,-0.42,0.002
1.71,128.181882,37.931463,6994.6375728,0.073,-0.421,0.002
1.72,128.181882,37.93151,6994.580270400001,0.073,-0.422,0.002
1.73,128.181882,37.931556,6994.5226632,0.074,-0.423,0.002
1.74,128.181882,37.931603,6994.465056000001,0.075,-0.424,0.002
1.75,128.181882,37.931649,6994.4074488,0.076,-0.426,0.002
1.76,128.181882,37.931696,6994.3495368,0.077,-0.427,0.002
1.77,128.181882,37.931743,6994.291320000001,0.078,-0.428,0.002
1.78,128.181882,37.931789,6994.2331032,0.079,-0.429,0.002
1.79,128.181882,37.931836,6994.1748864,0.08,-0.43,0.002
1.8,128.181882,37.931883,6994.116364800001,0.081,-0.431,0.002
1.81,128.181882,37.931929,6994.0578432,0.081,-0.432,0.002
1.82,128.181882,37.931976,6993.9993216,0.082,-0.433,0.002
1.83,128.181882,37.932022,6993.9404952,0.083,-0.434,0.002
1.84,128.181882,37.932069,6993.881668800001,0.084,-0.435,0.003
1.85,128.181882,37.932116,6993.822537600001,0.085,-0.436,0.003
1.86,128.181882,37.932163,6993.763406400001,0.086,-0.437,0.003
1.87,128.181882,37.932209,6993.7042752,0.087,-0.439,0.003
1.88,128.181882,37.932256,6993.6448392,0.088,-0.44,0.003
1.89,128.181882,37.932303,6993.5854032,0.089,-0.441,0.003
1.9,128.181882,37.932349,6993.5259672,0.09,-0.442,0.003
1.91,128.181882,37.932396,6993.4662264,0.091,-0.443,0.003
1.92,128.181882,37.932443,6993.4064856,0.092,-0.444,0.003
1.93,128.181882,37.93249,6993.3467448,0.093,-0.445,0.003
1.94,128.181882,37.932536,6993.2866992,0.094,-0.446,0.003
1.95,128.181882,37.932583,6993.2266536,0.094,-0.448,0.002
1.96,128.181882,37.93263,6993.1663032,0.095,-0.449,0.002
1.97,128.181882,37.932677,6993.1059528,0.096,-0.45,0.002
1.98,128.181882,37.932724,6993.0456024,0.097,-0.451,0.002
1.99,128.181882,37.932771,6992.9849472000005,0.098,-0.452,0.003
2.0,128.181882,37.932817,6992.9245968000005,0.099,-0.453,0.003
2.01,128.181882,37.932864,6992.863636800001,0.1,-0.453,0.003
2.02,128.181882,37.932911,6992.802981600001,0.101,-0.454,0.003
2.03,128.181883,37.932958,6992.7420216,0.102,-0.455,0.003
2.04,128.181883,37.933005,6992.6810616,0.103,-0.456,0.003
2.04,128.181883,37.933052,6992.6201016,0.104,-0.457,0.003
2.06,128.181883,37.933099,6992.558836800001,0.105,-0.458,0.003
2.06,128.181883,37.933146,6992.497572,0.106,-0.459,0.003
2.08,128.181883,37.933192,6992.4363072,0.107,-0.46,0.003
2.09,128.181883,37.933239,6992.374737600001,0.108,-0.46,0.003
2.1,128.181883,37.933286,6992.313168000001,0.109,-0.461,0.003
2.11,128.181883,37.933333,6992.2515984,0.11,-0.462,0.003
2.12,128.181883,37.93338,6992.190028800001,0.111,-0.463,0.003
2.13,128.181883,37.933427,6992.1281544,0.112,-0.464,0.003
2.14,128.181883,37.933474,6992.06628,0.113,-0.465,0.003
2.15,128.181883,37.933521,6992.004405600001,0.114,-0.466,0.003
2.16,128.181883,37.933568,6991.9425312,0.115,-0.467,0.003
2.17,128.181883,37.933615,6991.880352000001,0.116,-0.468,0.003
2.18,128.181883,37.933662,6991.8181728,0.117,-0.468,0.003
2.19,128.181883,37.933709,6991.7559936,0.118,-0.469,0.003
2.2,128.181883,37.933756,6991.693509600001,0.119,-0.47,0.003
2.21,128.181883,37.933803,6991.6313304,0.12,-0.471,0.003
2.22,128.181883,37.933851,6991.5688464,0.121,-0.472,0.003
2.23,128.181883,37.933898,6991.5060576,0.122,-0.473,0.003
2.24,128.181883,37.933945,6991.4435736000005,0.123,-0.474,0.003
2.25,128.181883,37.933992,6991.3807848,0.124,-0.475,0.003
2.26,128.181883,37.934039,6991.317996000001,0.125,-0.475,0.003
2.27,128.181883,37.934086,6991.2552072,0.126,-0.476,0.003
2.28,128.181883,37.934133,6991.1924184,0.127,-0.477,0.003
2.29,128.181883,37.93418,6991.129324800001,0.128,-0.478,0.003
2.3,128.181883,37.934227,6991.0662312,0.129,-0.479,0.003
2.31,128.181883,37.934275,6991.003137600001,0.13,-0.48,0.003
2.31,128.181883,37.934322,6990.940044,0.131,-0.481,0.003
2.33,128.181883,37.934369,6990.8769504,0.132,-0.482,0.003
2.34,128.181883,37.934416,6990.8135520000005,0.133,-0.482,0.003
2.35,128.181883,37.934463,6990.7501536,0.135,-0.483,0.003
2.36,128.181883,37.934511,6990.6867552,0.136,-0.484,0.003
2.37,128.181883,37.934558,6990.623356800001,0.137,-0.485,0.003
2.38,128.181883,37.934605,6990.5596536,0.138,-0.486,0.003
2.39,128.181883,37.934652,6990.495950400001,0.139,-0.487,0.003
2.4,128.181883,37.9347,6990.432552000001,0.14,-0.488,0.003
2.41,128.181883,37.934747,6990.368544,0.141,-0.489,0.003
2.42,128.181883,37.934794,6990.3048408,0.142,-0.489,0.003
2.43,128.181883,37.934842,6990.241137600001,0.144,-0.49,0.003
2.44,128.181883,37.934889,6990.1771296,0.145,-0.491,0.003
2.45,128.181883,37.934936,6990.1131216,0.146,-0.492,0.003
2.46,128.181883,37.934984,6990.0491136,0.147,-0.493,0.003
2.47,128.181883,37.935031,6989.985105600001,0.148,-0.494,0.003
2.48,128.181883,37.935078,6989.921097600001,0.149,-0.495,0.003
2.49,128.181883,37.935126,6989.8567848,0.151,-0.496,0.003
2.5,128.181883,37.935173,6989.792472,0.152,-0.497,0.003
2.51,128.181883,37.93522,6989.7281592,0.153,-0.498,0.003
2.52,128.181883,37.935268,6989.663846400001,0.154,-0.499,0.003
2.53,128.181884,37.935315,6989.5995336000005,0.155,-0.499,0.003
2.54,128.181884,37.935363,6989.5352207999995,0.157,-0.5,0.003
2.55,128.181884,37.93541,6989.4706032,0.158,-0.501,0.003
2.56,128.181884,37.935458,6989.4059856,0.159,-0.502,0.003
2.57,128.181884,37.935505,6989.341368,0.16,-0.503,0.004
2.58,128.181884,37.935552,6989.2767504,0.161,-0.504,0.004
2.59,128.181884,37.9356,6989.2121328,0.163,-0.505,0.004
2.6,128.181884,37.935647,6989.147515200001,0.164,-0.506,0.004
2.61,128.181884,37.935695,6989.0825928,0.165,-0.507,0.004
2.62,128.181884,37.935742,6989.0179751999995,0.166,-0.508,0.004
2.63,128.181884,37.93579,6988.9530528,0.168,-0.509,0.004
2.64,128.181884,37.935837,6988.8881304,0.169,-0.51,0.004
2.65,128.181884,37.935885,6988.823208,0.17,-0.511,0.004
2.66,128.181884,37.935933,6988.7579808,0.171,-0.512,0.004
2.67,128.181884,37.93598,6988.6930584,0.172,-0.513,0.003
2.68,128.181884,37.936028,6988.6278312,0.173,-0.514,0.003
2.69,128.181884,37.936075,6988.562604000001,0.174,-0.515,0.003
2.7,128.181884,37.936123,6988.4976816,0.175,-0.516,0.003
2.71,128.181884,37.936171,6988.4324544,0.177,-0.517,0.004
2.72,128.181884,37.936218,6988.3669224000005,0.178,-0.518,0.004
2.73,128.181884,37.936266,6988.301695200001,0.179,-0.519,0.004
2.74,128.181884,37.936313,6988.236468,0.18,-0.519,0.004
2.75,128.181884,37.936361,6988.170936,0.181,-0.52,0.004
2.76,128.181884,37.936409,6988.105404,0.182,-0.521,0.004
2.77,128.181884,37.936456,6988.039872,0.184,-0.522,0.004
2.78,128.181884,37.936504,6987.97434,0.185,-0.523,0.004
2.79,128.181884,37.936552,6987.908808,0.186,-0.525,0.004
2.8,128.181884,37.9366,6987.843276,0.187,-0.526,0.004
2.81,128.181884,37.936647,6987.7780488,0.184,-0.527,0.003
2.82,128.181884,37.936695,6987.7128216,0.175,-0.529,0.001
2.83,128.181884,37.936743,6987.6475944,0.162,-0.532,359.998
2.84,128.181884,37.936791,6987.5826720000005,0.144,-0.535,359.996
2.85,128.181884,37.936838,6987.5174448,0.123,-0.537,359.993
2.86,128.181884,37.936886,6987.4525224,0.1,-0.54,359.991
2.87,128.181884,37.936934,6987.3872952,0.075,-0.542,359.989
2.88,128.181884,37.936982,6987.322068,0.05,-0.544,359.988
2.89,128.181884,37.93703,6987.256840800001,0.026,-0.546,359.987
2.9,128.181884,37.937077,6987.1913088,0.003,-0.547,359.986
2.91,128.181884,37.937125,6987.1260816,-0.017,-0.548,359.985
2.92,128.181884,37.937173,6987.0605496,-0.038,-0.549,359.984
2.93,128.181885,37.937221,6986.9947128,-0.057,-0.55,359.984
2.94,128.181885,37.937269,6986.9291808,-0.074,-0.55,359.983
2.95,128.181885,37.937317,6986.863344,-0.09,-0.551,359.983
2.96,128.181885,37.937365,6986.797812,-0.105,-0.551,359.982
2.97,128.181885,37.937413,6986.731975199999,-0.118,-0.552,359.982
2.98,128.181885,37.93746,6986.665833600001,-0.131,-0.552,359.981
2.99,128.181885,37.937508,6986.599996800001,-0.142,-0.553,359.981
3.0,128.181885,37.937556,6986.5338552,-0.153,-0.554,359.98
3.01,128.181885,37.937604,6986.468018400001,-0.164,-0.554,359.98
3.02,128.181885,37.937652,6986.4018768000005,-0.173,-0.555,359.979
3.03,128.181885,37.9377,6986.3357352,-0.182,-0.556,359.979
3.04,128.181885,37.937748,6986.2692888,-0.191,-0.557,359.979
3.05,128.181885,37.937796,6986.203147200001,-0.199,-0.558,359.978
3.06,128.181885,37.937844,6986.136700800001,-0.206,-0.559,359.978
3.07,128.181885,37.937892,6986.0705592,-0.213,-0.56,359.977
3.08,128.181885,37.93794,6986.0041128,-0.22,-0.561,359.977
3.09,128.181885,37.937988,6985.9376664,-0.227,-0.562,359.977
3.1,128.181885,37.938036,6985.871220000001,-0.233,-0.564,359.976
3.11,128.181885,37.938085,6985.804773600001,-0.239,-0.565,359.976
3.12,128.181885,37.938133,6985.7380224,-0.245,-0.566,359.976
3.13,128.181885,37.938181,6985.671576,-0.25,-0.567,359.975
3.14,128.181885,37.938229,6985.604824800001,-0.256,-0.568,359.975
3.15,128.181885,37.938277,6985.538073600001,-0.261,-0.57,359.975
3.16,128.181885,37.938325,6985.471322400001,-0.266,-0.571,359.974
3.17,128.181885,37.938373,6985.4045712,-0.271,-0.572,359.974
3.18,128.181885,37.938421,6985.337820000001,-0.275,-0.573,359.974
3.19,128.181885,37.93847,6985.270764000001,-0.28,-0.574,359.973
3.2,128.181885,37.938518,6985.2040128,-0.284,-0.576,359.973
3.21,128.181885,37.938566,6985.136956800001,-0.289,-0.577,359.973
3.22,128.181885,37.938614,6985.070205600001,-0.293,-0.578,359.972
3.23,128.181885,37.938662,6985.0031496,-0.297,-0.58,359.972
3.24,128.181885,37.938711,6984.9360936,-0.302,-0.581,359.972
3.25,128.181885,37.938759,6984.8687328000005,-0.306,-0.582,359.972
3.26,128.181885,37.938807,6984.801676800001,-0.31,-0.583,359.971
3.27,128.181885,37.938855,6984.7346208,-0.314,-0.585,359.971
3.28,128.181885,37.938904,6984.66726,-0.318,-0.586,359.971
3.29,128.181885,37.938952,6984.5998992,-0.322,-0.588,359.97
3.3,128.181885,37.939,6984.5328432,-0.325,-0.589,359.97
3.31,128.181885,37.939048,6984.465482400001,-0.329,-0.59,359.97
3.32,128.181885,37.939097,6984.3978168,-0.333,-0.592,359.969
3.33,128.181885,37.939145,6984.330456000001,-0.337,-0.593,359.969
3.34,128.181886,37.939193,6984.2630952,-0.341,-0.595,359.969
3.35,128.181886,37.939242,6984.195429599999,-0.345,-0.596,359.968
3.36,128.181886,37.93929,6984.127764000001,-0.349,-0.598,359.968
3.37,128.181886,37.939339,6984.0604032,-0.353,-0.599,359.968
3.38,128.181886,37.939387,6983.9927376000005,-0.357,-0.601,359.968
3.39,128.181886,37.939435,6983.9247672,-0.361,-0.602,359.967
3.4,128.181886,37.939484,6983.8571016000005,-0.365,-0.604,359.967
3.41,128.181886,37.939532,6983.789436,-0.369,-0.605,359.967
3.42,128.181886,37.939581,6983.721465600001,-0.373,-0.607,359.966
3.43,128.181886,37.939629,6983.6534952,-0.377,-0.609,359.966
3.44,128.181886,37.939677,6983.585524800001,-0.381,-0.61,359.966
3.45,128.181886,37.939726,6983.5175544,-0.385,-0.612,359.965
3.46,128.181886,37.939774,6983.449584000001,-0.39,-0.614,359.965
3.47,128.181886,37.939823,6983.381308800001,-0.394,-0.615,359.965
3.48,128.181886,37.939871,6983.313338400001,-0.398,-0.617,359.964
3.49,128.181886,37.93992,6983.2450632,-0.403,-0.619,359.964
3.5,128.181886,37.939968,6983.176788000001,-0.408,-0.621,359.964
3.51,128.181886,37.940017,6983.1085128,-0.412,-0.623,359.963
3.52,128.181886,37.940066,6983.040237600001,-0.417,-0.624,359.963
3.53,128.181886,37.940114,6982.9716576,-0.422,-0.626,359.963
3.54,128.181886,37.940163,6982.903382400001,-0.427,-0.628,359.962
3.55,128.181886,37.940211,6982.8348024,-0.432,-0.63,359.962
3.56,128.181886,37.94026,6982.7662224000005,-0.437,-0.632,359.961
3.57,128.181886,37.940308,6982.6976424,-0.442,-0.634,359.961
3.58,128.181886,37.940357,6982.6287576,-0.447,-0.636,359.961
3.59,128.181886,37.940406,6982.5601776,-0.453,-0.638,359.96
3.6,128.181886,37.940454,6982.491292800001,-0.458,-0.64,359.96
3.61,128.181886,37.940503,6982.422408,-0.464,-0.642,359.959
3.62,128.181886,37.940552,6982.3535232,-0.47,-0.644,359.959
3.63,128.181886,37.9406,6982.2843336000005,-0.475,-0.646,359.959
3.64,128.181886,37.940649,6982.2154488,-0.481,-0.648,359.958
3.65,128.181886,37.940698,6982.146259200001,-0.487,-0.65,359.958
3.66,128.181886,37.940746,6982.077069600001,-0.494,-0.652,359.957
3.67,128.181886,37.940795,6982.00788,-0.5,-0.654,359.957
3.68,128.181886,37.940844,6981.9383856,-0.506,-0.657,359.957
3.69,128.181886,37.940893,6981.868891200001,-0.513,-0.659,359.956
3.7,128.181886,37.940941,6981.799701600001,-0.52,-0.661,359.956
3.71,128.181886,37.94099,6981.729902399999,-0.527,-0.664,359.955
3.72,128.181886,37.941039,6981.660408,-0.534,-0.666,359.955
3.73,128.181886,37.941088,6981.5906088,-0.542,-0.668,359.954
3.74,128.181886,37.941136,6981.520809600001,-0.549,-0.671,359.954
3.75,128.181886,37.941185,6981.451010400001,-0.557,-0.673,359.953
3.76,128.181886,37.941234,6981.3812112000005,-0.565,-0.676,359.953
3.77,128.181886,37.941283,6981.3111072,-0.574,-0.678,359.952
3.78,128.181886,37.941332,6981.241308,-0.582,-0.681,359.952
3.79,128.181886,37.94138,6981.1708992,-0.591,-0.684,359.951
3.8,128.181886,37.941429,6981.1007952,-0.6,-0.686,359.951
3.81,128.181886,37.941478,6981.030386400001,-0.609,-0.689,359.95
3.82,128.181886,37.941527,6980.9599776000005,-0.619,-0.692,359.95
3.83,128.181886,37.941576,6980.8895688,-0.629,-0.695,359.949
3.84,128.181886,37.941625,6980.8188552,-0.639,-0.698,359.948
3.85,128.181886,37.941674,6980.748446400001,-0.649,-0.701,359.948
3.86,128.181886,37.941723,6980.677732800001,-0.66,-0.704,359.947
3.87,128.181886,37.941772,6980.606714400001,-0.671,-0.707,359.947
3.88,128.181886,37.941821,6980.535696000001,-0.683,-0.71,359.946
3.89,128.181886,37.94187,6980.464677600001,-0.694,-0.713,359.945
3.9,128.181886,37.941919,6980.3936592,-0.707,-0.716,359.945
3.91,128.181886,37.941968,6980.322336,-0.719,-0.719,359.944
3.92,128.181886,37.942017,6980.2510128,-0.732,-0.722,359.943
3.93,128.181886,37.942066,6980.1796896,-0.746,-0.726,359.943
3.94,128.181886,37.942115,6980.1080616,-0.759,-0.729,359.942
3.95,128.181886,37.942164,6980.036433600001,-0.774,-0.733,359.941
3.96,128.181886,37.942213,6979.964805600001,-0.789,-0.736,359.941
3.97,128.181886,37.942262,6979.8928728,-0.804,-0.74,359.94
3.98,128.181886,37.942311,6979.8209400000005,-0.82,-0.744,359.939
3.99,128.181886,37.94236,6979.7487024,-0.837,-0.747,359.938
4.0,128.181886,37.942409,6979.676769600001,-0.854,-0.751,359.937
4.01,128.181886,37.942458,6979.6042272,-0.872,-0.755,359.936
4.02,128.181886,37.942507,6979.5319896,-0.891,-0.759,359.936
4.03,128.181886,37.942556,6979.459447200001,-0.91,-0.763,359.935
4.04,128.181886,37.942605,6979.386600000001,-0.93,-0.767,359.934
4.05,128.181886,37.942655,6979.3140576,-0.95,-0.772,359.933
4.06,128.181886,37.942704,6979.240905600001,-0.972,-0.776,359.932
4.07,128.181886,37.942753,6979.1680584000005,-0.995,-0.78,359.931
4.08,128.181886,37.942802,6979.094906400001,-1.018,-0.785,359.93
4.09,128.181886,37.942851,6979.0214496,-1.043,-0.789,359.929
4.09,128.181886,37.9429,6978.948297600001,-1.068,-0.794,359.928
4.11,128.181886,37.94295,6978.874536,-1.095,-0.799,359.927
4.12,128.181886,37.942999,6978.8010792000005,-1.123,-0.804,359.926
4.13,128.181886,37.943048,6978.7270128,-1.152,-0.809,359.925
4.13,128.181886,37.943097,6978.6532512,-1.183,-0.814,359.923
4.15,128.181886,37.943147,6978.5791848,-1.216,-0.82,359.922
4.16,128.181886,37.943196,6978.5051184,-1.25,-0.825,359.921
4.17,128.181886,37.943245,6978.430747200001,-1.285,-0.831,359.92
4.18,128.181886,37.943294,6978.3560712,-1.323,-0.837,359.918
4.19,128.181886,37.943344,6978.281395200001,-1.362,-0.842,359.917
4.2,128.181886,37.943393,6978.2067192,-1.403,-0.848,359.915
4.21,128.181886,37.943442,6978.1320432,-1.447,-0.855,359.914
4.22,128.181886,37.943492,6978.0567576,-1.493,-0.861,359.912
4.23,128.181886,37.943541,6977.9817768,-1.542,-0.867,359.911
4.24,128.181886,37.94359,6977.9064912,-1.593,-0.874,359.909
4.25,128.181886,37.94364,6977.830900800001,-1.648,-0.881,359.907
4.26,128.181886,37.943689,6977.755615200001,-1.706,-0.888,359.906
4.27,128.181886,37.943738,6977.679720000001,-1.768,-0.895,359.904
4.28,128.181886,37.943788,6977.604129599999,-1.834,-0.903,359.902
4.29,128.181886,37.943837,6977.5282344,-1.905,-0.911,359.899
4.3,128.181886,37.943887,6977.4523392,-1.981,-0.919,359.897
4.31,128.181886,37.943936,6977.3761392,-2.062,-0.927,359.895
4.32,128.181886,37.943985,6977.300244,-2.15,-0.936,359.892
4.33,128.181886,37.944035,6977.224044,-2.243,-0.944,359.89
4.34,128.181886,37.944084,6977.147844,-2.344,-0.953,359.887
4.35,128.181886,37.944134,6977.0713392,-2.452,-0.963,359.884
4.36,128.181886,37.944183,6976.9951392,-2.57,-0.972,359.881
4.37,128.181885,37.944233,6976.9189392,-2.698,-0.982,359.878
4.38,128.181885,37.944282,6976.843044,-2.838,-0.993,359.874
4.38,128.181885,37.944332,6976.766844,-2.991,-1.003,359.87
4.4,128.181885,37.944381,6976.6912536,-3.16,-1.015,359.866
4.41,128.181885,37.944431,6976.6156632,-3.347,-1.026,359.861
4.42,128.181885,37.94448,6976.5406824,-3.554,-1.038,359.856
4.43,128.181885,37.94453,6976.465701600001,-3.785,-1.051,359.851
4.44,128.181885,37.94458,6976.3916352,-4.043,-1.063,359.844
4.45,128.181885,37.944629,6976.318178400001,-4.333,-1.077,359.837
4.46,128.181885,37.944679,6976.2459408,-4.662,-1.091,359.829
4.47,128.181885,37.944728,6976.1743128,-5.034,-1.105,359.82
4.48,128.181885,37.944778,6976.1042088,-5.455,-1.119,359.811
4.49,128.181885,37.944827,6976.035324,-5.929,-1.135,359.8
4.5,128.181885,37.944877,6975.9661344,-6.34,-1.15,359.797
4.51,128.181885,37.944927,6975.8969448,-6.683,-1.164,359.802
4.52,128.181885,37.944976,6975.8274504,-6.961,-1.178,359.812
4.53,128.181885,37.945026,6975.757041600001,-7.18,-1.192,359.822
4.54,128.181884,37.945076,6975.6851088,-7.345,-1.205,359.831
4.55,128.181884,37.945125,6975.611956800001,-7.463,-1.219,359.836
4.56,128.181884,37.945175,6975.5366712,-7.541,-1.233,359.839
4.57,128.181884,37.945225,6975.4604712,-7.585,-1.247,359.839
4.58,128.181884,37.945274,6975.3824424,-7.6,-1.261,359.838
4.59,128.181884,37.945324,6975.3031944,-7.588,-1.274,359.837
4.6,128.181884,37.945374,6975.2221176,-7.548,-1.288,359.835
4.61,128.181884,37.945423,6975.139212,-7.48,-1.302,359.834
4.62,128.181884,37.945473,6975.054477600001,-7.379,-1.316,359.833
4.63,128.181884,37.945523,6974.9676096,-7.24,-1.33,359.832
4.63,128.181884,37.945573,6974.8783032,-7.054,-1.344,359.833
4.65,128.181883,37.945622,6974.785644,-6.809,-1.358,359.835
4.66,128.181883,37.945672,6974.6905464,-6.501,-1.373,359.839
4.67,128.181883,37.945722,6974.5924008,-6.127,-1.388,359.843
4.68,128.181883,37.945772,6974.4909024,-5.68,-1.403,359.848
4.69,128.181883,37.945822,6974.3857464,-5.15,-1.419,359.853
4.7,128.181883,37.945872,6974.2787616,-4.63,-1.437,359.852
4.71,128.181883,37.945922,6974.169338400001,-4.117,-1.454,359.844
4.72,128.181883,37.945971,6974.0580864,-3.734,-1.473,359.822
4.73,128.181883,37.946021,6973.945615200001,-3.48,-1.493,359.79
4.74,128.181883,37.946071,6973.831924800001,-3.358,-1.513,359.752
4.75,128.181882,37.946121,6973.7176248000005,-3.365,-1.533,359.716
4.76,128.181882,37.946171,6973.603324800001,-3.482,-1.552,359.687
4.77,128.181882,37.946221,6973.4893296,-3.698,-1.553,359.661
4.78,128.181882,37.946271,6973.3765536,-4.013,-1.52,359.635
4.79,128.181882,37.946321,6973.265911200001,-4.433,-1.437,359.605
4.8,128.181882,37.946371,6973.158012,-4.961,-1.289,359.568
4.81,128.181882,37.946421,6973.05438,-5.592,-1.063,359.522
4.82,128.181882,37.946471,6972.955624800001,-6.322,-0.75,359.464
4.83,128.181881,37.946521,6972.8635752,-7.147,-0.343,359.393
4.84,128.181881,37.946571,6972.7779264,-8.061,0.142,359.306
4.85,128.181881,37.946621,6972.700812,-9.06,0.689,359.204
4.86,128.181881,37.946671,6972.6313176,-10.139,1.281,359.087
4.87,128.181881,37.946721,6972.5709672,-11.293,1.893,358.957
4.88,128.18188,37.946771,6972.5203704000005,-12.519,2.504,358.816
4.88,128.18188,37.94682,6972.4795272,-13.813,3.091,358.668
4.9,128.18188,37.94687,6972.449047200001,-15.17,3.634,358.518
4.91,128.181879,37.94692,6972.428016,-16.47,4.114,358.38
4.92,128.181879,37.94697,6972.4170432,-17.637,4.535,358.261
4.93,128.181879,37.94702,6972.4161288000005,-18.644,4.909,358.156
4.94,128.181878,37.94707,6972.4255776,-19.489,5.248,358.06
4.95,128.181878,37.94712,6972.44478,-20.185,5.558,357.966
4.96,128.181877,37.94717,6972.474040800001,-20.751,5.845,357.872
4.97,128.181876,37.94722,6972.5127504,-21.206,6.113,357.777
4.98,128.181876,37.94727,6972.5612136,-21.574,6.364,357.68
4.99,128.181875,37.94732,6972.6191256,-21.867,6.602,357.582
5.0,128.181874,37.94737,6972.6858768,-22.1,6.827,357.484
5.01,128.181873,37.94742,6972.7614672,-22.295,7.044,357.393
5.02,128.181872,37.94747,6972.846506400001,-22.459,7.253,357.308
5.03,128.181872,37.94752,6972.9409944,-22.596,7.455,357.229
5.04,128.181871,37.94757,6973.045540800001,-22.709,7.649,357.152
5.05,128.181869,37.94762,6973.159536,-22.799,7.835,357.078
5.06,128.181868,37.94767,6973.2841992,-22.871,8.015,357.005
5.07,128.181867,37.94772,6973.418616,-22.927,8.188,356.933
5.08,128.181866,37.94777,6973.5637008,-22.969,8.356,356.863
5.09,128.181865,37.94782,6973.7191488,-23.002,8.518,356.794
5.1,128.181863,37.94787,6973.88496,-23.021,8.676,356.726
5.11,128.181862,37.94792,6974.0611344,-23.031,8.83,356.659
5.12,128.18186,37.947969,6974.2482816,-23.032,8.98,356.594
5.13,128.181859,37.948019,6974.445792,-23.027,9.127,356.53
5.14,128.181857,37.948069,6974.65458,-23.018,9.27,356.467
5.15,128.181856,37.948119,6974.8734264,-23.001,9.41,356.405
5.16,128.181854,37.948169,6975.1035504,-22.978,9.548,356.345
5.17,128.181852,37.948219,6975.344342400001,-22.951,9.683,356.285
5.18,128.18185,37.948269,6975.5961072,-22.922,9.816,356.226
5.19,128.181848,37.948319,6975.8588448,-22.891,9.947,356.168
5.2,128.181847,37.948368,6976.132860000001,-22.859,10.076,356.11
5.21,128.181845,37.948418,6976.4175432,-22.828,10.203,356.052
5.22,128.181842,37.948468,6976.713504,-22.798,10.329,355.995
5.23,128.18184,37.948518,6977.020742400001,-22.769,10.454,355.939
5.24,128.181838,37.948568,6977.3386488,-22.74,10.578,355.882
5.25,128.181836,37.948617,6977.667832800001,-22.711,10.7,355.827
5.26,128.181834,37.948667,6978.0079896,-22.68,10.823,355.772
5.27,128.181831,37.948717,6978.3591192,-22.647,10.944,355.718
5.28,128.181829,37.948767,6978.7212216,-22.614,11.065,355.664
5.29,128.181826,37.948816,6979.094601600001,-22.582,11.185,355.61
5.3,128.181824,37.948866,6979.4789544000005,-22.547,11.305,355.556
5.31,128.181821,37.948916,6979.87428,-22.512,11.425,355.503
5.32,128.181818,37.948965,6980.280883200001,-22.477,11.544,355.45
5.33,128.181816,37.949015,6980.698459200001,-22.443,11.662,355.397
5.34,128.181813,37.949065,6981.1273128,-22.409,11.781,355.344
5.35,128.18181,37.949114,6981.5671392,-22.378,11.899,355.291
5.36,128.181807,37.949164,6982.017938400001,-22.347,12.017,355.238
5.37,128.181804,37.949213,6982.480015200001,-22.315,12.134,355.185
5.38,128.181801,37.949263,6982.953064800001,-22.283,12.252,355.133
5.39,128.181798,37.949313,6983.437087200001,-22.25,12.369,355.081
5.4,128.181795,37.949362,6983.9323872,-22.219,12.487,355.029
5.41,128.181792,37.949412,6984.438660000001,-22.188,12.604,354.977
5.42,128.181788,37.949461,6984.955905600001,-22.158,12.721,354.925
5.43,128.181785,37.949511,6985.4844288,-22.129,12.838,354.873
5.44,128.181782,37.94956,6986.023924800001,-22.1,12.954,354.822
5.45,128.181778,37.94961,6986.5746984,-22.073,13.071,354.77
5.46,128.181775,37.949659,6987.1361400000005,-22.047,13.188,354.718
5.47,128.181771,37.949708,6987.7088592,-22.021,13.304,354.666
5.48,128.181767,37.949758,6988.292551200001,-21.996,13.421,354.615
5.49,128.181764,37.949807,6988.887216,-21.971,13.538,354.563
5.5,128.18176,37.949856,6989.4931584000005,-21.946,13.654,354.512
5.51,128.181756,37.949906,6990.109768800001,-21.922,13.771,354.46
5.52,128.181752,37.949955,6990.737656800001,-21.898,13.887,354.409
5.53,128.181748,37.950004,6991.376517600001,-21.875,14.004,354.358
5.54,128.181744,37.950054,6992.026351200001,-21.853,14.12,354.306
5.55,128.18174,37.950103,6992.6874624,-21.832,14.236,354.255
5.56,128.181736,37.950152,6993.3592416,-21.811,14.353,354.204
5.57,128.181732,37.950201,6994.0419936,-21.791,14.469,354.153
5.58,128.181728,37.95025,6994.7357184,-21.771,14.585,354.101
5.59,128.181724,37.9503,6995.4407208,-21.752,14.702,354.05
5.6,128.181719,37.950349,6996.1563912,-21.732,14.818,353.999
5.61,128.181715,37.950398,6996.8830344,-21.713,14.934,353.948
5.62,128.181711,37.950447,6997.6206504,-21.695,15.05,353.897
5.63,128.181706,37.950496,6998.3692392,-21.677,15.167,353.846
5.64,128.181702,37.950545,6999.128496,-21.66,15.283,353.795
5.65,128.181697,37.950594,6999.8990304,-21.643,15.399,353.744
5.66,128.181692,37.950643,7000.6802328,-21.626,15.515,353.693
5.67,128.181688,37.950692,7001.4724080000005,-21.609,15.631,353.642
5.68,128.181683,37.950741,7002.2755560000005,-21.593,15.747,353.591
5.69,128.181678,37.95079,7003.089372,-21.577,15.863,353.54
5.7,128.181673,37.950838,7003.914160800001,-21.561,15.979,353.489
5.71,128.181668,37.950887,7004.7499224,-21.547,16.095,353.438
5.72,128.181663,37.950936,7005.5963520000005,-21.532,16.211,353.387
5.73,128.181658,37.950985,7006.4537544,-21.517,16.327,353.336
5.74,128.181653,37.951034,7007.3221296,-21.503,16.443,353.285
5.75,128.181648,37.951082,7008.200868,-21.488,16.559,353.234
5.76,128.181643,37.951131,7009.090884000001,-21.474,16.675,353.184
5.77,128.181638,37.95118,7009.991568,-21.461,16.791,353.133
5.78,128.181633,37.951228,7010.90292,-21.448,16.906,353.082
5.79,128.181627,37.951277,7011.82494,-21.435,17.022,353.031
5.8,128.181622,37.951326,7012.7579328,-21.423,17.138,352.98
5.81,128.181616,37.951374,7013.7015936,-21.411,17.254,352.929
5.82,128.181611,37.951423,7014.6562272,-21.4,17.369,352.878
5.83,128.181605,37.951471,7015.6215288,-21.389,17.485,352.827
5.84,128.1816,37.95152,7016.5974984,-21.379,17.6,352.776
5.85,128.181594,37.951568,7017.584136,-21.37,17.716,352.725
5.86,128.181588,37.951617,7018.5814416,-21.36,17.831,352.674
5.87,128.181582,37.951665,7019.589720000001,-21.351,17.947,352.623
5.88,128.181577,37.951713,7020.6083616,-21.342,18.062,352.572
5.89,128.181571,37.951762,7021.637976,-21.334,18.178,352.521
5.9,128.181565,37.95181,7022.6779536,-21.327,18.293,352.47
5.91,128.181559,37.951858,7023.7289040000005,-21.32,18.409,352.419
5.92,128.181553,37.951906,7024.7902176,-21.313,18.524,352.368
5.93,128.181547,37.951955,7025.8621992,-21.306,18.639,352.317
5.94,128.181541,37.952003,7026.9448488,-21.299,18.754,352.265
5.95,128.181534,37.952051,7028.0381664,-21.293,18.87,352.214
5.96,128.181528,37.952099,7029.1418472000005,-21.287,18.985,352.163
5.97,128.181522,37.952147,7030.256196,-21.282,19.1,352.112
5.98,128.181515,37.952195,7031.3812128,-21.277,19.215,352.061
5.99,128.181509,37.952243,7032.5168976,-21.272,19.33,352.01
6.0,128.181503,37.952291,7033.6629456,-21.267,19.445,351.958
6.01,128.181496,37.952339,7034.819356800001,-21.263,19.56,351.907
6.02,128.18149,37.952387,7035.986436,-21.259,19.675,351.856
6.03,128.181483,37.952435,7037.1641832000005,-21.256,19.79,351.804
6.04,128.181476,37.952483,7038.3522936,-21.253,19.904,351.753
6.05,128.18147,37.95253,7039.5507672,-21.25,20.019,351.702
6.06,128.181463,37.952578,7040.759908800001,-21.248,20.134,351.65
6.07,128.181456,37.952626,7041.9794136,-21.245,20.249,351.599
6.08,128.181449,37.952674,7043.2092816,-21.244,20.363,351.547
6.09,128.181442,37.952721,7044.4495128,-21.243,20.478,351.496
6.1,128.181435,37.952769,7045.700412,-21.242,20.592,351.444
6.11,128.181428,37.952816,7046.9616744,-21.241,20.707,351.392
6.12,128.181421,37.952864,7048.2329952,-21.24,20.821,351.341
6.13,128.181414,37.952911,7049.514984000001,-21.24,20.936,351.289
6.14,128.181407,37.952959,7050.807336,-21.241,21.05,351.237
6.15,128.1814,37.953006,7052.1097464,-21.241,21.164,351.186
6.16,128.181393,37.953054,7053.422520000001,-21.242,21.279,351.134
6.17,128.181385,37.953101,7054.7459616,-21.243,21.393,351.082
6.18,128.181378,37.953148,7056.0794616,-21.245,21.507,351.03
6.19,128.181371,37.953196,7057.423324800001,-21.247,21.621,350.978
6.2,128.181363,37.953243,7058.777246400001,-21.249,21.735,350.926
6.21,128.181356,37.95329,7060.1415312,-21.251,21.849,350.874
6.22,128.181348,37.953337,7061.516179200001,-21.254,21.963,350.822
6.23,128.181341,37.953384,7062.9008856,-21.257,22.077,350.77
6.24,128.181333,37.953431,7064.2956504,-21.26,22.191,350.718
6.25,128.181325,37.953478,7065.7010832000005,-21.264,22.305,350.666
6.26,128.181317,37.953525,7067.116269600001,-21.268,22.418,350.613
6.27,128.18131,37.953572,7068.541819200001,-21.272,22.532,350.561
6.28,128.181302,37.953619,7069.9774272,-21.276,22.646,350.509
6.29,128.181294,37.953666,7071.4230936,-21.281,22.759,350.456
6.3,128.181286,37.953713,7072.8791232,-21.286,22.873,350.404
6.31,128.181278,37.95376,7074.344906400001,-21.291,22.986,350.351
6.32,128.18127,37.953807,7075.8210528,-21.296,23.1,350.299
6.33,128.181262,37.953853,7077.3072576,-21.302,23.213,350.246
6.34,128.181254,37.9539,7078.803216,-21.308,23.326,350.193
6.35,128.181246,37.953947,7080.309537600001,-21.314,23.44,350.141
6.36,128.181237,37.953993,7081.8259176,-21.321,23.553,350.088
6.37,128.181229,37.95404,7083.3520512000005,-21.328,23.666,350.035
6.38,128.181221,37.954086,7084.8882432,-21.335,23.779,349.982
6.39,128.181213,37.954133,7086.4344936,-21.343,23.892,349.929
6.4,128.181204,37.954179,7087.990497600001,-21.351,24.005,349.876
6.41,128.181196,37.954225,7089.556560000001,-21.359,24.118,349.823
6.42,128.181187,37.954272,7091.1326808,-21.367,24.23,349.77
6.43,128.181179,37.954318,7092.7185552,-21.375,24.343,349.717
6.44,128.18117,37.954364,7094.314488000001,-21.384,24.456,349.663
6.45,128.181161,37.95441,7095.920174400001,-21.393,24.568,349.61
6.46,128.181153,37.954457,7097.535614400001,-21.403,24.681,349.557
6.47,128.181144,37.954503,7099.1608080000005,-21.412,24.794,349.503
6.48,128.181135,37.954549,7100.796060000001,-21.422,24.906,349.45
6.49,128.181127,37.954595,7102.441065600001,-21.432,25.018,349.396
6.5,128.181118,37.954641,7104.095824800001,-21.443,25.131,349.342
6.51,128.181109,37.954687,7105.760337600001,-21.454,25.243,349.288
6.52,128.1811,37.954733,7107.434604,-21.465,25.355,349.235
6.53,128.181091,37.954778,7109.118624000001,-21.476,25.467,349.181
6.54,128.181082,37.954824,7110.812397600001,-21.487,25.579,349.127
6.55,128.181073,37.95487,7112.515924800001,-21.499,25.691,349.073
6.56,128.181064,37.954916,7114.229205600001,-21.512,25.803,349.019
6.57,128.181054,37.954961,7115.9519352,-21.524,25.915,348.964
6.58,128.181045,37.955007,7117.6844184,-21.537,26.027,348.91
6.59,128.181036,37.955052,7119.4263504,-21.55,26.138,348.856
6.6,128.181027,37.955098,7121.178036,-21.563,26.25,348.801
6.61,128.181017,37.955143,7122.9394752,-21.577,26.362,348.747
6.62,128.181008,37.955189,7124.7103632,-21.59,26.473,348.692
6.63,128.180998,37.955234,7126.4907,-21.604,26.585,348.638
6.64,128.180989,37.955279,7128.2804856,-21.619,26.696,348.583
6.65,128.180979,37.955325,7130.0800248000005,-21.633,26.807,348.528
6.66,128.18097,37.95537,7131.8890128,-21.648,26.918,348.473
6.67,128.18096,37.955415,7133.7074496000005,-21.663,27.03,348.418
6.68,128.180951,37.95546,7135.5353352,-21.678,27.141,348.363
6.69,128.180941,37.955505,7137.372974400001,-21.694,27.252,348.308
6.7,128.180931,37.95555,7139.2197576,-21.709,27.363,348.253
6.71,128.180921,37.955595,7141.0759896,-21.725,27.474,348.197
6.72,128.180912,37.95564,7142.941365600001,-21.741,27.584,348.142
6.73,128.180902,37.955685,7144.816495200001,-21.758,27.695,348.087
6.74,128.180892,37.95573,7146.7007688,-21.774,27.806,348.031
6.75,128.180882,37.955775,7148.5944912,-21.791,27.916,347.975
6.76,128.180872,37.955819,7150.4973576,-21.808,28.027,347.92
6.77,128.180862,37.955864,7152.4096728,-21.826,28.137,347.864
6.78,128.180852,37.955909,7154.3314368,-21.843,28.248,347.808
6.79,128.180842,37.955953,7156.2623448,-21.861,28.358,347.752
6.8,128.180831,37.955998,7158.2023968,-21.88,28.468,347.696
6.81,128.180821,37.956042,7160.151592800001,-21.898,28.578,347.64
6.82,128.180811,37.956087,7162.110237600001,-21.917,28.688,347.583
6.83,128.180801,37.956131,7164.0777216,-21.936,28.798,347.527
6.84,128.18079,37.956175,7166.0546544,-21.955,28.908,347.47
6.85,128.18078,37.956219,7168.040731200001,-21.975,29.018,347.414
6.86,128.18077,37.956264,7170.035647200001,-21.994,29.128,347.357
6.87,128.180759,37.956308,7172.040012,-22.014,29.237,347.3
6.88,128.180749,37.956352,7174.053216,-22.034,29.347,347.243
6.89,128.180738,37.956396,7176.0758688000005,-22.055,29.457,347.187
6.9,128.180727,37.95644,7178.107056000001,-22.075,29.566,347.129
6.91,128.180717,37.956484,7180.1476920000005,-22.096,29.675,347.072
6.92,128.180706,37.956528,7182.1971672,-22.117,29.785,347.015
6.93,128.180695,37.956572,7184.2554816,-22.139,29.894,346.958
6.94,128.180685,37.956615,7186.32294,-22.16,30.003,346.9
6.95,128.180674,37.956659,7188.399237600001,-22.182,30.112,346.843
6.96,128.180663,37.956703,7190.484679200001,-22.204,30.221,346.785
6.97,128.180652,37.956746,7192.578960000001,-22.226,30.33,346.727
6.98,128.180641,37.95679,7194.68208,-22.248,30.439,346.669
6.99,128.18063,37.956833,7196.7940392,-22.271,30.548,346.611
7.0,128.180619,37.956877,7198.9148376,-22.294,30.656,346.553
7.01,128.180608,37.95692,7201.0444752,-22.317,30.765,346.495
7.02,128.180597,37.956964,7203.182952000001,-22.34,30.873,346.437
7.03,128.180586,37.957007,7205.330268000001,-22.363,30.982,346.378
7.04,128.180575,37.95705,7207.4861184,-22.387,31.09,346.32
7.05,128.180564,37.957093,7209.6511128,-22.411,31.198,346.261
7.06,128.180553,37.957136,7211.8243368,-22.435,31.306,346.202
7.07,128.180541,37.95718,7214.0067048,-22.459,31.414,346.144
7.08,128.18053,37.957223,7216.1976072,-22.484,31.522,346.085
7.09,128.180519,37.957265,7218.397044,-22.509,31.63,346.026
7.1,128.180507,37.957308,7220.605320000001,-22.534,31.738,345.966
7.11,128.180496,37.957351,7222.8221304,-22.559,31.846,345.907
7.12,128.180484,37.957394,7225.0474752,-22.585,31.953,345.848
7.13,128.180473,37.957437,7227.281659200001,-22.611,32.061,345.788
7.14,128.180461,37.957479,7229.524072800001,-22.637,32.168,345.728
7.15,128.18045,37.957522,7231.7753256,-22.663,32.276,345.669
7.16,128.180438,37.957565,7234.0351128,-22.689,32.383,345.609
7.17,128.180426,37.957607,7236.3031296,-22.716,32.49,345.549
7.18,128.180415,37.957649,7238.5796808000005,-22.743,32.597,345.489
7.19,128.180403,37.957692,7240.8647664,-22.77,32.705,345.428
7.2,128.180391,37.957734,7243.1583864,-22.798,32.811,345.368
7.21,128.180379,37.957776,7245.460236,-22.825,32.918,345.308
7.22,128.180368,37.957819,7247.770620000001,-22.853,33.025,345.247
7.23,128.180356,37.957861,7250.089233600001,-22.881,33.132,345.186
7.24,128.180344,37.957903,7252.4163816,-22.909,33.238,345.125
7.25,128.180332,37.957945,7254.7517592,-22.938,33.345,345.064
7.26,128.18032,37.957987,7257.0956712,-22.967,33.451,345.003
7.27,128.180308,37.958029,7259.447508,-22.996,33.558,344.942
7.28,128.180296,37.958071,7261.807879200001,-23.025,33.664,344.881
7.29,128.180284,37.958112,7264.17648,-23.054,33.77,344.819
7.3,128.180271,37.958154,7266.553005600001,-23.084,33.876,344.758
7.31,128.180259,37.958196,7268.938065600001,-23.114,33.982,344.696
7.32,128.180247,37.958237,7271.3310504,-23.144,34.088,344.634
7.33,128.180235,37.958279,7273.732569600001,-23.175,34.194,344.572
7.34,128.180222,37.95832,7276.142013600001,-23.205,34.299,344.51
7.35,128.18021,37.958362,7278.559382400001,-23.236,34.405,344.448
7.36,128.180198,37.958403,7280.9852856,-23.267,34.511,344.385
7.37,128.180185,37.958444,7283.4188088,-23.299,34.616,344.323
7.38,128.180173,37.958486,7285.8608664,-23.33,34.721,344.26
7.39,128.18016,37.958527,7288.310544,-23.362,34.827,344.197
7.4,128.180148,37.958568,7290.7684512000005,-23.394,34.932,344.134
7.41,128.180135,37.958609,7293.2342832,-23.426,35.037,344.071
7.42,128.180123,37.95865,7295.70804,-23.459,35.142,344.008
7.43,128.18011,37.958691,7298.1897216,-23.491,35.247,343.944
7.44,128.180097,37.958732,7300.679328,-23.524,35.351,343.881
7.45,128.180085,37.958773,7303.177164000001,-23.557,35.456,343.817
7.46,128.180072,37.958813,7305.6826200000005,-23.591,35.561,343.753
7.47,128.180059,37.958854,7308.196000800001,-23.624,35.665,343.689
7.48,128.180046,37.958895,7310.717001600001,-23.658,35.769,343.625
7.49,128.180034,37.958935,7313.245927200001,-23.692,35.874,343.561
7.5,128.180021,37.958976,7315.7827776,-23.726,35.978,343.497
7.51,128.180008,37.959016,7318.327248,-23.761,36.082,343.432
7.52,128.179995,37.959057,7320.8796432,-23.795,36.186,343.368
7.53,128.179982,37.959097,7323.439658400001,-23.83,36.29,343.303
7.54,128.179969,37.959137,7326.0072936,-23.865,36.394,343.238
7.55,128.179956,37.959177,7328.5828536,-23.901,36.497,343.173
7.56,128.179943,37.959217,7331.1660336,-23.936,36.601,343.108
7.57,128.17993,37.959258,7333.7565288000005,-23.972,36.704,343.042
7.58,128.179916,37.959298,7336.3549488,-24.008,36.808,342.977
7.59,128.179903,37.959337,7338.9609887999995,-24.044,36.911,342.911
7.6,128.17989,37.959377,7341.574344,-24.08,37.014,342.845
7.61,128.179877,37.959417,7344.195624000001,-24.117,37.117,342.779
7.62,128.179864,37.959457,7346.824219200001,-24.154,37.22,342.713
7.63,128.17985,37.959497,7349.4604344,-24.191,37.323,342.647
7.64,128.179837,37.959536,7352.1039648000005,-24.228,37.426,342.58
7.65,128.179823,37.959576,7354.755115200001,-24.266,37.529,342.513
7.66,128.17981,37.959615,7357.4135808,-24.304,37.631,342.447
7.67,128.179797,37.959655,7360.0793616,-24.342,37.734,342.38
7.68,128.179783,37.959694,7362.7527624,-24.38,37.836,342.313
7.69,128.17977,37.959733,7365.4334784,-24.419,37.939,342.245
7.7,128.179756,37.959773,7368.1215096000005,-24.457,38.041,342.178
7.71,128.179742,37.959812,7370.816856,-24.496,38.143,342.11
7.72,128.179729,37.959851,7373.5198224000005,-24.535,38.245,342.042
7.73,128.179715,37.95989,7376.2297992,-24.574,38.347,341.975
7.74,128.179701,37.959929,7378.946786400001,-24.614,38.449,341.906
7.75,128.179688,37.959968,7381.6713936,-24.654,38.55,341.838
7.76,128.179674,37.960006,7384.403316,-24.694,38.652,341.77
7.77,128.17966,37.960045,7387.141944,-24.734,38.753,341.701
7.78,128.179646,37.960084,7389.888192,-24.775,38.855,341.632
7.79,128.179632,37.960123,7392.6414504,-24.815,38.956,341.563
7.8,128.179619,37.960161,7395.401719200001,-24.856,39.057,341.494
7.81,128.179605,37.9602,7398.1693032,-24.897,39.158,341.425
7.82,128.179591,37.960238,7400.943897600001,-24.939,39.259,341.356
7.83,128.179577,37.960276,7403.7255024,-24.98,39.36,341.286
7.84,128.179563,37.960315,7406.514117600001,-25.022,39.461,341.216
7.85,128.179549,37.960353,7409.310048,-25.064,39.561,341.146
7.86,128.179535,37.960391,7412.112684000001,-25.107,39.662,341.076
7.87,128.179521,37.960429,7414.9223304,-25.15,39.762,341.006
7.88,128.179506,37.960467,7417.7389872,-25.192,39.862,340.935
7.89,128.179492,37.960505,7420.562654400001,-25.236,39.963,340.865
7.9,128.179478,37.960543,7423.393027200001,-25.279,40.063,340.794
7.91,128.179464,37.960581,7426.2304104,-25.323,40.163,340.723
7.92,128.179449,37.960619,7429.0744992,-25.366,40.263,340.652
7.93,128.179435,37.960656,7431.9255984,-25.411,40.362,340.58
7.94,128.179421,37.960694,7434.783708,-25.455,40.462,340.509
7.95,128.179407,37.960732,7437.648218400001,-25.499,40.562,340.437
7.96,128.179392,37.960769,7440.5197392,-25.544,40.661,340.365
7.97,128.179378,37.960807,7443.397965600001,-25.589,40.76,340.293
7.98,128.179363,37.960844,7446.282897600001,-25.634,40.86,340.22
7.99,128.179349,37.960881,7449.1745352,-25.68,40.959,340.148
8.0,128.179334,37.960919,7452.0728784,-25.726,41.058,340.075
8.01,128.17932,37.960956,7454.977622400001,-25.772,41.156,340.002
8.02,128.179305,37.960993,7457.8893768,-25.818,41.255,339.929
8.02,128.179291,37.96103,7460.807532000001,-25.865,41.354,339.856
8.04,128.179276,37.961067,7463.7323928000005,-25.911,41.452,339.783
8.05,128.179261,37.961104,7466.6639592,-25.958,41.551,339.709
8.06,128.179247,37.96114,7469.601926400001,-26.006,41.649,339.635
8.07,128.179232,37.961177,7472.5462944,-26.053,41.747,339.561
8.08,128.179217,37.961214,7475.497368,-26.101,41.845,339.487
8.09,128.179202,37.96125,7478.454537600001,-26.149,41.943,339.412
8.1,128.179187,37.961287,7481.4187176000005,-26.197,42.041,339.338
8.11,128.179173,37.961323,7484.3889936,-26.246,42.139,339.263
8.12,128.179158,37.96136,7487.365670400001,-26.294,42.237,339.188
8.13,128.179143,37.961396,7490.348748,-26.343,42.334,339.113
8.14,128.179128,37.961432,7493.3382264,-26.392,42.432,339.037
8.15,128.179113,37.961469,7496.334105600001,-26.441,42.529,338.961
8.16,128.179098,37.961505,7499.3363856000005,-26.491,42.626,338.886
8.17,128.179083,37.961541,7502.3447616,-26.54,42.723,338.81
8.18,128.179068,37.961577,7505.359538400001,-26.59,42.82,338.733
8.19,128.179053,37.961613,7508.380716,-26.641,42.917,338.657
8.19,128.179038,37.961649,7511.4079896,-26.691,43.014,338.58
8.21,128.179023,37.961684,7514.4413592,-26.742,43.11,338.503
8.22,128.179007,37.96172,7517.480824800001,-26.792,43.207,338.426
8.23,128.178992,37.961756,7520.526691200001,-26.844,43.303,338.349
8.24,128.178977,37.961791,7523.5786536000005,-26.895,43.399,338.271
8.25,128.178962,37.961827,7526.6367119999995,-26.946,43.495,338.194
8.26,128.178947,37.961862,7529.7008663999995,-26.998,43.592,338.115
8.27,128.178931,37.961898,7532.7711168,-27.051,43.688,338.037
8.27,128.178916,37.961933,7535.847463200001,-27.104,43.785,337.958
8.29,128.178901,37.961968,7538.929905600001,-27.157,43.883,337.878
8.3,128.178885,37.962003,7542.0181392,-27.211,43.981,337.797
8.31,128.17887,37.962038,7545.112468800001,-27.265,44.079,337.716
8.32,128.178854,37.962073,7548.212894400001,-27.32,44.177,337.635
8.33,128.178839,37.962108,7551.319111200001,-27.375,44.276,337.553
8.34,128.178823,37.962143,7554.431424,-27.43,44.375,337.47
8.35,128.178808,37.962178,7557.5495280000005,-27.487,44.475,337.387
8.36,128.178792,37.962213,7560.673728000001,-27.543,44.575,337.303
8.37,128.178777,37.962247,7563.8034144,-27.6,44.675,337.219
8.38,128.178761,37.962282,7566.939501600001,-27.657,44.775,337.134
8.39,128.178746,37.962316,7570.0810752,-27.715,44.876,337.048
8.4,128.17873,37.962351,7573.22844,-27.774,44.977,336.962
8.41,128.178714,37.962385,7576.381900800001,-27.832,45.078,336.876
8.42,128.178698,37.962419,7579.540848,-27.892,45.179,336.789
8.43,128.178683,37.962454,7582.7058912,-27.951,45.281,336.702
8.44,128.178667,37.962488,7585.8767256,-28.011,45.382,336.614
8.44,128.178651,37.962522,7589.0530464,-28.071,45.484,336.526
8.46,128.178635,37.962556,7592.2351584,-28.132,45.586,336.437
8.47,128.17862,37.96259,7595.4230615999995,-28.193,45.687,336.348
8.48,128.178604,37.962624,7598.616756,-28.255,45.789,336.258
8.49,128.178588,37.962657,7601.815936800001,-28.316,45.891,336.168
8.5,128.178572,37.962691,7605.0209088,-28.379,45.993,336.078
8.51,128.178556,37.962725,7608.231672,-28.441,46.095,335.987
8.52,128.17854,37.962758,7611.4479216,-28.504,46.197,335.895
8.52,128.178524,37.962792,7614.6696576,-28.567,46.299,335.804
8.54,128.178508,37.962825,7617.8971848,-28.631,46.401,335.712
8.55,128.178492,37.962859,7621.1301984,-28.695,46.503,335.619
8.56,128.178476,37.962892,7624.3686984,-28.759,46.605,335.526
8.57,128.17846,37.962925,7627.6129896,-28.824,46.707,335.433
8.58,128.178444,37.962958,7630.8627672,-28.889,46.809,335.339
8.59,128.178427,37.962991,7634.118031200001,-28.955,46.911,335.245
8.6,128.178411,37.963024,7637.3787816,-29.021,47.013,335.15
8.61,128.178395,37.963057,7640.6450184000005,-29.087,47.115,335.055
8.62,128.178379,37.96309,7643.916741600001,-29.153,47.217,334.96
8.63,128.178363,37.963123,7647.193951200001,-29.22,47.319,334.864
8.64,128.178346,37.963155,7650.476647200001,-29.288,47.421,334.768
8.65,128.17833,37.963188,7653.764524800001,-29.355,47.523,334.671
8.66,128.178314,37.963221,7657.0578888,-29.423,47.624,334.574
8.67,128.178297,37.963253,7660.3567391999995,-29.491,47.726,334.477
8.68,128.178281,37.963285,7663.661076,-29.56,47.828,334.379
8.69,128.178264,37.963318,7666.9705944,-29.629,47.93,334.281
8.7,128.178248,37.96335,7670.2855992,-29.699,48.032,334.182
8.71,128.178232,37.963382,7673.6057856,-29.768,48.133,334.083
8.72,128.178215,37.963414,7676.9311536000005,-29.839,48.235,333.983
8.73,128.178199,37.963446,7680.262008,-29.909,48.337,333.883
8.74,128.178182,37.963478,7683.5983488,-29.98,48.439,333.782
8.75,128.178166,37.96351,7686.9395664,-30.052,48.54,333.681
8.76,128.178149,37.963542,7690.286270400001,-30.124,48.642,333.58
8.77,128.178132,37.963573,7693.637851200001,-30.196,48.743,333.478
8.77,128.178116,37.963605,7696.994918400001,-30.269,48.845,333.375
8.79,128.178099,37.963637,7700.3571672,-30.342,48.947,333.273
8.8,128.178082,37.963668,7703.724597600001,-30.415,49.048,333.169
8.81,128.178066,37.9637,7707.0972096000005,-30.489,49.15,333.065
8.82,128.178049,37.963731,7710.4746984,-30.563,49.251,332.961
8.83,128.178032,37.963762,7713.8576736,-30.638,49.352,332.856
8.84,128.178016,37.963793,7717.2455256,-30.713,49.454,332.751
8.85,128.177999,37.963824,7720.638559200001,-30.789,49.555,332.646
8.86,128.177982,37.963855,7724.0367744000005,-30.865,49.656,332.539
8.87,128.177965,37.963886,7727.4398664,-30.942,49.758,332.433
8.88,128.177948,37.963917,7730.8478352,-31.019,49.859,332.325
8.89,128.177931,37.963948,7734.2609856,-31.096,49.96,332.218
8.9,128.177914,37.963979,7737.6793176,-31.174,50.061,332.11
8.91,128.177898,37.964009,7741.1025264,-31.252,50.162,332.001
8.92,128.177881,37.96404,7744.530612,-31.331,50.264,331.892
8.93,128.177864,37.96407,7747.963574400001,-31.411,50.365,331.782
8.94,128.177847,37.964101,7751.4017184,-31.491,50.466,331.672
8.95,128.17783,37.964131,7754.8447392,-31.571,50.567,331.561
8.96,128.177813,37.964161,7758.292636800001,-31.652,50.668,331.45
8.97,128.177795,37.964191,7761.745106400001,-31.733,50.769,331.338
8.98,128.177778,37.964222,7765.2027576,-31.815,50.869,331.225
8.99,128.177761,37.964252,7768.6652856,-31.897,50.97,331.112
9.0,128.177744,37.964282,7772.1323856,-31.98,51.071,330.999
9.01,128.177727,37.964311,7775.6046672,-32.063,51.172,330.885
9.02,128.17771,37.964341,7779.0815208,-32.147,51.273,330.77
9.02,128.177693,37.964371,7782.563251200001,-32.231,51.373,330.655
9.04,128.177675,37.9644,7786.0495536,-32.316,51.474,330.539
9.05,128.177658,37.96443,7789.540732800001,-32.402,51.574,330.423
9.06,128.177641,37.964459,7793.0367888,-32.488,51.675,330.306
9.07,128.177624,37.964489,7796.5374168,-32.574,51.775,330.189
9.08,128.177606,37.964518,7800.0426168,-32.661,51.876,330.071
9.09,128.177589,37.964547,7803.5526936,-32.749,51.976,329.952
9.1,128.177572,37.964577,7807.067342400001,-32.837,52.077,329.833
9.11,128.177554,37.964606,7810.5865632000005,-32.926,52.177,329.713
9.12,128.177537,37.964635,7814.110356000001,-33.015,52.277,329.593
9.13,128.177519,37.964663,7817.6390256,-33.105,52.377,329.472
9.14,128.177502,37.964692,7821.1719624,-33.195,52.478,329.35
9.15,128.177485,37.964721,7824.709776,-33.286,52.578,329.228
9.16,128.177467,37.96475,7828.2518568000005,-33.378,52.678,329.105
9.17,128.17745,37.964778,7831.798814400001,-33.47,52.778,328.982
9.18,128.177432,37.964807,7835.3500392,-33.562,52.878,328.858
9.19,128.177415,37.964835,7838.905836,-33.656,52.978,328.733
9.2,128.177397,37.964864,7842.4662048,-33.75,53.077,328.608
9.21,128.177379,37.964892,7846.0308408,-33.844,53.177,328.482
9.22,128.177362,37.96492,7849.6000488,-33.939,53.277,328.355
9.23,128.177344,37.964948,7853.173524000001,-34.035,53.376,328.228
9.24,128.177327,37.964976,7856.7515712,-34.132,53.476,328.1
9.25,128.177309,37.965004,7860.3341904,-34.229,53.576,327.971
9.26,128.177291,37.965032,7863.9210768,-34.327,53.675,327.842
9.27,128.177274,37.96506,7867.5122304,-34.425,53.774,327.712
9.27,128.177256,37.965087,7871.107651200001,-34.524,53.874,327.581
9.29,128.177238,37.965115,7874.7073392,-34.623,53.973,327.45
9.3,128.17722,37.965142,7878.3115992,-34.724,54.072,327.317
9.31,128.177203,37.96517,7881.9201264,-34.825,54.171,327.185
9.32,128.177185,37.965197,7885.5326159999995,-34.926,54.27,327.051
9.33,128.177167,37.965225,7889.1496776,-35.029,54.369,326.917
9.34,128.177149,37.965252,7892.771006400001,-35.132,54.468,326.782
9.35,128.177131,37.965279,7896.396297600001,-35.235,54.567,326.646
9.36,128.177113,37.965306,7900.025856000001,-35.34,54.666,326.51
9.37,128.177095,37.965333,7903.6596816,-35.445,54.765,326.373
9.38,128.177078,37.96536,7907.297774400001,-35.551,54.863,326.235
9.39,128.17706,37.965387,7910.9398296,-35.657,54.962,326.096
9.4,128.177042,37.965413,7914.586152000001,-35.764,55.06,325.957
9.41,128.177024,37.96544,7918.236436800001,-35.872,55.159,325.817
9.42,128.177006,37.965466,7921.8909888,-35.981,55.257,325.676
9.43,128.176988,37.965493,7925.5495032,-36.091,55.355,325.534
9.44,128.17697,37.965519,7929.21198,-36.201,55.453,325.391
9.45,128.176952,37.965546,7932.8784192,-36.312,55.552,325.248
9.46,128.176934,37.965572,7936.5491256,-36.424,55.649,325.104
9.47,128.176916,37.965598,7940.2237944,-36.536,55.747,324.959
9.48,128.176897,37.965624,7943.9024256,-36.649,55.845,324.813
9.49,128.176879,37.96565,7947.585019200001,-36.763,55.943,324.667
9.5,128.176861,37.965676,7951.2715751999995,-36.878,56.041,324.52
9.51,128.176843,37.965702,7954.9620936,-36.994,56.138,324.371
9.52,128.176825,37.965727,7958.656269600001,-37.11,56.235,324.222
9.52,128.176807,37.965753,7962.3547128,-37.228,56.333,324.073
9.54,128.176788,37.965779,7966.0568136,-37.346,56.43,323.922
9.55,128.17677,37.965804,7969.7628768,-37.465,56.527,323.77
9.56,128.176752,37.965829,7973.472597600001,-37.585,56.624,323.618
9.57,128.176734,37.965855,7977.1862808000005,-37.705,56.721,323.464
9.58,128.176715,37.96588,7980.9039264,-37.827,56.818,323.31
9.59,128.176697,37.965905,7984.6252296,-37.949,56.915,323.155
9.6,128.176679,37.96593,7988.3501904,-38.072,57.011,322.999
9.61,128.176661,37.965955,7992.0788088,-38.196,57.108,322.842
9.62,128.176642,37.96598,7995.8113896,-38.321,57.204,322.685
9.63,128.176624,37.966005,7999.547628,-38.447,57.3,322.526
9.64,128.176605,37.966029,8003.287524,-38.573,57.397,322.366
9.65,128.176587,37.966054,8007.031077600001,-38.701,57.493,322.206
9.66,128.176569,37.966078,8010.7782888,-38.829,57.589,322.044
9.67,128.17655,37.966103,8014.5291576,-38.959,57.684,321.882
9.68,128.176532,37.966127,8018.283684000001,-39.089,57.78,321.718
9.69,128.176513,37.966152,8022.041868,-39.22,57.876,321.554
