Time,Longitude,Latitude,Altitude,Roll (deg),Pitch (deg),Yaw (deg)
0.0,128.181881,37.968463,7002.830292000001,0.0,-0.003,179.999
0.01,128.181881,37.968418,7002.8116992000005,0.0,-0.012,180.0
0.02,128.181881,37.968374,7002.792496800001,0.0,-0.026,180.0
0.03,128.181881,37.968329,7002.7720752,0.0,-0.042,180.0
0.04,128.181881,37.968284,7002.751044,0.0,-0.06,180.0
0.05,128.181881,37.968239,7002.7287936,0.0,-0.08,180.0
0.06,128.181881,37.968194,7002.705933600001,0.0,-0.099,180.0
0.07,128.181881,37.968149,7002.682159200001,0.0,-0.119,180.0
0.08,128.181881,37.968104,7002.657470400001,0.0,-0.137,180.0
0.09,128.181881,37.968059,7002.6315624,0.0,-0.153,180.0
0.1,128.181881,37.968014,7002.6050448000005,0.0,-0.168,180.0
0.11,128.181881,37.967969,7002.5776128,0.0,-0.18,180.0
0.12,128.181881,37.967924,7002.5492664,0.0,-0.191,180.0
0.13,128.181881,37.967879,7002.5200056,0.0,-0.2,180.0
0.14,128.181881,37.967834,7002.4901352,0.0,-0.207,180.0
0.15,128.181881,37.967788,7002.4590456000005,0.0,-0.212,180.0
0.16,128.181881,37.967743,7002.427041600001,0.0,-0.216,180.0
0.17,128.181881,37.967698,7002.3944280000005,0.0,-0.219,180.0
0.18,128.181881,37.967653,7002.360900000001,0.0,-0.222,180.0
0.19,128.181881,37.967608,7002.3264576,0.0,-0.223,180.0
0.2,128.181881,37.967563,7002.2911008,0.0,-0.224,180.0
0.21,128.181881,37.967518,7002.2551344,0.0,-0.225,180.0
0.22,128.181881,37.967473,7002.2182536,0.0,-0.225,180.0
0.23,128.181881,37.967428,7002.1804584,0.0,-0.226,180.0
0.24,128.181881,37.967383,7002.1420536000005,0.001,-0.226,180.0
0.25,128.181881,37.967337,7002.1027343999995,0.001,-0.227,180.0
0.26,128.181881,37.967292,7002.0628056000005,0.001,-0.227,180.0
0.27,128.181881,37.967247,7002.0219624,0.001,-0.228,180.0
0.28,128.181881,37.967202,7001.980509600001,0.001,-0.229,180.0
0.28,128.181881,37.967157,7001.938447200001,0.001,-0.23,180.0
0.3,128.181881,37.967111,7001.895470400001,0.001,-0.232,180.0
0.31,128.181881,37.967066,7001.851579200001,0.002,-0.233,180.0
0.32,128.181881,37.967021,7001.807383200001,0.002,-0.235,180.0
0.33,128.181881,37.966976,7001.762272800001,0.002,-0.237,180.0
0.34,128.181881,37.966931,7001.7165528,0.002,-0.239,180.0
0.35,128.181881,37.966885,7001.669918400001,0.002,-0.241,180.0
0.36,128.181881,37.96684,7001.6229792,0.002,-0.243,180.0
0.37,128.181881,37.966795,7001.5751256,0.003,-0.245,180.0
0.38,128.181881,37.96675,7001.5266624,0.003,-0.247,180.0
0.39,128.181881,37.966704,7001.4775896,0.003,-0.249,180.0
0.4,128.181881,37.966659,7001.4276024,0.003,-0.25,180.0
0.41,128.181881,37.966614,7001.377310400001,0.003,-0.252,180.0
0.42,128.181881,37.966568,7001.3264088000005,0.004,-0.254,180.0
0.43,128.181881,37.966523,7001.2745928,0.004,-0.256,180.0
0.44,128.181881,37.966478,7001.222472,0.004,-0.258,180.0
0.45,128.181881,37.966432,7001.169741600001,0.004,-0.26,180.0
0.46,128.181881,37.966387,7001.1160968,0.004,-0.261,180.0
0.47,128.181881,37.966342,7001.062147200001,0.005,-0.263,180.001
0.48,128.181881,37.966296,7001.007588,0.005,-0.265,180.001
0.49,128.181881,37.966251,7000.952419200001,0.005,-0.267,180.001
0.5,128.181881,37.966206,7000.896640800001,0.005,-0.268,180.001
0.51,128.181881,37.96616,7000.8402528,0.006,-0.27,180.001
0.52,128.181881,37.966115,7000.783560000001,0.006,-0.271,180.001
0.53,128.181881,37.966069,7000.7259527999995,0.006,-0.273,180.001
0.54,128.181881,37.966024,7000.6680408,0.007,-0.274,180.001
0.55,128.181881,37.965979,7000.6095192,0.007,-0.276,180.001
0.56,128.181881,37.965933,7000.550388000001,0.007,-0.277,180.001
0.57,128.181881,37.965888,7000.490952000001,0.007,-0.279,180.001
0.57,128.181881,37.965842,7000.430906400001,0.008,-0.28,180.001
0.59,128.181881,37.965797,7000.370251200001,0.008,-0.282,180.001
0.6,128.181881,37.965751,7000.3092912,0.008,-0.283,180.001
0.61,128.181881,37.965706,7000.2477216,0.009,-0.285,180.001
0.62,128.181881,37.96566,7000.1855424000005,0.009,-0.286,180.001
0.63,128.181881,37.965615,7000.1230584,0.009,-0.287,180.001
0.64,128.181881,37.965569,7000.059964800001,0.009,-0.289,180.001
0.65,128.181881,37.965524,6999.9965664,0.01,-0.29,180.001
0.66,128.181881,37.965478,6999.9325584,0.01,-0.291,180.001
0.67,128.181881,37.965433,6999.868245600001,0.01,-0.292,180.001
0.68,128.181881,37.965387,6999.803323200001,0.011,-0.294,180.001
0.69,128.181881,37.965342,6999.738096,0.011,-0.295,180.001
0.7,128.181881,37.965296,6999.672259200001,0.011,-0.296,180.001
0.71,128.181881,37.96525,6999.6061176,0.012,-0.297,180.001
0.72,128.181881,37.965205,6999.5396712,0.012,-0.298,180.001
0.73,128.181881,37.965159,6999.4726152,0.012,-0.299,180.001
0.74,128.181881,37.965114,6999.404949600001,0.013,-0.301,180.001
0.75,128.181881,37.965068,6999.337284000001,0.013,-0.302,180.001
0.76,128.181881,37.965022,6999.2690088,0.013,-0.303,180.001
0.77,128.181881,37.964977,6999.200124000001,0.014,-0.304,180.001
0.78,128.181881,37.964931,6999.1312392,0.014,-0.305,180.001
0.79,128.181881,37.964885,6999.0617448,0.015,-0.306,180.001
0.8,128.181881,37.96484,6998.991945600001,0.015,-0.307,180.001
0.81,128.18188,37.964794,6998.9215368000005,0.015,-0.308,180.001
0.82,128.18188,37.964748,6998.8508232,0.016,-0.309,180.001
0.83,128.18188,37.964703,6998.7801096,0.016,-0.31,180.001
0.84,128.18188,37.964657,6998.7087864000005,0.017,-0.311,180.001
0.85,128.18188,37.964611,6998.6368536,0.017,-0.312,180.001
0.86,128.18188,37.964566,6998.5649207999995,0.018,-0.313,180.001
0.87,128.18188,37.96452,6998.4923784,0.018,-0.314,180.001
0.88,128.18188,37.964474,6998.419836,0.018,-0.315,180.001
0.89,128.18188,37.964428,6998.346684000001,0.019,-0.316,180.001
0.9,128.18188,37.964383,6998.2732272,0.019,-0.316,180.001
0.91,128.18188,37.964337,6998.199465600001,0.02,-0.317,180.001
0.92,128.18188,37.964291,6998.1253992,0.02,-0.318,180.001
0.93,128.18188,37.964245,6998.050723200001,0.021,-0.319,180.001
0.94,128.18188,37.9642,6997.976047200001,0.021,-0.32,180.001
0.95,128.18188,37.964154,6997.9010664,0.022,-0.321,180.001
0.96,128.18188,37.964108,6997.8257808,0.022,-0.321,180.001
0.97,128.18188,37.964062,6997.7501904,0.023,-0.322,180.001
0.98,128.18188,37.964016,6997.673990400001,0.023,-0.323,180.001
0.99,128.18188,37.96397,6997.5977904,0.024,-0.324,180.001
1.0,128.18188,37.963925,6997.5212856,0.024,-0.324,180.001
1.01,128.18188,37.963879,6997.444476,0.025,-0.325,180.001
1.02,128.18188,37.963833,6997.3673616,0.025,-0.326,180.001
1.03,128.18188,37.963787,6997.289942400001,0.026,-0.326,180.001
1.04,128.18188,37.963741,6997.2122184,0.026,-0.327,180.001
1.05,128.18188,37.963695,6997.1341896,0.027,-0.328,180.001
1.06,128.18188,37.963649,6997.056160800001,0.027,-0.328,180.001
1.07,128.18188,37.963603,6996.9775224,0.028,-0.329,180.001
1.08,128.18188,37.963557,6996.898884000001,0.028,-0.33,180.001
1.09,128.18188,37.963511,6996.8199408,0.029,-0.33,180.001
1.1,128.18188,37.963465,6996.740692800001,0.03,-0.331,180.001
1.11,128.18188,37.96342,6996.66114,0.03,-0.332,180.001
1.12,128.18188,37.963374,6996.5812824,0.031,-0.332,180.001
1.13,128.18188,37.963328,6996.501424800001,0.031,-0.333,180.001
1.14,128.18188,37.963282,6996.4212624,0.032,-0.333,180.001
1.15,128.18188,37.963236,6996.340795200001,0.032,-0.334,180.001
1.15,128.18188,37.96319,6996.2600232,0.033,-0.334,180.002
1.17,128.18188,37.963144,6996.179251200001,0.034,-0.335,180.002
1.18,128.18188,37.963098,6996.098174400001,0.034,-0.335,180.002
1.19,128.18188,37.963051,6996.016792800001,0.035,-0.336,180.002
1.2,128.18188,37.963005,6995.935106400001,0.035,-0.336,180.002
1.21,128.18188,37.962959,6995.85342,0.036,-0.337,180.002
1.22,128.18188,37.962913,6995.771428800001,0.037,-0.337,180.002
1.23,128.18188,37.962867,6995.689437600001,0.037,-0.338,180.002
1.24,128.18188,37.962821,6995.606836800001,0.038,-0.338,180.002
1.25,128.18188,37.962775,6995.5245408,0.039,-0.338,180.002
1.26,128.18188,37.962729,6995.4416352,0.039,-0.339,180.002
1.27,128.18188,37.962683,6995.3587296,0.04,-0.339,180.002
1.28,128.18188,37.962637,6995.2755192,0.04,-0.34,180.002
1.29,128.18188,37.962591,6995.1923088,0.041,-0.34,180.002
1.3,128.18188,37.962544,6995.1087936,0.042,-0.34,180.002
1.31,128.18188,37.962498,6995.0249736000005,0.042,-0.341,180.002
1.32,128.18188,37.962452,6994.9411536,0.043,-0.341,180.001
1.33,128.18188,37.962406,6994.857333600001,0.043,-0.341,180.001
1.34,128.18188,37.96236,6994.772904,0.044,-0.342,180.001
1.35,128.18188,37.962313,6994.688779200001,0.045,-0.342,180.002
1.36,128.18188,37.962267,6994.6040448,0.045,-0.342,180.002
1.37,128.18188,37.962221,6994.519615200001,0.046,-0.343,180.002
1.38,128.18188,37.962175,6994.434576,0.046,-0.343,180.002
1.39,128.18188,37.962129,6994.3495368,0.047,-0.343,180.002
1.4,128.18188,37.962082,6994.264497600001,0.048,-0.343,180.002
1.41,128.18188,37.962036,6994.1791536,0.049,-0.343,180.002
1.42,128.18188,37.96199,6994.093809600001,0.049,-0.344,180.002
1.43,128.18188,37.961944,6994.008160800001,0.05,-0.344,180.002
1.44,128.18188,37.961897,6993.922512,0.051,-0.344,180.002
1.45,128.18188,37.961851,6993.8365584,0.051,-0.344,180.002
1.46,128.18188,37.961805,6993.7506048000005,0.052,-0.344,180.002
1.47,128.18188,37.961758,6993.664651200001,0.053,-0.345,180.002
1.48,128.18188,37.961712,6993.578392800001,0.053,-0.345,180.002
1.49,128.18188,37.961666,6993.4921343999995,0.054,-0.345,180.002
1.5,128.18188,37.961619,6993.4055712,0.055,-0.345,180.002
1.51,128.18188,37.961573,6993.319008,0.056,-0.345,180.002
1.52,128.18188,37.961527,6993.23214,0.056,-0.345,180.002
1.53,128.18188,37.96148,6993.145272,0.057,-0.345,180.002
1.54,128.18188,37.961434,6993.058404,0.058,-0.345,180.002
1.55,128.18188,37.961387,6992.9712312,0.059,-0.346,180.002
1.56,128.18188,37.961341,6992.8840584,0.059,-0.346,180.002
1.57,128.18188,37.961295,6992.7968856,0.06,-0.346,180.002
1.58,128.18188,37.961248,6992.7097128000005,0.061,-0.346,180.002
1.59,128.18188,37.961202,6992.6222352,0.062,-0.346,180.002
1.6,128.18188,37.961155,6992.5344528,0.062,-0.346,180.002
1.61,128.18188,37.961109,6992.4469751999995,0.063,-0.346,180.002
1.62,128.18188,37.961062,6992.3591928000005,0.064,-0.346,180.002
1.63,128.18188,37.961016,6992.271410400001,0.065,-0.346,180.002
1.64,128.18188,37.960969,6992.183323200001,0.066,-0.346,180.002
1.65,128.18188,37.960923,6992.095236,0.066,-0.346,180.002
1.66,128.18188,37.960876,6992.0071488,0.067,-0.346,180.002
1.67,128.18188,37.96083,6991.9190616,0.068,-0.345,180.002
1.68,128.18188,37.960783,6991.830974400001,0.069,-0.345,180.002
1.69,128.18188,37.960737,6991.7425824,0.07,-0.345,180.002
1.7,128.18188,37.96069,6991.6541904000005,0.071,-0.345,180.002
1.71,128.18188,37.960644,6991.5657984,0.071,-0.345,180.002
1.72,128.18188,37.960597,6991.4771016,0.072,-0.345,180.002
1.73,128.18188,37.96055,6991.3884048,0.073,-0.345,180.002
1.74,128.18188,37.960504,6991.2997080000005,0.074,-0.345,180.002
1.75,128.18188,37.960457,6991.211011200001,0.075,-0.345,180.002
1.76,128.18188,37.960411,6991.1223144000005,0.076,-0.345,180.002
1.77,128.181879,37.960364,6991.0336176,0.077,-0.345,180.002
1.78,128.181879,37.960317,6990.944616,0.077,-0.345,180.002
1.79,128.181879,37.960271,6990.8556144,0.078,-0.344,180.002
1.8,128.181879,37.960224,6990.7666128,0.079,-0.344,180.002
1.81,128.181879,37.960177,6990.677611200001,0.08,-0.344,180.002
1.82,128.181879,37.960131,6990.5883048000005,0.081,-0.344,180.002
1.83,128.181879,37.960084,6990.4993032,0.082,-0.344,180.002
1.84,128.181879,37.960037,6990.409996800001,0.083,-0.344,180.002
1.85,128.181879,37.959991,6990.3206904,0.084,-0.343,180.002
1.86,128.181879,37.959944,6990.2316888,0.085,-0.343,180.002
1.87,128.181879,37.959897,6990.1420776,0.086,-0.343,180.002
1.88,128.181879,37.95985,6990.0527712,0.087,-0.343,180.003
1.89,128.181879,37.959804,6989.963464800001,0.088,-0.342,180.003
1.9,128.181879,37.959757,6989.8741584,0.088,-0.342,180.003
1.91,128.181879,37.95971,6989.784547200001,0.089,-0.342,180.003
1.92,128.181879,37.959663,6989.695240800001,0.09,-0.342,180.003
1.93,128.181879,37.959617,6989.6056296,0.091,-0.341,180.003
1.94,128.181879,37.95957,6989.516018400001,0.092,-0.341,180.003
1.95,128.181879,37.959523,6989.4264072,0.093,-0.341,180.003
1.96,128.181879,37.959476,6989.3371008,0.094,-0.34,180.003
1.97,128.181879,37.959429,6989.2474896,0.095,-0.34,180.003
1.98,128.181879,37.959382,6989.1578784,0.096,-0.34,180.003
1.99,128.181879,37.959336,6989.0682672,0.097,-0.339,180.003
2.0,128.181879,37.959289,6988.978656000001,0.098,-0.339,180.002
2.01,128.181879,37.959242,6988.88874,0.099,-0.338,180.002
2.02,128.181879,37.959195,6988.7991288,0.1,-0.338,180.002
2.03,128.181879,37.959148,6988.7095176,0.101,-0.337,180.002
2.04,128.181879,37.959101,6988.619906400001,0.102,-0.337,180.003
2.04,128.181879,37.959054,6988.5302952,0.102,-0.336,180.003
2.06,128.181879,37.959007,6988.440379200001,0.103,-0.335,180.003
2.06,128.181879,37.95896,6988.350768,0.104,-0.335,180.003
2.08,128.181879,37.958913,6988.261156800001,0.105,-0.334,180.003
2.09,128.181879,37.958866,6988.1715456,0.106,-0.334,180.003
2.1,128.181879,37.95882,6988.0819344,0.107,-0.333,180.003
2.11,128.181879,37.958773,6987.9920184,0.108,-0.332,180.003
2.12,128.181879,37.958726,6987.9024072,0.109,-0.332,180.003
2.13,128.181879,37.958679,6987.812796,0.11,-0.331,180.003
2.14,128.181879,37.958632,6987.7231848,0.111,-0.33,180.003
2.15,128.181879,37.958584,6987.633573600001,0.112,-0.33,180.003
2.16,128.181879,37.958537,6987.5439624,0.113,-0.329,180.003
2.17,128.181879,37.95849,6987.454351200001,0.114,-0.328,180.003
2.18,128.181879,37.958443,6987.36474,0.115,-0.328,180.003
2.19,128.181879,37.958396,6987.275433600001,0.116,-0.327,180.003
2.2,128.181879,37.958349,6987.185822400001,0.117,-0.326,180.003
2.21,128.181879,37.958302,6987.096211200001,0.119,-0.326,180.003
2.22,128.181879,37.958255,6987.0069048000005,0.12,-0.325,180.003
2.23,128.181879,37.958208,6986.9172935999995,0.121,-0.324,180.003
2.24,128.181879,37.958161,6986.8279872,0.122,-0.323,180.003
2.25,128.181879,37.958114,6986.7386808,0.123,-0.323,180.003
2.26,128.181879,37.958066,6986.649374400001,0.124,-0.322,180.003
2.27,128.181879,37.958019,6986.560068000001,0.125,-0.321,180.003
2.28,128.181879,37.957972,6986.4707616,0.126,-0.32,180.003
2.29,128.181879,37.957925,6986.3814552,0.127,-0.319,180.003
2.3,128.181879,37.957878,6986.2921488,0.128,-0.319,180.003
2.31,128.181879,37.957831,6986.203147200001,0.129,-0.318,180.003
2.31,128.181879,37.957783,6986.113840800001,0.13,-0.317,180.003
2.33,128.181879,37.957736,6986.0248392,0.131,-0.316,180.003
2.34,128.181879,37.957689,6985.935837600001,0.132,-0.315,180.003
2.35,128.181878,37.957642,6985.846836000001,0.133,-0.315,180.003
2.36,128.181878,37.957594,6985.7578344,0.135,-0.314,180.003
2.37,128.181878,37.957547,6985.668832800001,0.136,-0.313,180.003
2.38,128.181878,37.9575,6985.5801360000005,0.137,-0.312,180.003
2.39,128.181878,37.957453,6985.4914392,0.138,-0.311,180.003
2.4,128.181878,37.957405,6985.4027424000005,0.139,-0.31,180.003
2.41,128.181878,37.957358,6985.3140456,0.14,-0.309,180.003
2.42,128.181878,37.957311,6985.2253488,0.141,-0.308,180.003
2.43,128.181878,37.957263,6985.136652000001,0.142,-0.307,180.003
2.44,128.181878,37.957216,6985.0482600000005,0.144,-0.306,180.003
2.45,128.181878,37.957169,6984.959868,0.145,-0.306,180.003
2.46,128.181878,37.957121,6984.871476,0.146,-0.305,180.003
2.47,128.181878,37.957074,6984.783084000001,0.147,-0.304,180.003
2.48,128.181878,37.957027,6984.694996800001,0.148,-0.303,180.003
2.49,128.181878,37.956979,6984.6066048,0.149,-0.302,180.003
2.5,128.181878,37.956932,6984.5185176,0.151,-0.301,180.003
2.51,128.181878,37.956884,6984.4307352,0.152,-0.3,180.003
2.52,128.181878,37.956837,6984.342648,0.153,-0.299,180.003
2.53,128.181878,37.956789,6984.254865600001,0.154,-0.298,180.003
2.54,128.181878,37.956742,6984.166778400001,0.155,-0.297,180.003
2.55,128.181878,37.956694,6984.079300800001,0.157,-0.295,180.003
2.56,128.181878,37.956647,6983.9915184,0.158,-0.294,180.003
2.57,128.181878,37.9566,6983.9040408,0.159,-0.293,180.003
2.58,128.181878,37.956552,6983.8165632,0.16,-0.292,180.003
2.59,128.181878,37.956505,6983.7290856,0.162,-0.291,180.003
2.6,128.181878,37.956457,6983.641608,0.163,-0.29,180.003
2.61,128.181878,37.956409,6983.5544352,0.164,-0.289,180.004
2.62,128.181878,37.956362,6983.4672624,0.165,-0.288,180.004
2.63,128.181878,37.956314,6983.3800896,0.167,-0.287,180.004
2.64,128.181878,37.956267,6983.2932216,0.168,-0.286,180.004
2.65,128.181878,37.956219,6983.2063536000005,0.169,-0.285,180.004
2.66,128.181878,37.956172,6983.1194856,0.17,-0.284,180.004
2.67,128.181878,37.956124,6983.0326176,0.172,-0.283,180.004
2.68,128.181878,37.956076,6982.9460544,0.173,-0.282,180.004
2.69,128.181878,37.956029,6982.859491200001,0.174,-0.281,180.004
2.7,128.181878,37.955981,6982.7732328,0.175,-0.279,180.004
2.71,128.181878,37.955934,6982.686669600001,0.176,-0.278,180.004
2.72,128.181878,37.955886,6982.600411200001,0.178,-0.277,180.004
2.73,128.181878,37.955838,6982.5144576,0.179,-0.276,180.003
2.74,128.181878,37.955791,6982.428199200001,0.18,-0.275,180.003
2.75,128.181878,37.955743,6982.342550400001,0.181,-0.273,180.003
2.76,128.181878,37.955695,6982.256596800001,0.182,-0.272,180.003
2.77,128.181878,37.955647,6982.170948,0.183,-0.271,180.004
2.78,128.181877,37.9556,6982.0852992,0.185,-0.27,180.004
2.79,128.181877,37.955552,6981.9996504,0.186,-0.268,180.004
2.8,128.181877,37.955504,6981.914306400001,0.187,-0.267,180.004
2.81,128.181877,37.955456,6981.8292672,0.184,-0.266,180.003
2.82,128.181877,37.955409,6981.7445328,0.177,-0.266,180.001
2.83,128.181877,37.955361,6981.6601032,0.166,-0.266,179.999
2.84,128.181877,37.955313,6981.5756736,0.152,-0.267,179.996
2.85,128.181877,37.955265,6981.4915488,0.134,-0.267,179.994
2.86,128.181877,37.955218,6981.407424000001,0.114,-0.267,179.992
2.87,128.181877,37.95517,6981.323604,0.093,-0.267,179.99
2.88,128.181877,37.955122,6981.2394792000005,0.072,-0.267,179.988
2.89,128.181877,37.955074,6981.1559640000005,0.051,-0.266,179.987
2.9,128.181877,37.955026,6981.072144,0.031,-0.265,179.986
2.91,128.181877,37.954978,6980.988628800001,0.012,-0.264,179.985
2.92,128.181877,37.95493,6980.905113600001,-0.005,-0.262,179.984
2.93,128.181877,37.954882,6980.8215984,-0.022,-0.26,179.984
2.94,128.181877,37.954835,6980.738388000001,-0.037,-0.258,179.983
2.95,128.181877,37.954787,6980.655177600001,-0.051,-0.256,179.983
2.96,128.181877,37.954739,6980.572272,-0.063,-0.254,179.982
2.97,128.181877,37.954691,6980.4890616,-0.075,-0.252,179.982
2.98,128.181877,37.954643,6980.406156000001,-0.086,-0.25,179.981
2.99,128.181877,37.954595,6980.323555200001,-0.095,-0.248,179.981
3.0,128.181877,37.954547,6980.2409544,-0.105,-0.246,179.98
3.01,128.181877,37.954499,6980.1583536,-0.113,-0.244,179.98
3.02,128.181877,37.954451,6980.0760576,-0.121,-0.242,179.979
3.03,128.181877,37.954403,6979.9937616,-0.128,-0.24,179.979
3.04,128.181877,37.954355,6979.911465600001,-0.135,-0.239,179.978
3.05,128.181877,37.954307,6979.8294744,-0.142,-0.237,179.978
3.06,128.181877,37.954259,6979.747788000001,-0.148,-0.235,179.978
3.07,128.181877,37.954211,6979.666101600001,-0.154,-0.233,179.977
3.08,128.181877,37.954163,6979.584415200001,-0.159,-0.232,179.977
3.09,128.181877,37.954115,6979.503033600001,-0.164,-0.23,179.976
3.1,128.181877,37.954067,6979.421652000001,-0.169,-0.228,179.976
3.11,128.181877,37.954018,6979.3405752,-0.173,-0.227,179.976
3.12,128.181877,37.95397,6979.2594984,-0.177,-0.225,179.975
3.13,128.181877,37.953922,6979.1787264,-0.182,-0.223,179.975
3.14,128.181877,37.953874,6979.0979544,-0.185,-0.221,179.975
3.15,128.181877,37.953826,6979.017182400001,-0.189,-0.219,179.974
3.16,128.181877,37.953778,6978.937020000001,-0.193,-0.218,179.974
3.17,128.181876,37.95373,6978.8565528,-0.196,-0.216,179.974
3.18,128.181876,37.953681,6978.7766952,-0.199,-0.214,179.973
3.19,128.181876,37.953633,6978.696532800001,-0.202,-0.212,179.973
3.2,128.181876,37.953585,6978.61698,-0.205,-0.21,179.973
3.21,128.181876,37.953537,6978.5371224,-0.208,-0.208,179.972
3.22,128.181876,37.953489,6978.457874400001,-0.211,-0.206,179.972
3.23,128.181876,37.95344,6978.3786264,-0.214,-0.205,179.972
3.24,128.181876,37.953392,6978.299378400001,-0.216,-0.203,179.972
3.25,128.181876,37.953344,6978.2204352,-0.219,-0.201,179.971
3.26,128.181876,37.953295,6978.1417968000005,-0.221,-0.199,179.971
3.27,128.181876,37.953247,6978.0631584,-0.224,-0.197,179.971
3.28,128.181876,37.953199,6977.984520000001,-0.226,-0.195,179.97
3.29,128.181876,37.953151,6977.9064912,-0.229,-0.193,179.97
3.3,128.181876,37.953102,6977.8284624,-0.231,-0.191,179.97
3.31,128.181876,37.953054,6977.750433600001,-0.234,-0.189,179.969
3.32,128.181876,37.953006,6977.6727096,-0.236,-0.187,179.969
3.33,128.181876,37.952957,6977.5949856,-0.238,-0.185,179.969
3.34,128.181876,37.952909,6977.5178712,-0.241,-0.183,179.968
3.35,128.181876,37.952861,6977.440452000001,-0.243,-0.181,179.968
3.36,128.181876,37.952812,6977.363642400001,-0.245,-0.179,179.968
3.37,128.181876,37.952764,6977.2868328,-0.248,-0.177,179.968
3.38,128.181876,37.952715,6977.2100232,-0.25,-0.174,179.967
3.39,128.181876,37.952667,6977.133823200001,-0.252,-0.172,179.967
3.4,128.181876,37.952618,6977.0576232,-0.254,-0.17,179.967
3.41,128.181876,37.95257,6976.981423200001,-0.257,-0.168,179.966
3.42,128.181876,37.952522,6976.905528,-0.259,-0.166,179.966
3.43,128.181876,37.952473,6976.8299376,-0.262,-0.164,179.966
3.44,128.181876,37.952425,6976.754347200001,-0.264,-0.161,179.965
3.45,128.181876,37.952376,6976.6790616,-0.266,-0.159,179.965
3.46,128.181876,37.952328,6976.6040808,-0.269,-0.157,179.965
3.47,128.181876,37.952279,6976.529100000001,-0.271,-0.155,179.964
3.48,128.181876,37.952231,6976.4547288,-0.274,-0.152,179.964
3.49,128.181876,37.952182,6976.3800528,-0.276,-0.15,179.964
3.5,128.181876,37.952134,6976.305986400001,-0.279,-0.148,179.963
3.51,128.181876,37.952085,6976.231920000001,-0.282,-0.145,179.963
3.52,128.181876,37.952036,6976.1581584000005,-0.284,-0.143,179.963
3.53,128.181876,37.951988,6976.084396800001,-0.287,-0.141,179.962
3.54,128.181876,37.951939,6976.01094,-0.29,-0.138,179.962
3.55,128.181876,37.951891,6975.937788000001,-0.293,-0.136,179.961
3.56,128.181876,37.951842,6975.8649408,-0.296,-0.133,179.961
3.57,128.181876,37.951793,6975.7920936,-0.298,-0.131,179.961
3.58,128.181876,37.951745,6975.719551200001,-0.301,-0.128,179.96
3.59,128.181876,37.951696,6975.6473136,-0.304,-0.126,179.96
3.6,128.181876,37.951647,6975.575076,-0.308,-0.123,179.96
3.61,128.181876,37.951599,6975.5031432,-0.311,-0.12,179.959
3.62,128.181876,37.95155,6975.431515200001,-0.314,-0.118,179.959
3.63,128.181876,37.951501,6975.360192000001,-0.317,-0.115,179.958
3.64,128.181876,37.951453,6975.2888688,-0.32,-0.112,179.958
3.65,128.181876,37.951404,6975.2178504,-0.324,-0.11,179.957
3.66,128.181876,37.951355,6975.1471368,-0.327,-0.107,179.957
3.67,128.181876,37.951307,6975.076728000001,-0.331,-0.104,179.957
3.68,128.181876,37.951258,6975.006624000001,-0.335,-0.101,179.956
3.69,128.181876,37.951209,6974.936520000001,-0.338,-0.098,179.956
3.7,128.181876,37.95116,6974.8667208,-0.342,-0.095,179.955
3.71,128.181876,37.951111,6974.7972264,-0.346,-0.093,179.955
3.72,128.181876,37.951063,6974.7280368,-0.35,-0.09,179.954
3.73,128.181876,37.951014,6974.658847200001,-0.354,-0.087,179.954
3.74,128.181875,37.950965,6974.5902672,-0.358,-0.084,179.953
3.75,128.181875,37.950916,6974.521687200001,-0.363,-0.081,179.953
3.76,128.181875,37.950867,6974.453412,-0.367,-0.078,179.952
3.77,128.181875,37.950819,6974.3854416,-0.372,-0.074,179.952
3.78,128.181875,37.95077,6974.3174712,-0.376,-0.071,179.951
3.79,128.181875,37.950721,6974.2501104,-0.381,-0.068,179.951
3.8,128.181875,37.950672,6974.1827496000005,-0.386,-0.065,179.95
3.81,128.181875,37.950623,6974.1159984,-0.391,-0.061,179.95
3.82,128.181875,37.950574,6974.0492472000005,-0.396,-0.058,179.949
3.83,128.181875,37.950525,6973.9828008,-0.401,-0.055,179.949
3.84,128.181875,37.950476,6973.9166592,-0.406,-0.051,179.948
3.85,128.181875,37.950427,6973.850822400001,-0.412,-0.048,179.948
3.86,128.181875,37.950378,6973.7849856,-0.418,-0.044,179.947
3.87,128.181875,37.950329,6973.7197584000005,-0.424,-0.041,179.946
3.88,128.181875,37.950281,6973.654836000001,-0.43,-0.037,179.946
3.89,128.181875,37.950232,6973.589913600001,-0.436,-0.034,179.945
3.9,128.181875,37.950183,6973.525600800001,-0.443,-0.03,179.945
3.91,128.181875,37.950134,6973.461288,-0.45,-0.026,179.944
3.92,128.181875,37.950085,6973.3975848,-0.457,-0.022,179.943
3.93,128.181875,37.950036,6973.3338816000005,-0.464,-0.019,179.942
3.94,128.181875,37.949986,6973.270788000001,-0.471,-0.015,179.942
3.95,128.181875,37.949937,6973.2076944,-0.479,-0.011,179.941
3.96,128.181875,37.949888,6973.145210400001,-0.487,-0.007,179.94
3.97,128.181875,37.949839,6973.0827264,-0.495,-0.002,179.94
3.98,128.181875,37.94979,6973.020852000001,-0.504,0.001,179.939
3.99,128.181875,37.949741,6972.9589776,-0.512,0.005,179.938
4.0,128.181875,37.949692,6972.897712800001,-0.521,0.009,179.937
4.01,128.181875,37.949643,6972.836448,-0.53,0.014,179.936
4.02,128.181875,37.949594,6972.775792800001,-0.54,0.018,179.936
4.03,128.181875,37.949545,6972.715442400001,-0.55,0.023,179.935
4.04,128.181875,37.949496,6972.655396800001,-0.56,0.028,179.934
4.05,128.181875,37.949446,6972.595656,-0.57,0.033,179.933
4.06,128.181875,37.949397,6972.536220000001,-0.581,0.038,179.932
4.07,128.181875,37.949348,6972.4773936,-0.592,0.042,179.931
4.08,128.181875,37.949299,6972.4185672,-0.604,0.048,179.93
4.09,128.181875,37.94925,6972.3603504,-0.616,0.053,179.929
4.09,128.181875,37.949201,6972.302438400001,-0.628,0.058,179.928
4.11,128.181875,37.949151,6972.244831200001,-0.641,0.063,179.927
4.12,128.181875,37.949102,6972.187528800001,-0.655,0.069,179.926
4.13,128.181875,37.949053,6972.130836,-0.668,0.074,179.925
4.13,128.181875,37.949004,6972.074448,-0.683,0.08,179.924
4.15,128.181875,37.948954,6972.0183648,-0.698,0.086,179.922
4.16,128.181875,37.948905,6971.962891200001,-0.713,0.091,179.921
4.17,128.181875,37.948856,6971.9074176,-0.729,0.097,179.92
4.18,128.181875,37.948806,6971.8525536,-0.746,0.104,179.919
4.19,128.181875,37.948757,6971.7982992,-0.763,0.11,179.917
4.2,128.181875,37.948708,6971.7443496000005,-0.781,0.116,179.916
4.21,128.181875,37.948659,6971.6907048,-0.799,0.123,179.915
4.22,128.181875,37.948609,6971.637669600001,-0.819,0.13,179.913
4.23,128.181875,37.94856,6971.5849392,-0.839,0.137,179.912
4.24,128.181875,37.948511,6971.5328184,-0.86,0.144,179.91
4.25,128.181875,37.948461,6971.4810024,-0.882,0.151,179.909
4.26,128.181875,37.948412,6971.429796,-0.905,0.159,179.907
4.27,128.181875,37.948362,6971.379199200001,-0.929,0.167,179.905
4.28,128.181876,37.948313,6971.3289072,-0.954,0.175,179.903
4.29,128.181876,37.948264,6971.278920000001,-0.98,0.183,179.901
4.3,128.181876,37.948214,6971.229847200001,-1.007,0.191,179.9
4.31,128.181876,37.948165,6971.181079200001,-1.036,0.2,179.898
4.32,128.181876,37.948115,6971.132616,-1.066,0.209,179.896
4.33,128.181876,37.948066,6971.0850672,-1.097,0.218,179.893
4.34,128.181876,37.948016,6971.038128,-1.13,0.228,179.891
4.35,128.181876,37.947967,6970.9914936,-1.165,0.238,179.889
4.36,128.181876,37.947917,6970.9454688000005,-1.201,0.248,179.886
4.37,128.181876,37.947868,6970.9000536,-1.239,0.259,179.884
4.38,128.181876,37.947818,6970.8555528,-1.28,0.27,179.881
4.38,128.181876,37.947769,6970.811356800001,-1.322,0.282,179.878
4.4,128.181876,37.947719,6970.7680752,-1.367,0.294,179.875
4.41,128.181876,37.94767,6970.7254032,-1.414,0.307,179.872
4.42,128.181876,37.94762,6970.6833408,-1.464,0.32,179.869
4.43,128.181876,37.947571,6970.641888000001,-1.516,0.333,179.866
4.44,128.181876,37.947521,6970.6013496000005,-1.572,0.348,179.862
4.45,128.181876,37.947472,6970.5617256,-1.631,0.363,179.858
4.46,128.181876,37.947422,6970.522711200001,-1.693,0.379,179.854
4.47,128.181876,37.947373,6970.4846112000005,-1.76,0.395,179.85
4.48,128.181876,37.947323,6970.4474256,-1.831,0.413,179.846
4.49,128.181876,37.947273,6970.411154400001,-1.906,0.432,179.841
4.5,128.181876,37.947224,6970.375492800001,-1.987,0.451,179.836
4.51,128.181876,37.947174,6970.3413552,-2.073,0.473,179.83
4.52,128.181876,37.947124,6970.3078272,-2.165,0.495,179.824
4.53,128.181876,37.947075,6970.275823200001,-2.263,0.519,179.818
4.54,128.181876,37.947025,6970.2447336000005,-2.369,0.545,179.811
4.55,128.181876,37.946976,6970.2148632,-2.482,0.573,179.804
4.56,128.181876,37.946926,6970.186212,-2.604,0.602,179.796
4.57,128.181876,37.946876,6970.1590848,-2.735,0.634,179.788
4.58,128.181876,37.946826,6970.1331768,-2.878,0.669,179.779
4.59,128.181876,37.946777,6970.1090976000005,-3.031,0.706,179.768
4.6,128.181877,37.946727,6970.0865424,-3.197,0.747,179.758
4.61,128.181877,37.946677,6970.065511200001,-3.374,0.791,179.746
4.62,128.181877,37.946628,6970.046308800001,-3.562,0.84,179.734
4.63,128.181877,37.946578,6970.0289352,-3.763,0.893,179.721
4.63,128.181877,37.946528,6970.0133904,-3.976,0.952,179.708
4.65,128.181877,37.946478,6969.999979200001,-4.201,1.018,179.694
4.66,128.181877,37.946429,6969.989006400001,-4.441,1.092,179.678
4.67,128.181877,37.946379,6969.980472,-4.694,1.177,179.662
4.68,128.181877,37.946329,6969.974376,-4.963,1.275,179.643
4.69,128.181877,37.946279,6969.9716328,-5.25,1.389,179.623
4.7,128.181877,37.94623,6969.972242400001,-5.554,1.525,179.599
4.71,128.181877,37.94618,6969.9765096,-5.878,1.693,179.57
4.72,128.181878,37.94613,6969.9853488,-6.221,1.909,179.535
4.73,128.181878,37.94608,6969.999369600001,-6.581,2.184,179.491
4.74,128.181878,37.94603,6970.019181600001,-6.959,2.527,179.436
4.75,128.181878,37.945981,6970.043870400001,-7.271,2.932,179.388
4.76,128.181878,37.945931,6970.0737408,-7.522,3.382,179.347
4.77,128.181878,37.945881,6970.109402399999,-7.718,3.858,179.309
4.78,128.181879,37.945831,6970.150550400001,-7.865,4.336,179.269
4.79,128.181879,37.945781,6970.1977944,-7.971,4.797,179.229
4.8,128.181879,37.945732,6970.2526584,-8.045,5.23,179.187
4.81,128.181879,37.945682,6970.315142400001,-8.095,5.634,179.145
4.82,128.18188,37.945632,6970.385551200001,-8.128,6.012,179.104
4.83,128.18188,37.945582,6970.465104,-8.151,6.364,179.063
4.84,128.18188,37.945532,6970.553496,-8.166,6.695,179.025
4.85,128.18188,37.945482,6970.6516416,-8.177,7.005,178.987
4.86,128.181881,37.945432,6970.759236,-8.184,7.298,178.951
4.87,128.181881,37.945383,6970.8768887999995,-8.189,7.574,178.915
4.88,128.181881,37.945333,6971.0049048,-8.193,7.835,178.881
4.88,128.181882,37.945283,6971.1435888,-8.196,8.084,178.848
4.9,128.181882,37.945233,6971.292636,-8.198,8.32,178.816
4.91,128.181883,37.945183,6971.452656,-8.201,8.546,178.784
4.92,128.181883,37.945134,6971.623344,-8.204,8.762,178.753
4.93,128.181884,37.945084,6971.8053096,-8.207,8.969,178.723
4.94,128.181884,37.945034,6971.9985528,-8.211,9.169,178.694
4.95,128.181885,37.944984,6972.202768800001,-8.216,9.361,178.666
4.96,128.181885,37.944934,6972.4185672,-8.221,9.548,178.637
4.97,128.181886,37.944885,6972.645948,-8.226,9.728,178.61
4.98,128.181886,37.944835,6972.884606400001,-8.234,9.904,178.585
4.99,128.181887,37.944785,6973.134847200001,-8.244,10.075,178.564
5.0,128.181888,37.944735,6973.396670400001,-8.256,10.242,178.544
5.01,128.181888,37.944685,6973.670076,-8.267,10.406,178.526
5.02,128.181889,37.944636,6973.9553688000005,-8.277,10.566,178.509
5.03,128.18189,37.944586,6974.252244,-8.286,10.722,178.492
5.04,128.18189,37.944536,6974.561311200001,-8.294,10.875,178.474
5.05,128.181891,37.944487,6974.8819608,-8.3,11.026,178.457
5.06,128.181892,37.944437,6975.214497600001,-8.306,11.173,178.439
5.07,128.181893,37.944387,6975.5586168,-8.312,11.318,178.422
5.08,128.181894,37.944338,6975.915232800001,-8.317,11.461,178.404
5.09,128.181894,37.944288,6976.2834312,-8.322,11.602,178.386
5.1,128.181895,37.944238,6976.6635168,-8.328,11.741,178.369
5.11,128.181896,37.944189,6977.0554896,-8.333,11.879,178.353
5.12,128.181897,37.944139,6977.459349600001,-8.338,12.015,178.337
5.13,128.181898,37.94409,6977.875401600001,-8.344,12.15,178.322
5.14,128.181899,37.94404,6978.303036,-8.347,12.285,178.307
5.15,128.1819,37.94399,6978.7428624,-8.349,12.418,178.292
5.16,128.181901,37.943941,6979.194576,-8.35,12.55,178.277
5.17,128.181902,37.943891,6979.657872,-8.349,12.682,178.262
5.18,128.181903,37.943842,6980.133664800001,-8.348,12.813,178.248
5.19,128.181904,37.943792,6980.62104,-8.347,12.943,178.233
5.2,128.181905,37.943743,6981.1203024,-8.345,13.072,178.217
5.21,128.181906,37.943693,6981.631756800001,-8.344,13.201,178.202
5.22,128.181907,37.943644,6982.1550984,-8.343,13.33,178.187
5.23,128.181908,37.943595,6982.6900224,-8.341,13.458,178.172
5.24,128.18191,37.943545,6983.237138400001,-8.339,13.586,178.156
5.25,128.181911,37.943496,6983.796141600001,-8.337,13.714,178.141
5.26,128.181912,37.943446,6984.367032,-8.333,13.841,178.126
5.27,128.181913,37.943397,6984.949504800001,-8.329,13.969,178.111
5.28,128.181915,37.943348,6985.544169600001,-8.323,14.096,178.096
5.29,128.181916,37.943298,6986.1504168,-8.316,14.222,178.081
5.3,128.181917,37.943249,6986.768551200001,-8.307,14.349,178.067
5.31,128.181919,37.9432,6987.398572800001,-8.298,14.475,178.052
5.32,128.18192,37.943151,6988.0404816,-8.288,14.601,178.037
5.33,128.181921,37.943101,6988.693972800001,-8.277,14.727,178.022
5.34,128.181923,37.943052,6989.3596560000005,-8.267,14.853,178.006
5.35,128.181924,37.943003,6990.0369216,-8.256,14.979,177.991
5.36,128.181926,37.942954,6990.7260744000005,-8.244,15.104,177.976
5.37,128.181927,37.942905,6991.4268096000005,-8.231,15.23,177.961
5.38,128.181928,37.942856,6992.1391272,-8.217,15.355,177.946
5.39,128.18193,37.942807,6992.863636800001,-8.203,15.48,177.931
5.4,128.181932,37.942757,6993.599728800001,-8.188,15.605,177.916
5.41,128.181933,37.942708,6994.3474032,-8.173,15.731,177.901
5.42,128.181935,37.942659,6995.1069648,-8.157,15.856,177.885
5.43,128.181936,37.94261,6995.8781088000005,-8.14,15.98,177.87
5.44,128.181938,37.942561,6996.66114,-8.124,16.105,177.855
5.45,128.181939,37.942512,6997.4557536,-8.106,16.23,177.84
5.46,128.181941,37.942464,6998.261949600001,-8.089,16.355,177.825
5.47,128.181943,37.942415,6999.0800328000005,-8.072,16.479,177.81
5.48,128.181944,37.942366,6999.9093936,-8.054,16.604,177.794
5.49,128.181946,37.942317,7000.750641600001,-8.035,16.728,177.779
5.5,128.181948,37.942268,7001.603472,-8.016,16.853,177.764
5.51,128.18195,37.942219,7002.4678848,-7.996,16.977,177.749
5.52,128.181951,37.942171,7003.3441848,-7.976,17.101,177.734
5.53,128.181953,37.942122,7004.2317624,-7.955,17.226,177.719
5.54,128.181955,37.942073,7005.130922400001,-7.935,17.35,177.704
5.55,128.181957,37.942024,7006.041969600001,-7.914,17.474,177.689
5.56,128.181959,37.941976,7006.9642944,-7.893,17.598,177.674
5.57,128.181961,37.941927,7007.898201600001,-7.872,17.722,177.659
5.58,128.181963,37.941878,7008.843691200001,-7.851,17.846,177.645
5.59,128.181964,37.94183,7009.8007632,-7.828,17.97,177.63
5.6,128.181966,37.941781,7010.769112800001,-7.806,18.094,177.615
5.61,128.181968,37.941733,7011.7490448,-7.782,18.218,177.6
5.62,128.18197,37.941684,7012.7405592000005,-7.759,18.341,177.586
5.63,128.181972,37.941636,7013.743351200001,-7.735,18.465,177.571
5.64,128.181974,37.941587,7014.7580304,-7.712,18.589,177.556
5.65,128.181976,37.941539,7015.7836824000005,-7.688,18.712,177.541
5.66,128.181978,37.941491,7016.8209168,-7.663,18.836,177.527
5.67,128.18198,37.941442,7017.869428800001,-7.638,18.96,177.512
5.68,128.181983,37.941394,7018.9295232,-7.613,19.083,177.498
5.69,128.181985,37.941346,7020.000895200001,-7.588,19.207,177.484
5.7,128.181987,37.941297,7021.083849600001,-7.562,19.33,177.469
5.71,128.181989,37.941249,7022.1780816,-7.537,19.453,177.455
5.72,128.181991,37.941201,7023.2835912,-7.511,19.577,177.44
5.73,128.181993,37.941153,7024.400378400001,-7.484,19.7,177.426
5.74,128.181995,37.941105,7025.5284432,-7.457,19.823,177.412
5.75,128.181998,37.941057,7026.6680904,-7.43,19.946,177.398
5.76,128.182,37.941008,7027.818710400001,-7.403,20.069,177.384
5.77,128.182002,37.94096,7028.9809128,-7.375,20.192,177.37
5.78,128.182004,37.940912,7030.154088000001,-7.348,20.315,177.356
5.79,128.182007,37.940864,7031.3388456,-7.321,20.438,177.342
5.8,128.182009,37.940817,7032.534576,-7.294,20.561,177.328
5.81,128.182011,37.940769,7033.741584000001,-7.266,20.684,177.314
5.82,128.182014,37.940721,7034.9598696,-7.239,20.807,177.3
5.83,128.182016,37.940673,7036.189128000001,-7.211,20.93,177.286
5.84,128.182018,37.940625,7037.4299688,-7.184,21.052,177.272
5.85,128.182021,37.940577,7038.681782400001,-7.157,21.175,177.259
5.86,128.182023,37.94053,7039.9445688000005,-7.13,21.298,177.245
5.87,128.182025,37.940482,7041.218632800001,-7.103,21.42,177.232
5.88,128.182028,37.940434,7042.5039744000005,-7.075,21.543,177.218
5.89,128.18203,37.940387,7043.8002888,-7.048,21.666,177.205
5.9,128.182033,37.940339,7045.1078808,-7.021,21.788,177.191
5.91,128.182035,37.940292,7046.4261408,-6.994,21.91,177.178
5.92,128.182038,37.940244,7047.755678400001,-6.967,22.033,177.165
5.93,128.18204,37.940197,7049.0964936,-6.939,22.155,177.151
5.94,128.182043,37.940149,7050.4479768,-6.912,22.278,177.138
5.95,128.182045,37.940102,7051.810737600001,-6.885,22.4,177.125
5.96,128.182048,37.940054,7053.1841664,-6.857,22.522,177.112
5.97,128.182051,37.940007,7054.5688728000005,-6.83,22.644,177.099
5.98,128.182053,37.93996,7055.964552000001,-6.803,22.766,177.086
5.99,128.182056,37.939912,7057.3708992,-6.775,22.889,177.073
6.0,128.182058,37.939865,7058.7885240000005,-6.748,23.011,177.06
6.01,128.182061,37.939818,7060.2168168,-6.72,23.133,177.048
6.02,128.182064,37.939771,7061.656387200001,-6.693,23.255,177.035
6.03,128.182066,37.939724,7063.1066256,-6.666,23.377,177.022
6.04,128.182069,37.939677,7064.567532,-6.639,23.498,177.01
6.05,128.182072,37.93963,7066.039411200001,-6.613,23.62,176.997
6.06,128.182074,37.939583,7067.5222632,-6.586,23.742,176.984
6.07,128.182077,37.939536,7069.0157832,-6.559,23.864,176.972
6.08,128.18208,37.939489,7070.520276,-6.532,23.986,176.96
6.09,128.182083,37.939442,7072.035436800001,-6.506,24.107,176.947
6.1,128.182085,37.939395,7073.561265600001,-6.479,24.229,176.935
6.11,128.182088,37.939348,7075.0980672000005,-6.453,24.35,176.923
6.12,128.182091,37.939302,7076.645536800001,-6.426,24.472,176.911
6.13,128.182094,37.939255,7078.203674400001,-6.4,24.593,176.899
6.14,128.182096,37.939208,7079.7727848,-6.374,24.715,176.886
6.15,128.182099,37.939162,7081.3522584,-6.348,24.836,176.874
6.16,128.182102,37.939115,7082.942704800001,-6.322,24.958,176.862
6.17,128.182105,37.939068,7084.5435144,-6.296,25.079,176.851
6.18,128.182108,37.939022,7086.154992000001,-6.27,25.2,176.839
6.19,128.182111,37.938976,7087.777137600001,-6.244,25.321,176.827
6.2,128.182114,37.938929,7089.4099512,-6.218,25.442,176.815
6.21,128.182117,37.938883,7091.0534328,-6.193,25.564,176.803
6.22,128.182119,37.938836,7092.7072776,-6.167,25.685,176.792
6.23,128.182122,37.93879,7094.3717904000005,-6.141,25.806,176.78
6.24,128.182125,37.938744,7096.0466664,-6.116,25.927,176.769
6.25,128.182128,37.938698,7097.7322104,-6.091,26.047,176.757
6.26,128.182131,37.938652,7099.4281176,-6.066,26.168,176.746
6.27,128.182134,37.938605,7101.134692800001,-6.04,26.289,176.735
6.28,128.182137,37.938559,7102.8516312,-6.015,26.41,176.723
6.29,128.18214,37.938513,7104.578932800001,-5.99,26.531,176.712
6.3,128.182143,37.938467,7106.3169024,-5.965,26.651,176.701
6.31,128.182146,37.938421,7108.0652352,-5.94,26.772,176.69
6.32,128.182149,37.938376,7109.8236264,-5.916,26.893,176.679
6.33,128.182152,37.93833,7111.592685600001,-5.891,27.013,176.668
6.34,128.182155,37.938284,7113.3721080000005,-5.866,27.134,176.657
6.35,128.182158,37.938238,7115.1615888,-5.842,27.254,176.646
6.36,128.182162,37.938192,7116.961737600001,-5.818,27.374,176.635
6.37,128.182165,37.938147,7118.7719448,-5.793,27.495,176.624
6.38,128.182168,37.938101,7120.592515200001,-5.769,27.615,176.613
6.39,128.182171,37.938056,7122.423144,-5.745,27.735,176.602
6.4,128.182174,37.93801,7124.264136000001,-5.722,27.855,176.592
6.41,128.182177,37.937965,7126.1154912,-5.698,27.975,176.581
6.42,128.18218,37.937919,7127.976904800001,-5.674,28.095,176.57
6.43,128.182183,37.937874,7129.848376800001,-5.65,28.216,176.56
6.44,128.182187,37.937829,7131.730212,-5.627,28.335,176.549
6.45,128.18219,37.937783,7133.6221056,-5.603,28.455,176.539
6.46,128.182193,37.937738,7135.5240576,-5.58,28.575,176.528
6.47,128.182196,37.937693,7137.436372800001,-5.557,28.695,176.518
6.48,128.182199,37.937648,7139.3584416,-5.534,28.815,176.508
6.49,128.182203,37.937603,7141.290873600001,-5.511,28.935,176.498
6.5,128.182206,37.937558,7143.233059200001,-5.488,29.054,176.487
6.51,128.182209,37.937513,7145.1853032,-5.465,29.174,176.477
6.52,128.182212,37.937468,7147.147910400001,-5.442,29.293,176.467
6.53,128.182216,37.937423,7149.1202712,-5.42,29.413,176.457
6.54,128.182219,37.937378,7151.1023856,-5.397,29.532,176.447
6.55,128.182222,37.937333,7153.0945584,-5.375,29.652,176.437
6.56,128.182225,37.937288,7155.0967896,-5.353,29.771,176.427
6.57,128.182229,37.937244,7157.108774400001,-5.331,29.89,176.417
6.58,128.182232,37.937199,7159.1308176,-5.309,30.009,176.407
6.59,128.182235,37.937154,7161.1626144,-5.288,30.129,176.397
6.6,128.182239,37.93711,7163.2044696,-5.266,30.248,176.388
6.61,128.182242,37.937065,7165.255773600001,-5.244,30.367,176.378
6.62,128.182245,37.937021,7167.317136000001,-5.223,30.486,176.368
6.63,128.182249,37.936977,7169.388252000001,-5.201,30.605,176.359
6.64,128.182252,37.936932,7171.4691216,-5.18,30.724,176.349
6.65,128.182255,37.936888,7173.5597448,-5.159,30.842,176.34
6.66,128.182259,37.936844,7175.6598168,-5.138,30.961,176.33
6.67,128.182262,37.9368,7177.7699472,-5.117,31.08,176.321
6.68,128.182265,37.936755,7179.8895264,-5.096,31.199,176.311
6.69,128.182269,37.936711,7182.0188592,-5.075,31.317,176.302
6.7,128.182272,37.936667,7184.1579456,-5.054,31.436,176.293
6.71,128.182276,37.936623,7186.3064808,-5.034,31.554,176.283
6.72,128.182279,37.936579,7188.4644648,-5.013,31.673,176.274
6.73,128.182282,37.936536,7190.6325072,-4.992,31.791,176.265
6.74,128.182286,37.936492,7192.8096936,-4.972,31.91,176.256
6.75,128.182289,37.936448,7194.996633600001,-4.952,32.028,176.247
6.76,128.182293,37.936404,7197.193022400001,-4.931,32.146,176.238
6.77,128.182296,37.936361,7199.39886,-4.911,32.264,176.229
6.78,128.1823,37.936317,7201.6141464,-4.891,32.382,176.22
6.79,128.182303,37.936274,7203.838881600001,-4.871,32.5,176.211
6.8,128.182307,37.93623,7206.0730656000005,-4.852,32.618,176.202
6.81,128.18231,37.936187,7208.3166984,-4.832,32.736,176.193
6.82,128.182314,37.936143,7210.5694752,-4.813,32.854,176.184
6.83,128.182317,37.9361,7212.8320056,-4.793,32.972,176.175
6.84,128.18232,37.936057,7215.10368,-4.774,33.09,176.166
6.85,128.182324,37.936013,7217.3844984,-4.755,33.207,176.158
6.86,128.182328,37.93597,7219.675070400001,-4.735,33.325,176.149
6.87,128.182331,37.935927,7221.9744816,-4.716,33.442,176.14
6.88,128.182335,37.935884,7224.2833416,-4.697,33.56,176.132
6.89,128.182338,37.935841,7226.6013456,-4.678,33.677,176.123
6.9,128.182342,37.935798,7228.9287984,-4.66,33.795,176.115
6.91,128.182345,37.935755,7231.2650904,-4.641,33.912,176.106
6.92,128.182349,37.935712,7233.610831200001,-4.622,34.029,176.098
6.93,128.182352,37.93567,7235.965716,-4.603,34.147,176.089
6.94,128.182356,37.935627,7238.32944,-4.585,34.264,176.081
6.95,128.182359,37.935584,7240.7026128,-4.566,34.381,176.073
6.96,128.182363,37.935542,7243.084624800001,-4.548,34.498,176.064
6.97,128.182367,37.935499,7245.4757808,-4.529,34.615,176.056
6.98,128.18237,37.935457,7247.8760808,-4.511,34.732,176.048
6.99,128.182374,37.935414,7250.285220000001,-4.493,34.849,176.04
7.0,128.182377,37.935372,7252.7035032,-4.475,34.965,176.032
7.01,128.182381,37.93533,7255.1306256,-4.457,35.082,176.023
7.02,128.182384,37.935287,7257.566587200001,-4.438,35.199,176.015
7.03,128.182388,37.935245,7260.011692800001,-4.421,35.315,176.007
7.04,128.182392,37.935203,7262.4656376,-4.403,35.432,175.999
7.05,128.182395,37.935161,7264.9284216,-4.385,35.548,175.991
7.06,128.182399,37.935119,7267.4003496000005,-4.367,35.665,175.983
7.07,128.182403,37.935077,7269.880812,-4.349,35.781,175.976
7.08,128.182406,37.935035,7272.3701136,-4.332,35.897,175.968
7.09,128.18241,37.934993,7274.8682544,-4.315,36.014,175.96
7.1,128.182413,37.934951,7277.3752343999995,-4.297,36.13,175.952
7.11,128.182417,37.93491,7279.8907488,-4.28,36.246,175.944
7.12,128.182421,37.934868,7282.4151024,-4.263,36.362,175.937
7.13,128.182424,37.934826,7284.948295200001,-4.246,36.478,175.929
7.14,128.182428,37.934785,7287.4900224,-4.229,36.594,175.921
7.15,128.182432,37.934743,7290.040284000001,-4.212,36.71,175.914
7.16,128.182435,37.934702,7292.5993848,-4.195,36.825,175.906
7.17,128.182439,37.93466,7295.167020000001,-4.178,36.941,175.898
7.18,128.182443,37.934619,7297.7431896,-4.161,37.057,175.891
7.19,128.182446,37.934578,7300.3278936,-4.144,37.172,175.883
7.2,128.18245,37.934537,7302.9214368,-4.128,37.288,175.876
7.21,128.182454,37.934495,7305.523209600001,-4.111,37.403,175.869
7.22,128.182457,37.934454,7308.1335168,-4.095,37.519,175.861
7.23,128.182461,37.934413,7310.7523584,-4.078,37.634,175.854
7.24,128.182465,37.934372,7313.3797343999995,-4.062,37.749,175.846
7.25,128.182468,37.934332,7316.01534,-4.046,37.864,175.839
7.26,128.182472,37.934291,7318.65948,-4.03,37.98,175.832
7.27,128.182476,37.93425,7321.3121544000005,-4.013,38.095,175.825
7.28,128.18248,37.934209,7323.9730584,-3.997,38.21,175.818
7.29,128.182483,37.934169,7326.642192,-3.981,38.325,175.81
7.3,128.182487,37.934128,7329.319555200001,-3.966,38.439,175.803
7.31,128.182491,37.934087,7332.0054528,-3.95,38.554,175.796
7.32,128.182494,37.934047,7334.6995799999995,-3.934,38.669,175.789
7.33,128.182498,37.934007,7337.401936800001,-3.918,38.784,175.782
7.34,128.182502,37.933966,7340.1122184000005,-3.903,38.898,175.775
7.35,128.182506,37.933926,7342.8310344,-3.887,39.013,175.768
7.36,128.182509,37.933886,7345.55808,-3.872,39.127,175.761
7.37,128.182513,37.933846,7348.2930504000005,-3.857,39.242,175.754
7.38,128.182517,37.933806,7351.0362504,-3.841,39.356,175.747
7.39,128.182521,37.933766,7353.7873752,-3.826,39.47,175.74
7.4,128.182524,37.933726,7356.5467296,-3.811,39.584,175.734
7.41,128.182528,37.933686,7359.314313600001,-3.796,39.699,175.727
7.42,128.182532,37.933646,7362.0898224,-3.78,39.813,175.72
7.43,128.182535,37.933606,7364.873256000001,-3.765,39.927,175.713
7.44,128.182539,37.933566,7367.664614400001,-3.75,40.041,175.707
7.45,128.182543,37.933527,7370.4642023999995,-3.736,40.154,175.7
7.46,128.182547,37.933487,7373.271410400001,-3.721,40.268,175.693
7.47,128.18255,37.933448,7376.086848,-3.706,40.382,175.687
7.48,128.182554,37.933408,7378.9099056000005,-3.691,40.496,175.68
7.49,128.182558,37.933369,7381.740888000001,-3.677,40.609,175.674
7.5,128.182562,37.933329,7384.5797952,-3.662,40.723,175.667
7.51,128.182565,37.93329,7387.4266272,-3.647,40.836,175.661
7.52,128.182569,37.933251,7390.281079200001,-3.633,40.95,175.654
7.53,128.182573,37.933212,7393.143456000001,-3.618,41.063,175.648
7.54,128.182577,37.933173,7396.0134528,-3.604,41.176,175.641
7.55,128.18258,37.933134,7398.891374400001,-3.589,41.289,175.635
7.56,128.182584,37.933095,7401.776611200001,-3.575,41.403,175.629
7.57,128.182588,37.933056,7404.669772800001,-3.56,41.516,175.622
7.58,128.182592,37.933017,7407.5708592,-3.546,41.629,175.616
7.59,128.182596,37.932978,7410.479260800001,-3.532,41.742,175.61
7.6,128.182599,37.93294,7413.395282400001,-3.518,41.854,175.603
7.61,128.182603,37.932901,7416.318924000001,-3.503,41.967,175.597
7.62,128.182607,37.932862,7419.2501856,-3.489,42.08,175.591
7.63,128.182611,37.932824,7422.1890672,-3.475,42.192,175.585
7.64,128.182614,37.932786,7425.1352640000005,-3.461,42.305,175.579
7.65,128.182618,37.932747,7428.0890808,-3.447,42.418,175.573
7.66,128.182622,37.932709,7431.0502128,-3.433,42.53,175.567
7.67,128.182626,37.932671,7434.0189648000005,-3.42,42.642,175.561
7.68,128.182629,37.932633,7436.995032000001,-3.406,42.755,175.555
7.69,128.182633,37.932594,7439.9787192,-3.392,42.867,175.549
7.7,128.182637,37.932556,7442.9694168,-3.378,42.979,175.543
7.71,128.182641,37.932518,7445.9677344,-3.364,43.091,175.537
7.72,128.182645,37.932481,7448.9733672,-3.351,43.203,175.531
7.73,128.182648,37.932443,7451.986315200001,-3.337,43.315,175.525
7.74,128.182652,37.932405,7455.006578400001,-3.323,43.427,175.519
7.75,128.182656,37.932367,7458.0338520000005,-3.31,43.539,175.513
7.76,128.18266,37.93233,7461.068440800001,-3.296,43.651,175.508
7.77,128.182663,37.932292,7464.1103448,-3.283,43.762,175.502
7.78,128.182667,37.932255,7467.1595640000005,-3.27,43.874,175.496
7.79,128.182671,37.932217,7470.2157936,-3.256,43.985,175.49
7.8,128.182675,37.93218,7473.279033600001,-3.243,44.097,175.485
7.81,128.182679,37.932142,7476.3495888,-3.229,44.208,175.479
7.82,128.182682,37.932105,7479.4271544,-3.216,44.319,175.474
7.83,128.182686,37.932068,7482.5117304,-3.203,44.431,175.468
7.84,128.18269,37.932031,7485.6033168,-3.19,44.542,175.462
7.85,128.182694,37.931994,7488.702218400001,-3.177,44.653,175.457
7.86,128.182697,37.931957,7491.8078256,-3.163,44.764,175.451
7.87,128.182701,37.93192,7494.9204432,-3.15,44.875,175.446
7.88,128.182705,37.931883,7498.0400712,-3.137,44.986,175.44
7.89,128.182709,37.931847,7501.1667096,-3.124,45.097,175.435
7.9,128.182712,37.93181,7504.3000536,-3.112,45.208,175.43
7.91,128.182716,37.931773,7507.440408,-3.099,45.319,175.424
7.92,128.18272,37.931737,7510.587468000001,-3.086,45.43,175.419
7.93,128.182724,37.9317,7513.7415384000005,-3.073,45.542,175.413
7.94,128.182728,37.931664,7516.9023144,-3.06,45.655,175.408
7.95,128.182731,37.931627,7520.070100800001,-3.048,45.768,175.403
7.96,128.182735,37.931591,7523.244288000001,-3.035,45.881,175.397
7.97,128.182739,37.931555,7526.4254856,-3.022,45.995,175.392
7.98,128.182743,37.931519,7529.6133887999995,-3.01,46.11,175.386
7.99,128.182746,37.931483,7532.807997600001,-2.998,46.225,175.381
8.0,128.18275,37.931447,7536.009312,-2.985,46.34,175.375
8.01,128.182754,37.931411,7539.217332,-2.973,46.456,175.37
8.02,128.182758,37.931375,7542.4317528,-2.961,46.573,175.364
8.02,128.182761,37.931339,7545.653184000001,-2.948,46.689,175.359
8.04,128.182765,37.931303,7548.881016,-2.936,46.806,175.353
8.05,128.182769,37.931268,7552.115553600001,-2.924,46.924,175.348
8.06,128.182773,37.931232,7555.356492000001,-2.912,47.041,175.342
8.07,128.182776,37.931197,7558.604136,-2.9,47.159,175.337
8.08,128.18278,37.931161,7561.8584856,-2.887,47.278,175.331
8.09,128.182784,37.931126,7565.118931200001,-2.875,47.396,175.326
8.1,128.182788,37.93109,7568.3863872,-2.863,47.515,175.32
8.11,128.182791,37.931055,7571.6599392,-2.851,47.634,175.315
8.12,128.182795,37.93102,7574.940196800001,-2.838,47.753,175.309
8.13,128.182799,37.930985,7578.2268552000005,-2.826,47.872,175.304
8.14,128.182803,37.93095,7581.520219200001,-2.814,47.991,175.298
8.15,128.182806,37.930915,7584.819679200001,-2.802,48.111,175.293
8.16,128.18281,37.93088,7588.12554,-2.789,48.23,175.288
8.17,128.182814,37.930845,7591.438106400001,-2.777,48.35,175.282
8.18,128.182817,37.93081,7594.756768800001,-2.765,48.47,175.277
8.19,128.182821,37.930776,7598.081832000001,-2.752,48.59,175.272
8.19,128.182825,37.930741,7601.413296000001,-2.74,48.71,175.266
8.21,128.182829,37.930707,7604.7511608,-2.727,48.83,175.261
8.22,128.182832,37.930672,7608.0954264,-2.715,48.951,175.256
8.23,128.182836,37.930638,7611.445788000001,-2.703,49.071,175.25
8.24,128.18284,37.930603,7614.802245600001,-2.69,49.191,175.245
8.25,128.182844,37.930569,7618.1654088000005,-2.678,49.312,175.24
8.26,128.182847,37.930535,7621.5343632,-2.665,49.432,175.235
8.27,128.182851,37.930501,7624.9100232,-2.653,49.553,175.23
8.27,128.182855,37.930467,7628.291474400001,-2.64,49.674,175.225
8.29,128.182858,37.930433,7631.6793264,-2.628,49.795,175.219
8.3,128.182862,37.930399,7635.073274400001,-2.615,49.916,175.214
8.31,128.182866,37.930365,7638.4736232000005,-2.603,50.037,175.209
8.32,128.182869,37.930331,7641.8797632000005,-2.59,50.158,175.204
8.33,128.182873,37.930298,7645.2923040000005,-2.578,50.279,175.199
8.34,128.182877,37.930264,7648.710636000001,-2.565,50.4,175.194
8.35,128.18288,37.930231,7652.135368800001,-2.553,50.521,175.189
8.36,128.182884,37.930197,7655.565892800001,-2.54,50.643,175.184
8.37,128.182888,37.930164,7659.0028176000005,-2.528,50.764,175.18
8.38,128.182891,37.930131,7662.445533600001,-2.515,50.885,175.175
8.39,128.182895,37.930097,7665.894345600001,-2.503,51.007,175.17
8.4,128.182899,37.930064,7669.3489488000005,-2.49,51.129,175.165
8.41,128.182902,37.930031,7672.8096479999995,-2.478,51.25,175.16
8.42,128.182906,37.929998,7676.276443199999,-2.465,51.372,175.155
8.43,128.18291,37.929965,7679.7490296,-2.453,51.494,175.151
8.44,128.182913,37.929932,7683.227712,-2.44,51.616,175.146
8.44,128.182917,37.929899,7686.7121856,-2.428,51.738,175.141
8.46,128.182921,37.929867,7690.202755200001,-2.416,51.86,175.137
8.47,128.182924,37.929834,7693.698811200001,-2.403,51.982,175.132
8.48,128.182928,37.929801,7697.2009632,-2.391,52.105,175.127
8.49,128.182932,37.929769,7700.708906400001,-2.378,52.227,175.123
8.5,128.182935,37.929737,7704.2229456000005,-2.366,52.35,175.118
8.51,128.182939,37.929704,7707.7424712,-2.353,52.472,175.114
8.52,128.182943,37.929672,7711.267788000001,-2.341,52.595,175.109
8.52,128.182946,37.92964,7714.798896,-2.329,52.717,175.105
8.54,128.18295,37.929608,7718.3361,-2.316,52.84,175.1
8.55,128.182953,37.929576,7721.8784856,-2.304,52.963,175.096
8.56,128.182957,37.929544,7725.4269672,-2.292,53.086,175.092
8.57,128.182961,37.929512,7728.9809352,-2.279,53.209,175.087
8.58,128.182964,37.92948,7732.540694400001,-2.267,53.332,175.083
8.59,128.182968,37.929448,7736.1062448,-2.254,53.455,175.079
8.6,128.182971,37.929416,7739.6772816,-2.242,53.579,175.074
8.61,128.182975,37.929385,7743.253804800001,-2.23,53.702,175.07
8.62,128.182979,37.929353,7746.8361192,-2.217,53.825,175.066
8.63,128.182982,37.929322,7750.424224800001,-2.205,53.949,175.062
8.64,128.182986,37.929291,7754.017512,-2.192,54.072,175.058
8.65,128.182989,37.929259,7757.6165904,-2.18,54.196,175.054
8.66,128.182993,37.929228,7761.221155200001,-2.167,54.32,175.05
8.67,128.182996,37.929197,7764.831206400001,-2.155,54.444,175.046
8.68,128.183,37.929166,7768.446744,-2.142,54.568,175.042
8.69,128.183003,37.929135,7772.067768000001,-2.129,54.692,175.038
8.7,128.183007,37.929104,7775.6942784,-2.117,54.816,175.034
8.71,128.183011,37.929073,7779.325970400001,-2.104,54.94,175.03
8.72,128.183014,37.929042,7782.9634536,-2.091,55.064,175.026
8.73,128.183018,37.929012,7786.6061184,-2.079,55.189,175.022
8.74,128.183021,37.928981,7790.254269600001,-2.066,55.313,175.018
8.75,128.183025,37.928951,7793.9079071999995,-2.053,55.438,175.015
8.76,128.183028,37.92892,7797.5667264,-2.041,55.562,175.011
8.77,128.183032,37.92889,7801.231032000001,-2.028,55.687,175.007
8.77,128.183035,37.92886,7804.9005192,-2.015,55.812,175.004
8.79,128.183039,37.928829,7808.575188000001,-2.002,55.937,175.0
8.8,128.183042,37.928799,7812.2553431999995,-1.989,56.062,174.997
8.81,128.183046,37.928769,7815.94068,-1.976,56.187,174.993
8.82,128.183049,37.928739,7819.6311984,-1.964,56.312,174.99
8.83,128.183053,37.928709,7823.3268984,-1.951,56.438,174.986
8.84,128.183056,37.92868,7827.0280848,-1.938,56.563,174.983
8.85,128.18306,37.92865,7830.734148,-1.925,56.688,174.98
8.86,128.183063,37.92862,7834.445392800001,-1.912,56.814,174.976
8.87,128.183066,37.928591,7838.162124,-1.899,56.94,174.973
8.88,128.18307,37.928561,7841.883732,-1.886,57.065,174.97
8.89,128.183073,37.928532,7845.6102168,-1.873,57.191,174.967
8.9,128.183077,37.928502,7849.3421880000005,-1.86,57.317,174.963
8.91,128.18308,37.928473,7853.079036,-1.847,57.443,174.96
8.92,128.183084,37.928444,7856.821065600001,-1.833,57.569,174.957
8.93,128.183087,37.928415,7860.567972,-1.82,57.696,174.954
8.94,128.18309,37.928386,7864.3197552,-1.807,57.822,174.951
8.95,128.183094,37.928357,7868.076720000001,-1.794,57.948,174.949
8.96,128.183097,37.928328,7871.8388664,-1.78,58.075,174.946
8.97,128.183101,37.928299,7875.6055848,-1.767,58.202,174.943
8.98,128.183104,37.928271,7879.3774848,-1.754,58.328,174.94
8.99,128.183107,37.928242,7883.1542616,-1.74,58.455,174.937
9.0,128.183111,37.928213,7886.935915200001,-1.727,58.582,174.935
9.01,128.183114,37.928185,7890.7224456,-1.713,58.709,174.932
9.02,128.183118,37.928157,7894.5138528,-1.7,58.836,174.93
9.02,128.183121,37.928128,7898.310136800001,-1.686,58.963,174.927
9.04,128.183124,37.9281,7902.111297600001,-1.673,59.091,174.925
9.05,128.183128,37.928072,7905.9170304,-1.659,59.218,174.922
9.06,128.183131,37.928044,7909.72764,-1.646,59.346,174.92
9.07,128.183134,37.928016,7913.5431264,-1.632,59.473,174.918
9.08,128.183138,37.927988,7917.3631848,-1.618,59.601,174.915
9.09,128.183141,37.92796,7921.188120000001,-1.604,59.729,174.913
9.1,128.183144,37.927932,7925.017627200001,-1.59,59.857,174.911
9.11,128.183148,37.927905,7928.852011200001,-1.577,59.985,174.909
9.12,128.183151,37.927877,7932.6909672,-1.563,60.113,174.907
9.13,128.183154,37.92785,7936.5344952000005,-1.549,60.241,174.905
9.14,128.183157,37.927822,7940.3829000000005,-1.535,60.37,174.903
9.15,128.183161,37.927795,7944.2355720000005,-1.521,60.498,174.901
9.16,128.183164,37.927768,7948.0931208,-1.506,60.627,174.899
9.17,128.183167,37.927741,7951.954936800001,-1.492,60.755,174.898
9.18,128.18317,37.927714,7955.8216296,-1.478,60.884,174.896
9.19,128.183174,37.927687,7959.6925896,-1.464,61.013,174.894
9.2,128.183177,37.92766,7963.5681216,-1.449,61.142,174.893
9.21,128.18318,37.927633,7967.4482256,-1.435,61.271,174.891
9.22,128.183183,37.927606,7971.332901600001,-1.42,61.4,174.89
9.23,128.183187,37.927579,7975.2218448,-1.406,61.53,174.889
9.24,128.18319,37.927553,7979.115360000001,-1.391,61.659,174.887
9.25,128.183193,37.927526,7983.013142400001,-1.377,61.789,174.886
9.26,128.183196,37.9275,7986.915496800001,-1.362,61.918,174.885
9.27,128.183199,37.927474,7990.8221184,-1.347,62.048,174.884
9.27,128.183203,37.927447,7994.7330071999995,-1.332,62.178,174.883
9.29,128.183206,37.927421,7998.6481632,-1.317,62.308,174.882
9.3,128.183209,37.927395,8002.5678912,-1.303,62.438,174.881
9.31,128.183212,37.927369,8006.4918864,-1.288,62.568,174.88
9.32,128.183215,37.927343,8010.419844,-1.272,62.698,174.88
9.33,128.183218,37.927317,8014.352373600001,-1.257,62.828,174.879
9.34,128.183222,37.927292,8018.289170400001,-1.242,62.958,174.879
9.35,128.183225,37.927266,8022.2299296,-1.227,63.089,174.878
9.36,128.183228,37.92724,8026.174956000001,-1.211,63.219,174.878
9.37,128.183231,37.927215,8030.1242496,-1.196,63.349,174.878
9.38,128.183234,37.927189,8034.0775056,-1.18,63.48,174.877
9.39,128.183237,37.927164,8038.035028800001,-1.164,63.61,174.877
9.4,128.18324,37.927139,8041.996514400001,-1.149,63.741,174.877
9.41,128.183243,37.927114,8045.9622672000005,-1.133,63.872,174.877
9.42,128.183246,37.927089,8049.9319824,-1.117,64.003,174.878
9.43,128.18325,37.927064,8053.90566,-1.101,64.134,174.878
9.44,128.183253,37.927039,8057.8833,-1.085,64.265,174.878
9.45,128.183256,37.927014,8061.8652071999995,-1.069,64.396,174.879
9.46,128.183259,37.926989,8065.851076800001,-1.053,64.527,174.879
9.47,128.183262,37.926965,8069.840604,-1.036,64.658,174.88
9.48,128.183265,37.92694,8073.8343984,-1.02,64.79,174.881
9.49,128.183268,37.926916,8077.831850400001,-1.004,64.921,174.881
9.5,128.183271,37.926891,8081.8332648000005,-0.987,65.053,174.882
9.51,128.183274,37.926867,8085.8386416,-0.97,65.185,174.883
9.52,128.183277,37.926843,8089.847676,-0.954,65.316,174.885
9.52,128.18328,37.926819,8093.8606728,-0.937,65.448,174.886
9.54,128.183283,37.926795,8097.877327200001,-0.92,65.58,174.887
9.55,128.183286,37.926771,8101.897944,-0.903,65.713,174.889
9.56,128.183289,37.926747,8105.9222184,-0.885,65.845,174.89
9.57,128.183292,37.926723,8109.950455200001,-0.868,65.977,174.892
9.58,128.183295,37.926699,8113.9820448,-0.851,66.11,174.894
9.59,128.183297,37.926676,8118.0175968,-0.833,66.242,174.896
9.6,128.1833,37.926652,8122.056806400001,-0.815,66.375,174.898
9.61,128.183303,37.926629,8126.099673600001,-0.798,66.508,174.9
9.62,128.183306,37.926605,8130.1461984,-0.78,66.641,174.902
9.63,128.183309,37.926582,8134.196076,-0.762,66.774,174.905
9.64,128.183312,37.926559,8138.249916,-0.744,66.907,174.907
9.65,128.183315,37.926536,8142.307108800001,-0.725,67.041,174.91
